[
    {
        "about": " รับติดตั้งราวผ้าม่าน",
        "id": "842576492467694",
        "location": {
            "city": "Bangkok",
            "country": "Thailand",
            "latitude": 13.6678982,
            "longitude": 100.4609528,
            "street": "19",
            "zip": "10260"
        },
        "name": "รับติดตั้งผ้าม่าน",
        "phone": "0995207456"
    },
    {
        "about": "รับออกแบบ กระจกอลูมิเนียม ผ้าม่าน ฉากกั้นห้อง",
        "id": "412079392329971",
        "location": {
            "city": "Bangkok",
            "country": "Thailand",
            "latitude": 13.7522,
            "longitude": 100.494,
            "street": "รามอินทรา",
            "zip": "10220"
        },
        "name": "789 Design รับออกแบบติดตั้งกระจก อลูมิเนียม บานเฟี้ยม ฉากกั้นห้อง ผ้าม่าน",
        "phone": "0827893539"
    },
    {
        "about": "รับออกแบบตกแต่งภายใน ติดตั้งผ้่าม่าน",
        "id": "286373774859919",
        "location": {
            "city": "Bangkok",
            "country": "Thailand",
            "latitude": 13.77431,
            "longitude": 100.54686,
            "street": "ซ.แม่เนี๊ยว แขวง/เขต ดินแดง",
            "zip": "10400"
        },
        "name": "ติดตั้งผ้าม่าน",
        "phone": "084 2989987"
    },
    {
        "about": "Oon Curtain (อ้วน ผ้าม่าน)\nTel :  086-349-4121, 097-251-4107\nLine: bussakon_oon\nIG : oon_curtain",
        "id": "846055928773917",
        "name": "ผ้าม่านราคามิตรภาพ รับติดตั้งและออกแบบ ครบวงจร"
    },
    {
        "id": "1687011958185204",
        "location": {
            "city": "Chiang Mai",
            "country": "Thailand",
            "latitude": 18.8124447,
            "longitude": 99.0113068,
            "street": "80/6",
            "zip": "50220"
        },
        "name": "ผ้าม่านเชียงใหม่ ราคาผู้ผลิตบริการติดตั้ง",
        "phone": "0801205359"
    },
    {
        "about": "ผ้าม่านประตูกันยุงกันแมลง เริ่มต้น 150 บาทเท่านั้น \nถูกกว่ามุ้งลวดหลายเท่า \n",
        "id": "609253822519129",
        "name": "ผ้าม่านกันยุงแม่เหล็กยาว 150 บาทแบบสำเร็จพร้อมติดตั้ง"
    },
    {
        "about": "รับติดตั้งผ้าม่าน มู่ลี่ ม่านปรับแสง ม่านจีบ ม่านม้วน ม่านตาไก่ ม่านคอกระเช้า ม่านพับ ",
        "id": "680990415335278",
        "name": "รับติดตั้งผ้าม่าน - ช่าง สายชล"
    },
    {
        "about": "บริการติดตั้ง ผ้าม่าน, มู่ลี่ไม้, วอลล์, ฉากกั้นห้อง, ม่านม้วน, ม่านปรับแสง\nhttp://www.nwcurtain.com/ , 081-913-7833 เต้",
        "description": "ผ้าม่าน มู่ลี่ไม้/อลูมิเนียม พรม วอลล์เปเปอร์ ม่านปรับแสง ม่านม้วน ฉากกั้นห้อง พื้นลามิเนต สินค้าลดราคา 30-50% เรายินดีให้คำปรึกษา และประเมินราคาฟรี !!",
        "emails": [
            "ngamwilai_curtain@hotmail.com"
        ],
        "id": "218164541591400",
        "location": {
            "city": "Bangkok",
            "country": "Thailand",
            "street": "314/19 ซอยสรงประภา 16",
            "zip": "10210"
        },
        "name": "งามวิไลผ้าม่าน รับออกแบบ-ติดตั้งผ้าม่าน",
        "phone": "081-913-7833 ชินโชติ ( เต้ )"
    },
    {
        "about": "เชียงรายผ้าม่าน สาขาแม่จัน รับออกแบบติดตั้ง",
        "description": "เชียงรายผ้าม่าน สาขาแม่จัน รับออกแบบ ติดตั้งผ้าม่าน ม่านปรับแสง มู่ลี่ พรม วอลเปเปอร์ ทุกชนิด ด้วยประสบการณ์การทำงานทางด้านออกแบบและตกแต่งภายในบ้าน มากกว่า 10 ปี\n\"ความสุขของคุณ คืองานของเรา\" ติดต่อ 089-6362174,053-660188 คุณ จิราพร วงศ์ประเสริฐ ที่อยู่ 1/2 ม 5 ต แม่จัน อ แม่จัน เชียงราย 57110",
        "emails": [
            "good_for_home@hotmail.com"
        ],
        "id": "602508496474396",
        "location": {
            "city": "Amphoe Mae Chan",
            "country": "Thailand",
            "latitude": 20.177951129008,
            "longitude": 99.850788116455,
            "street": "1/2 ม.5 ต.ปงตอง ถ.พหลโยธิน ตำบล แม่จัน อำเภอ แม่จัน เชียงราย 57110",
            "zip": "57110"
        },
        "name": "เชียงรายผ้าม่าน แม่จัน ออกแบบและติดตั้ง ผ้าม่าน มู่ลี่ พรม",
        "phone": "0896362174"
    },
    {
        "about": "   ออกแบบ ติดตั้ง ชุดครัว เเละตกเเต่งภายใน พร้อมให้คำปรึกษา บริการเป็นกันเองครับ",
        "emails": [
            "kaikor@hotmail.com"
        ],
        "id": "705176192914955",
        "location": {
            "city": "Samut Prakan",
            "country": "Thailand",
            "latitude": 13.61248,
            "longitude": 100.74425,
            "street": "อ.บางพลี",
            "zip": "10540"
        },
        "name": "ประกอบ ติดตั้งเฟอร์นิเจอร์ ชุดครัว / ผ้าม่าน /วอเปเปอร์",
        "phone": "0816274089"
    },
    {
        "about": "ผ้าม่าน ม่านพับ มู่ลี่ ม่านปรับแสง. คุณภาพดี สวยทันสมัย พร้อมติดตั้ง",
        "description": "จำหน่ายและติดตั้ง ผ้าม่าน ม่านม้วน ม่านปรับแสง มู่ลี่ มู่ลี่ไม้ วอลเปเปอร์ พรม หญ้าเทียม ฉากกั้นห้อง รางผ้าม่าน curtain, blinds, curtain light, folding curtain, pleat, partition, carpet, wallpaper",
        "emails": [
            "piggy_yo4@hotmail.com"
        ],
        "id": "1002361843184285",
        "name": "ร้านผ้าม่าน พร้อมบริการติดตั้งผ้าม่านชนิดต่างๆ ม่านม้วน มู่ลี่",
        "phone": "0831447484"
    },
    {
        "about": "รับติดตั้ง ผ้าม่าน,ฉากกั้นห้อง ม่านปรับแสง วอลเปเปอร์ มู่ลี่ \u0026 กระจกอลูมิเนียม",
        "description": "รับติดต้้ง - - \u003eผ้าม่าน มู่ลี่ วอลเปเปอร์ ฉากกั้นห้อง ม่านรถตู้ พรม ถูกกว่าท้องตลาด 30-40% รับประกันคุณภาพด้วยช่างผู้ชำนาญการด้วยประสบการณ์กว่า 20 ปี คูณภาพเกรด A \n\nรับติดตั้ง - - \u003e  อลูเนียม  กระจก เรามีทีมงานที่มีคุณภาพ ที่ช่วยออกแบบ และเปลี่ยนบ้านคุณและสถานที่ต่างๆที่คุณต้องการให้สวยงามเป็นที่หน้าถูกใจได้อย่างที่คุณต้องคิดไว้",
        "emails": [
            "arnon3245@gmail.com"
        ],
        "id": "338221643006298",
        "location": {
            "city": "Nonthaburi",
            "country": "Thailand",
            "latitude": 13.94067942136,
            "longitude": 100.541639328,
            "street": "72/87 ม.3 ต.บ้านใหม่ ถ.ติวานนท์ อ.ปากเกร็ด",
            "zip": "11120"
        },
        "name": "ผ้าม่านนงเยาว์รับออกแบบ  ติดตั้ง ผ้าม่าน ฉากกั้นห้อง กระจก    อลูมิเนียม",
        "phone": " 0819225868(นงเยาว์) LINE = nongyao1"
    },
    {
        "about": "ติดตั้งผ้าม่านย่านศรีนครินทร์ ออกแบบประเมินราคาถึงบ้าน ฟรี 097-110-6514 , 02-362-2135 ",
        "description": "ติดตั้งผ้าม่านย่านศรีนครินทร์ ออกแบบประเมินราคาถึงบ้าน ฟรี ชัยมงคลผ้าม่าน บริการรับติดตั้งผ้าม่าน ทุกรูปแบบ บริการติดตั้งวอลล์เปเปอร์ , พรม, มู่ลี่, ฉากกั้นห้อง วัสดุคุณภาพ และเป็น มงคลกับตัวบ้าน ด้วยทีมงานมืออาชีพที่มีประสบการณ์มาอย่างยาวนาน ติดตั้งให้แก่ลูกค้ามามากมาย การันตีผลงานรับติดตั้งผ้าม่านต่าง ๆ ของเราได้เป็นอย่างดี อีกทั้ง ชัยมงคลผ้าม่าน ใช้วัสดุที่มีคุณภาพ คงทน แข็งแรง จึงมั่นใจได้ว่าสินค้าและบริการที่ทางเราได้ติดตั้งผ้าม่านนั้น มีอายุการใช้งานที่ยืนนาน และคุ้มค่ามีประสิทธิ์ภาพ โทร. 02-362-2135 , 097-110-6514 คุณ สุธิเกียรติ ",
        "emails": [
            "geag2556@gmail.com"
        ],
        "id": "337199486313275",
        "location": {
            "city": "แยกศรีเทพา ถนนเทพารักษ์ ตำบลเทพารักษ์  อำเภอเมือง จังหวัดสมุทราปราการ",
            "street": "7/192 ซอยร่มโพธิ์ 2",
            "zip": "10270"
        },
        "name": "ร้านผ้าม่าน ชัยมงคล ติดตั้งผ้าม่านสมุทรปราการ",
        "phone": "097-110-6514 , 02-362-2135"
    },
    {
        "about": "รับติดตั้งผ้าม่าน",
        "id": "948865528467944",
        "name": "นานา รับติดตั้ง ออกแบบ  ผ้าม่าน"
    },
    {
        "about": "ผ้าม่าน คริสตัล ดีไซน์ - รับออกแบบและติดตั้งผ้าม่านทุกชนิด ",
        "description": "บริการและจัดจำหน่ายสินค้าตกแต่งภายใน ประเภท ผ้าม่าน ม่านม้วน มู่ลี่ มู่ลี่ไม้ ม่านปรับแสง ฉากกั้นห้อง วอลเปเปอร์ พรม และอุปกรณ์ตกแต่งม่าน\nเปิดดำเนินการมาแล้วกว่า 20 ปี มีความเชี่ยวชาญในการออกแบบและติดตั้ง การันตีคุณภาพงาน ใช้สินค้าคุณภาพเกรดเอ ในราคาที่ถูกกว่าทั่วไป\nบริการวัดและประเมินพื้นที่จริงหน้างานจริงพร้อมคำแนะนำฟรีค่ะ ๑^__^๑",
        "emails": [
            "crystaldesign1989@hotmail.com"
        ],
        "id": "167127413344290",
        "location": {
            "city": "Bangkok",
            "country": "Thailand",
            "street": "ตรงข้ามโชคชัย 4 ซอย 53 (หน้าหมู่บ้าน ต.รวมโชค)",
            "zip": "10230"
        },
        "name": "คริสตัล ดีไซน์ - รับออกแบบและติดตั้งผ้าม่านทุกชนิด",
        "phone": "089-2183354,02-5143180"
    },
    {
        "about": "ติดตั้งผ้าม่าน วอลเปเปอร์ มู่ลี่ ฉากกั้น 0844858853",
        "id": "147763465371802",
        "location": {
            "city": "Amphoe Tha Sala",
            "country": "Thailand",
            "latitude": 8.66667,
            "longitude": 99.9333,
            "street": "1/4 วงแหวนรอบกลาง แยกศรีบัวเงิน",
            "zip": "50110"
        },
        "name": "ร้านผ้าม่านแกรนเด็กซ์เชียงใหม่ วอลเปเปอร์พร้อมติดตั้ง",
        "phone": "0844858853"
    },
    {
        "about": "เอ็ม.วาย.เดคคอร์ กูรูเรื่องผ้าม่าน ร้านผ้าม่าน M.Y. Decore บริการติดตั้งผ้าม่าน ประเมินราคาฟรี",
        "id": "338603776217744",
        "name": "ร้านผ้าม่าน M.Y. Decore บริการติดตั้งผ้าม่าน ประเมินราคาฟรี"
    },
    {
        "about": "บริการออกแบบ ติดตั้ง มู่ลี่ วอลล์เปเปอร์\nรับซ่อม รับทำ เก้าอี้ โซฟา  \nรับซัก รีด ผ้าม่าน ฯลฯ",
        "id": "1469122973385365",
        "location": {
            "city": "คันนายาว กทม.",
            "street": "ถนนเสรีไทย",
            "zip": "10230"
        },
        "name": "ผ้าม่าน ช่างสังวร รับออกแบบ-ติดตั้งผ้าม่าน รับซ่อมเก้าอี้ โซฟา",
        "phone": "0865146928"
    },
    {
        "id": "979825332068476",
        "name": "รับติดตั้งผ้าม่าน วอลเปเปอร์"
    },
    {
        "about": "Namini Design ผ้าม่าน วอลล์เปเปอร์ ปรึกษาประเมินราคาฟรี รับประกันงานหลังติดตั้ง 094-439-8999 นามินิ",
        "id": "1628610710724430",
        "location": {
            "city": "Bangkok",
            "country": "Thailand",
            "latitude": 13.8030796,
            "longitude": 100.8133087,
            "street": "จตุจักร",
            "zip": "10900"
        },
        "name": "Namini Design  ผ้าม่าน  วอลล์เปเปอร์  รับประกันงานหลังติดตั้ง",
        "phone": "0944398999"
    },
    {
        "id": "405925412950388",
        "location": {
            "city": "Nakhon Ratchasima",
            "country": "Thailand",
            "street": "302 ซ.3 ม.10 ต.สุรนารี",
            "zip": "30000"
        },
        "name": "ร้านทำผ้าม่านโคราช เน้นผ้าดี ทน ตัดเย็บเอง ฟรีติดตั้ง",
        "phone": "0843547243"
    },
    {
        "id": "380615285434082",
        "name": "ผ้าม่านณภัทร  รับออกแบบติดตั้งผ้าม่านและวอล์ลเปเปอร์ 099-9605590"
    },
    {
        "about": "ติดตั้งฟรี",
        "id": "285414101529868",
        "name": "ผ้าม่าน หมอน ผ้าปู. อกกแบบฟรีติดตั้งฟรี"
    },
    {
        "id": "898289163593443",
        "location": {
            "city": "Ratchaburi",
            "country": "Thailand",
            "latitude": 13.5333,
            "longitude": 99.8,
            "street": "59 หมู่3  ต. บ้านฆ้อง อ.โพธาราม",
            "zip": "70120"
        },
        "name": "PB Benjachat  บริการติดตั้งผ้าม่าน",
        "phone": "08766733020931131619"
    },
    {
        "about": "สนใจติดต่อ 081-830-1613 แฟกซ์ 02-598-4879 supath07@hotmail.com ,hsupath@gmail.com",
        "description": "รับติดตั้ง กระจก อลูมิเนียม เหล็กดัด สแตนเลส ผ้าม่าน ฉากกั้นห้อง โดยทีมงานที่มีคุณภาพ ราคาไม่แพง\nพร้อมติดตั้งโดยประกอบงานจากที่ร้าน ใช้เวลาไม่นาน\n\nดำเนินงานโดย \nคุณสามารถ ฮีมินกูล (ศิษย์เก่าโรงเรียนดอนบอสโก กรุงเทพ)\nประสบการณ์ยาวนานกว่า 25 ปี\nสนใจติดต่อโดยตรงได้ที่ 081-831-1613\n\nที่อยู่ 99/16 ม.3 หมู่บ้านอธิเชฐธานี  \nตำบลเชียงรากใหญ่ อำเภอสามโคก \nจังหวัดปทุมธานี 12160",
        "emails": [
            "hsupath@gmail.com",
            "supath07@hotmail.com"
        ],
        "id": "166751976690989",
        "location": {
            "city": "Pathum Thani",
            "country": "Thailand",
            "street": "99/16 หมู่ 3 หมู่บ้านอธิเชฐธานี ถนน 347 เชียงรากใหญ่",
            "zip": "12160"
        },
        "name": "ร้าน ต.รุ่งโรจน์ รับติดตั้งงานกระจก อลูมิเนียม เหล็กดัด มุ้งลวด ผ้าม่าน",
        "phone": "0818301613"
    }
]