[
    {
        "id": "432514760269331",
        "location": {
            "city": "Bangkok",
            "country": "Thailand",
            "latitude": 13.8678598,
            "longitude": 100.5919037,
            "street": "ซ.พหลโยธิน40 ถนนพหลโยธิน เขตจตุจักร แขวงเสนานิคม",
            "zip": "10900"
        },
        "name": "รับติดตั้ง ฉากกั้นแอร์,ผ้าม่าน,ม่านพับ,มู่ลี่ อื่นๆ",
        "phone": "0829598291"
    },
    {
        "id": "1667285520150202",
        "name": "ติดตั้งผ้าม่าน"
    },
    {
        "about": "Te:084-9027017,0860332624\nLine id : spicedesing",
        "id": "1379494582334556",
        "name": "Spicedesign รับติดตั้งผ้าม่าน ม่านปรับแสง มู่ลี่ วอลเปเปอร์ และต่อเติมบ้าน"
    },
    {
        "about": "ขาย และติดตั้ง",
        "id": "631931790184454",
        "location": {
            "city": "Bangkok",
            "country": "Thailand",
            "latitude": 13.81913,
            "longitude": 100.67546,
            "street": "สถานที่ 55/255แขวงคันนายาว เขต คันนายาว กรุงเทพ, Bangkok, Thailand 10230",
            "zip": "10230"
        },
        "name": "จำหน่าย ผ้าม่าน วอเปอร์ มู่ลี่ ฉากกั้นห้อง พรม พร้อมติดตั้ง",
        "phone": " 0890424356"
    },
    {
        "id": "125116491013804",
        "name": "ม่านจับจัย จำหน่าย ตัดเย็บ ติดตั้ง ผ้าม่าน มู่ลี่ ม่านปรับแสง วอลล์เปเปอร์"
    },
    {
        "about": "บริการตกแต่งภายใน  ผ้าม่าน มู่ลี่ วอล์ลเปเปอร์ ราคามิตรภาพ  สนใจติดต่อ 0815552795",
        "id": "808439579239036",
        "name": "รับติดตั้งผ้าม่าน วอล์ลเปเปอร์"
    },
    {
        "about": "รับติดตั้งผ้าม่าน ม่านปรับแสง ม่านม้วน มู่ลี่ วอลล์เปเปอร์ \n\nTEL.091-6294544,085-4479160,084-2224152\n\n",
        "description": "ผลิต-บริการผ้าม่าน มูลี่ ฉากกั้นห้อง ม่านปรับแสง ม่านพับ ม่านม้วน วอลล์เปเปอร์ และอุปกรณ์ ตกแต่งบ้านต่างๆ สินค้าคุณภาพ ตัดเย็บ ประกอบ ติดตั้ง ด้วยความละเอียดและปราณีต",
        "emails": [
            "naphop.66@gmail.com"
        ],
        "id": "115206791988043",
        "location": {
            "city": "Bangkok",
            "country": "Thailand",
            "latitude": 13.77716220754,
            "longitude": 100.64206224419,
            "street": "67/62 Happy Land Sai 2 Road Khlong Chan Bang Kapi",
            "zip": "10240"
        },
        "name": "Naphop Decor - รับติดตั้งผ้าม่าน วอลล์เปเปอร์ ม่านปรับแสง ม่านม้วน",
        "phone": "TEL.091-6294544,085-4479160,084-2224152"
    },
    {
        "about": "รับซักและติดตั้งผ้าม่าน ราคาย่อมเยาว์ สอบถามรายละเอียด โทร.093-850-5538คุณตี๋ 098-285-6181 คุณวุธ",
        "description": "-บริการซักผ้าม่านทุกชนิดด้วยน้ำยาจากประเทศอเมริกา\n-บริการ ซัก รีด ติดตั้ง\n-ด้วยประสบการณ์ด้านซักผ้าม่านกว่า30ปี\nผู้รับบริการจะได้รับความพึ่งพอใจอย่างแน่นอน\nสนใจสอบถามเพิ่มเติม\nโทร.093-850-5538 คุณตี๋ 098-285-6181คุณวุธ",
        "id": "1718246471739242",
        "name": "Mr.Curtain-รับซักและติดตั้งผ้าม่านทุกชนิด"
    },
    {
        "about": "สนใจติดต่อ 0891545343\n หรือ ID 0891545343\nอยู่ที่ จ. สมุทรสงคราม",
        "id": "695289640569700",
        "location": {
            "city": "อ. เมือง จ. สมุทรสงคราม",
            "street": "39/11ม.4 ต. แม่กลอง",
            "zip": "75000"
        },
        "name": "วาสนา ผ้าม่าน รับติดตั้งผ้าม่านและติดตั้งไฟฟ้าทุกชนิด",
        "phone": "0891545343"
    },
    {
        "about": "ผ้าม่าน ทั้งหลัง ราคา เริ่มต้น 9,000 บาท รับสั่งตัด ผ้าม่าน มู่ลี่ ม่านม้วน ม่านปรับเเสง ",
        "id": "373555496148652",
        "location": {
            "city": "Bangkok",
            "country": "Thailand",
            "latitude": 13.89633,
            "longitude": 100.63934,
            "street": "บางเขน",
            "zip": "10220"
        },
        "name": "ลัดดา ผ้าม่าน พร้อมติดตั้ง มู่ลี่ ม่านปรับแสง ม่านม้วน ราคาประหยัด",
        "phone": "0927176905"
    },
    {
        "id": "180104912326096",
        "name": "รับติดตั้งวอลล์เปเปอร์ ผ้าม่าน"
    },
    {
        "about": "จำหน่ายของใช้สำหรับผู้หญิง",
        "description": "จำหน่ายสินค้า ของคุณผู้หญิงนำเข้าจาก ต่างประเทศ",
        "id": "587429641321089",
        "location": {
            "city": "Nakhon Ratchasima",
            "country": "Thailand",
            "latitude": 14.959615474096,
            "longitude": 102.06066066906,
            "street": "96/3 ถ.ริ่มบุ่ง ต.หนองไผ่ล้อม อ.เมือง",
            "zip": "30000"
        },
        "name": "จำหน่ายและติดตั้งผ้าม่าน ราคาถูกทั่วไทย",
        "phone": "087-8805199"
    },
    {
        "about": "จำหน่าย/ติดตั้งวัสุดตกแต่งภายใน",
        "description": "รับออกแบบตกแต่งภายใน จำหน่าย/ติดตั้งผ้าม่าน มูลี่ ม่านปรับแสง วอล์ลเปเปอร์ ฉากกั้นห้อง พรม วัสดุปูพื้น และบริการ ซัก รีด อัดกลีบผ้าม่าน",
        "emails": [
            "nextstephous2@gmail.com"
        ],
        "id": "693881697323115",
        "location": {
            "city": "จ.ศรีสะเกษ",
            "street": "276/7 ม.8 ต.โพธิ์ ถ.อุบล อ.เมือง",
            "zip": "33000"
        },
        "name": "เน็กซ์สเต็ป ผ้าม่าน - จำหน่ายติดตั้งวัสดุตกแต่งภายใน",
        "phone": "045633203"
    },
    {
        "id": "568431126609571",
        "location": {
            "city": "กรุงเทพฯ",
            "street": "นวมินทร์ 111"
        },
        "name": "แอลเค เวลธ จำหน่ายพร้อมติดตั้ง ผ้าม่าน วอลเปเปอร์ มูลี่",
        "phone": "0894354255"
    },
    {
        "about": "ผ้าม่าน มู่ลี่ และวอลล์เปเปอร์",
        "id": "660125027388360",
        "name": "Deco de Sand รับติดตั้งผ้าม่าน  มู่ลี่ และวอลล์เปเปอร์ T 095 782 2234"
    },
    {
        "about": "จำหน่ายผ้าม่านตามสั่ง ปลีก , ส่ง , รับติดตั้ง(ถ้าระยะทางไม่ไกลจนเกินไป)",
        "id": "769822616478980",
        "name": "ผ้าม่าน ราคาถูก ขายปลีกส่ง ติดตั้ง"
    },
    {
        "about": "ติดผ้าม่าน.สระบุรี , ร้านผ้าม่านสระบุรี , มู่ลี่สระบุรี , ผ้าม่านบ้านสระบุรี",
        "id": "1143612022319564",
        "name": "ร้านผ้าม่านสระบุรี ถูกที่สุด ติดตั้งผ้าม่าน,วอลเปเปอร์,ม่านปรับแสง,มู่ลี่"
    },
    {
        "about": "รับติดตั้งผ้าม่าน-วอลล์เปเปอร์",
        "description": "ติดต่อที่0940340329",
        "id": "948281198569096",
        "location": {
            "city": "ไทย",
            "street": "กรุงเทพ",
            "zip": "10250"
        },
        "name": "รับติดตั้งวอลล์เปเปอร์-ผ้าม่าน",
        "phone": "0940340329"
    },
    {
        "id": "1485459551676515",
        "location": {
            "city": "ประเทศไทย",
            "street": "40/29 หมู่บ้านซิกเนเจอร์ 69 แขวงหนองค้างพลู เขตหนองแขม",
            "zip": "10160"
        },
        "name": "กาญจน์ ผ้าม่าน ออกแบบ ติดตั้ง กระจก อลูมิเนียม ผ้าม่าน ฉากกั้นห้อง pvc",
        "phone": "0981926364"
    },
    {
        "about": "ติดผ้าม่านลำปาง , ร้านผ้าม่านลำปาง , มู่ลี่ลำปาง , ผ้าม่านบ้านลำปาง",
        "id": "1689319584638103",
        "name": "คุณโยผ้าม่านลำปาง รับติดตั้ง-ออกแบบผ้าม่าน สำหรับบ้าน คอนโด ออฟฟิศฯลฯ"
    },
    {
        "about": "วอลล์เปเปอร์ติดผนังราคาถูกที่สุด ผ้าม่าน พร้อมติดตั้ง ส่งทั่วประเทศ  085-1521524 086-6689983",
        "id": "704943352907979",
        "name": "วอลล์เปเปอร์ ผ้าม่าน ราคาถูกที่สุด ออกแบบภายในพร้อมติดตั้ง Vivacious Design"
    },
    {
        "about": "รับปรึกษาและบริการติดตั้งผ้าม่านทุกชนิด\nติดต่อ\nK.m\n0917205223-0867567264\n",
        "id": "830914167016237",
        "name": "รับติดตั้งผ้าม่าน-ikeaและผ้าม่านทั่วไป"
    },
    {
        "about": "รับติดตั้งผ้าม่าน  วอลเปเปอร์  มู่ลี่  บริการออกแบบให้ฟรีโดยช่างมืออาชีพ  ",
        "id": "1526547534280102",
        "name": "รับติดตั้งผ้าม่าน  วอลเปเปอร์ ทั้งบ้านและคอนโด บริการออกแบบฟรี"
    },
    {
        "id": "505468622942378",
        "name": "รับติดตั้งผ้าม่าน วอลล์เปเปอร์"
    },
    {
        "about": "บริการรับตกแต่งภายในบ้าน อาคาร  สำนักงานต่างๆ เช่น ม่าน วอลเปเปอร์ และอื่นๆ",
        "id": "1518073161762071",
        "location": {
            "city": "Nakhon Pathom",
            "country": "Thailand",
            "latitude": 13.81103,
            "longitude": 100.01429,
            "street": "นครปฐม",
            "zip": "73000"
        },
        "name": "ลำพยาผ้าม่าน  ติดตั้งวอลล์เปเปอร์ ม่านปรับแสง",
        "phone": "0998651725"
    }
]