[
    {
        "about": "Tel:086-3458476\nLind ID :0863458476",
        "id": "1582190155359638",
        "location": {
            "city": "Bangkok",
            "country": "Thailand",
            "latitude": 13.7522,
            "longitude": 100.494,
            "street": "323/455 หมู่บ้านกรุงทอง เขตสายไหม แขวงสายไหม",
            "zip": "10220"
        },
        "name": "Curtain design รับออกแบบ ติดตั้ง ผ้าม่าน มู่ลี่",
        "phone": "0863458476"
    },
    {
        "about": "รับติดตั้งผ้าม่าน มู่ลี่ วอลเปเปอร์\nราคาถูก ผลงานดี",
        "description": "รับติดตั้งผ้าม่าน มู่ลี่ วอลเปเปอร์ โดยช่างชำนาญงาน ประเมินหน้างานฟรี ",
        "emails": [
            "naiwut@gmail.com"
        ],
        "id": "1574981139437531",
        "location": {
            "city": "Bangkok",
            "country": "Thailand",
            "latitude": 13.7716999,
            "longitude": 100.5586624,
            "street": "127/5 PrachaSongkhro 21, Din Daeng",
            "zip": "10400"
        },
        "name": "รับ ติดตั้งผ้าม่าน ประเมินหน้างานฟรี",
        "phone": "0863691444"
    },
    {
        "id": "1442712056041700",
        "location": {
            "city": "Ban Non Som Kop",
            "country": "Thailand",
            "latitude": 15.06680116,
            "longitude": 100.72179386,
            "street": "ตลาดโคกสำโรง"
        },
        "name": "ตั้งไต่เส็ง ร้านตัดผ้าไหม-ผ้าม่าน"
    },
    {
        "id": "1410300149183636",
        "location": {
            "city": "Bangkok",
            "country": "Thailand",
            "latitude": 13.75395,
            "longitude": 100.50224,
            "street": "Sanambin Nam Road"
        },
        "name": "Jim Design รับออกแบบติดตั้ง ผ้าม่าน มู่ลี่ วอลล์เปเปอร์"
    },
    {
        "id": "848789435187933",
        "location": {
            "city": "Buriram",
            "country": "Thailand",
            "latitude": 15.25642,
            "longitude": 103.26592,
            "street": "111/8 ต.นิคม อ.สตึก จ.บุรีรัมย์",
            "zip": "31150"
        },
        "name": "สตึกผ้าม่าน สั่งตัด-รับออกแบบ-ติดตั้งฟรี",
        "phone": "0857693690"
    },
    {
        "id": "818689941488433",
        "location": {
            "city": "Bangkok",
            "country": "Thailand",
            "latitude": 13.7464138,
            "longitude": 100.6941331,
            "zip": "10240"
        },
        "name": "โรงงานเย็บผ้าม่าน\u0026รับติดตั้ง",
        "phone": "0888428493"
    },
    {
        "id": "790239540995501",
        "location": {
            "city": "Chiang Mai",
            "country": "Thailand",
            "latitude": 18.68886,
            "longitude": 99.01732,
            "street": "สารภี",
            "zip": "50140"
        },
        "name": "กมลวรรณผ้าม่าน. - รับจำหน่ายและติดตั้งผ้าม่าน",
        "phone": "0804999740"
    },
    {
        "id": "760476940728161",
        "location": {
            "city": "Amphoe Sam Phran",
            "country": "Thailand",
            "latitude": 13.8035498,
            "longitude": 100.0196686,
            "street": "ถ.พุทธมณฑลสาย4",
            "zip": "73220"
        },
        "name": "รับออกแบบและติดตั้งผ้าม่านและวอเปเปอร์",
        "phone": "0875042465"
    },
    {
        "id": "699521116794076",
        "location": {
            "city": "Bangkok",
            "country": "Thailand",
            "latitude": 13.930938849239,
            "longitude": 100.59539610529,
            "street": "สรณคมณ์17",
            "zip": "10210"
        },
        "name": "Vivacious Design วอลล์เปเปอร์ ผ้าม่าน ราคาถูกที่สุด ออกแบบภายในพร้อมติดตั้ง"
    },
    {
        "about": "ร้านธิดาผ้าม่านรับออกแบบและติดตั้งผ้าม่านทุกประเภท สนใจติดต่อได้ที่เบอร์ 0872500863",
        "id": "509666379184815",
        "location": {
            "city": "Amphoe Pak Chong",
            "country": "Thailand",
            "latitude": 14.7016001,
            "longitude": 101.4177017,
            "street": "ซอยสะพานดำ",
            "zip": "30130"
        },
        "name": "ธิดาผ้าม่าน - ซอยสะพานดำ รับออกแบบและติดตั้งผ้าม่านทุกประเภท",
        "phone": "0872500863"
    },
    {
        "description": "รับออกแบบติดตั้งกระจกอลูมิเนียม ฉากกั้นอาบน้ำ",
        "id": "487544434628258",
        "location": {
            "city": "Bangkok",
            "country": "Thailand",
            "latitude": 13.894459411043,
            "longitude": 100.62431498935,
            "street": "166/91  ม.ณัฐกานต์3  พหลโยธิน 52 สะพานใหม่",
            "zip": "10220"
        },
        "name": "บีเอ็มเฟรม รับออกแบบติดตั้ง กระจกอลูมิเนียม ผ้าม่าน ฉากกั้นอาบน้ำ",
        "phone": "029739056"
    },
    {
        "id": "449838085105019",
        "location": {
            "city": "Nakhon Sawan",
            "country": "Thailand",
            "latitude": 15.684148846364,
            "longitude": 100.1065322024,
            "street": "SOI SAWANVITEE 50"
        },
        "name": "Atom Curtain \u0026 Design รับออกแบบติดตั้งผ้าม่าน มู่ลี่ วอลเปเปอร์"
    },
    {
        "id": "356840491193859",
        "location": {
            "city": "Amphoe Bang Phli",
            "country": "Thailand",
            "latitude": 13.5914632625,
            "longitude": 100.72227796833,
            "street": "บางปลาซอย2,ซอยธนสิทธิ์",
            "zip": "10540"
        },
        "name": "Deco De sand - เดอแซน โทร: 0957822234 รับติดตั้งผ้าม่าน มู่ลี่ วอลล์เปเปอร์"
    },
    {
        "about": "รับติดตั้งผ้าม่านในและนอกสถานที่",
        "emails": [
            "pooklook_leeo@hotmail.com"
        ],
        "id": "349132281881126",
        "location": {
            "city": "Phatalung",
            "country": "Thailand",
            "latitude": 7.29406,
            "longitude": 100.03773,
            "street": "รับติดตั้งผ้าม่าน",
            "zip": "93160"
        },
        "name": "พีพี\u0026เค",
        "phone": "088-3973769"
    },
    {
        "id": "308407449283130",
        "location": {
            "city": "Amphoe Bang Phli",
            "country": "Thailand",
            "latitude": 13.59140982,
            "longitude": 100.722178955,
            "street": "ซอยธนสิทธิ์ SK Plaza"
        },
        "name": "Deco De Sand - เดอแซน รับติดตั้งผ้าม่าน มู่ลี่ วอลล์เปเปอร์ Tel: 0957822234"
    },
    {
        "id": "100860980268125",
        "location": {
            "city": "Ang Thong",
            "country": "Thailand",
            "latitude": 14.5833,
            "longitude": 100.45,
            "street": "หมู่ 10 ต.บ้านอิฐ"
        },
        "name": "ติดตั้งผ้าม่าน",
        "phone": "085 9500275"
    },
    {
        "about": "รับสั่ง ทำ ปลอกหมอนสวยๆ และ ติดตั้ง กระจกอลูมิเนียม พร้อม อุปกรณ์ ครบชุด สนใจอินบ๊อกเบย",
        "id": "872995656119135",
        "location": {
            "city": "Kalasin",
            "country": "Thailand",
            "latitude": 16.4333,
            "longitude": 103.5,
            "street": "131 หมู่3 ตำบล เหนือ บ้าน หนาด อ.เมือง จ.กาฬสินธุ์",
            "zip": "46000"
        },
        "name": "รับ สั่ง ทำ ผ้าม่าน พร้อมติดตั้ง และอื่นๆ อีกมากมาย",
        "phone": "0828495159"
    },
    {
        "about": "ติตตั้งผ้านม่านทุกชนิดทั่วประเทศ",
        "emails": [
            "somchit_siri@hotmail.com"
        ],
        "id": "1638107406418821",
        "location": {
            "city": "Bangkok",
            "country": "Thailand",
            "latitude": 13.7522,
            "longitude": 100.494,
            "street": "Bankkok",
            "zip": "10220"
        },
        "name": "ติดตั้งผ้าม่านทั่วประเทศ",
        "phone": "0983405549"
    },
    {
        "about": "รับติดตั้งวอลเปเปอร์และผ้าม่าน ทั่วไป",
        "emails": [
            "chakrawut18736@gmail.com"
        ],
        "id": "1523979117852283",
        "location": {
            "city": "Bangkok",
            "country": "Thailand",
            "latitude": 13.8063869,
            "longitude": 100.6106567,
            "street": "เอ็ม.เจ อพาร์ทเม้นท์ 22 ซ.นาคนิวาส 14 แขวงลาดพร้าว เขตลาดพร้าว",
            "zip": "10230"
        },
        "name": "จำหน่าย/ติดตั้งวอลเปเปอร์และผ้าม่าน",
        "phone": "0847120553.0904751099"
    },
    {
        "id": "1563392040583265",
        "location": {
            "city": "Bangkok",
            "country": "Thailand",
            "latitude": 13.7522,
            "longitude": 100.494,
            "street": "281/2 หมู่ที่ 6 ถ.พหลโยธิน แขวงสายไหม เขตสายไหม",
            "zip": "10220"
        },
        "name": "รับติดตั้งผ้าม่านครบวงจร",
        "phone": "0813103394"
    },
    {
        "about": "รับติดตั้งผ้าม่าน วอล์เปเปอร์",
        "id": "610131452361354",
        "location": {
            "city": "Bangkok",
            "country": "Thailand",
            "latitude": 13.90811,
            "longitude": 100.58717,
            "street": "เขตดอนเมือง  จังหวัดกรุงเทพมหานคร",
            "zip": "10210"
        },
        "name": "ติดตั้งผ้าม่าน วอล์เปเปอร์",
        "phone": "0853219774"
    },
    {
        "about": "บริการตัดเย็บ ติดตั้งผ้าม่าน ม่านปรับแสง ฉากกั้นห้อง มู่ลี่ ออกแบบ เขียนแบบ ตกแต่งภายใน",
        "id": "802610646484463",
        "location": {
            "city": "Phetchaburi",
            "country": "Thailand",
            "latitude": 13.75365,
            "longitude": 100.530655,
            "street": "ราชดำเนิน",
            "zip": "76000"
        },
        "name": "ฟากฟ้า ดีไซน์ ติดตั้งผ้าม่าน ม่านปรับแสง มู่ลี่",
        "phone": "660864112580"
    },
    {
        "id": "413627608834878",
        "location": {
            "city": "Pattaya",
            "country": "Thailand",
            "latitude": 12.9333,
            "longitude": 100.883,
            "street": "ประเทศไทย",
            "zip": "21000"
        },
        "name": "รัชนก ดีไซน์  รับออกแบบและติดตั้ง ผ้าม่าน มุ้งลวด เหล็กดัด"
    },
    {
        "about": "งานผ้าม่าน",
        "id": "1589773807909861",
        "location": {
            "city": "Amphoe Kabin Buri",
            "country": "Thailand",
            "latitude": 13.9833,
            "longitude": 101.717,
            "street": "88 / 3 หมู่9 หมู่บ้านแสนสุขซอย2 ตำบล หนองกี่อำเภอกบินทร์บุรี",
            "zip": "25110"
        },
        "name": "รับออกแบบติดตั้งผ้าม่าน มู่ลี่ ฉากกั้นห้อง ม่านปรับแสง",
        "phone": "0847020339, 0863382280"
    },
    {
        "about": "รับออกแบบและติดตั้งผ้าม่านทุกชนิด วอลล์เปเปอร์ ต่อเติมบ้าน โครงหลัง",
        "id": "656070584500519",
        "location": {
            "city": "Thai Chang",
            "country": "Thailand",
            "latitude": 8.45358,
            "longitude": 98.53896,
            "street": "พระราม2 / สมุทรสาคร",
            "zip": "101500"
        },
        "name": "รับออกแบบและติดตั้งผ้าม่านทุกชนิด วอลล์เปเปอร์ ต่อเติมบ้าน โครงหลัง",
        "phone": "0962249615"
    }
]