[
    {
        "id": "1551520668436509",
        "location": {
            "city": "Ubon Ratchathani",
            "country": "Thailand",
            "latitude": 15.23817004,
            "longitude": 104.844935445
        },
        "name": "วิทยาลัยชื่อดังเรื่องงานช่างแห่งหนึ่งย่านหอนาฬิกาตรงข้ามนารี"
    },
    {
        "about": "จำหน่ายนาฬิกาข้อมือ นาฬิกาแขวน นาฬิกาปลุก  เครื่องคิดเลข สายนาฬิกา ราคาถูก คุณภาพดี",
        "id": "366190053510248",
        "location": {
            "city": "Muang Chiang Mai",
            "country": "Thailand",
            "latitude": 18.78988,
            "longitude": 98.93018,
            "street": "ถนนช้างเผือก",
            "zip": "50200"
        },
        "name": "ไทมส์นาฬิกา เชียงใหม่",
        "phone": "053210585"
    },
    {
        "id": "803319676388640",
        "location": {
            "city": "Bangkok",
            "country": "Thailand",
            "latitude": 13.7522,
            "longitude": 100.494,
            "street": "ดินแดง",
            "zip": "10230"
        },
        "name": "ช่างแต่งหน้าณเกศ ถ่ายงานเสื้อผ้า นาฬิกา แว่นตา",
        "phone": "0815655464"
    },
    {
        "id": "1575545209367365",
        "location": {
            "city": "Bangkok",
            "country": "Thailand",
            "latitude": 13.7246237,
            "longitude": 100.5647125,
            "street": "สุขุมวิท",
            "zip": "10230"
        },
        "name": "ช่างแต่งหน้าณเกศ ถ่ายงานนาฬิกา Chopard",
        "phone": "0815655464"
    }
]