[
    {
        "about": "บริการ ซ่อม นาฬิกาด้วยเครื่องมือทันสมัย  เปลี่ยนอะไหล่   เปลี่ยนถ่าน ",
        "description": "เราให้บริการซ่อมนาฬิกาที่มีความซับซ้อนที่ใช้ในนาฬิกาชั้นสูงเช่น ROLEX, PATEK PHILIPPE, OMEGA, LONGINES, TAG HEUER, AUDEMARS, CARTIER, MOVADO และอื่นๆ โดยเสนอการซ่อมแซมนาฬิกาและบริการหลังการขายแบบครบวงจรแก่ลูกค้าบริการ \n\n      บริการตรวจเช็คสภาพนาฬิกาด้วยเครื่องมือทันสมัย ซ่อมนาฬิกาข้อมือ เปลี่ยนอะไหล่ ล้างเครื่องทำความสะอาดตัวเรือน ชุบสายและตัวเรือน เปลี่ยนเข็ม เปลี่ยนเม็ดมะยม หน้าปัด เปลี่ยนถ่านนาฬิกา เปลี่ยนสาย ตรวจเช็คความเที่ยงตรง ตรวจเช็คระบบกันน้ำ ซ่อมนาฬิกาทุกประเภท ทั้งแขวนผนัง,ตั้งพื้น,นาฬิกาโบราณ รับประกันการใช้งานทุกชิ้นงาน ",
        "emails": [
            "marketing@buddykeywatch.com"
        ],
        "id": "436276469858887",
        "location": {
            "city": "Muang Chiang Mai",
            "country": "Thailand",
            "latitude": 18.774738644043,
            "longitude": 98.999018249119,
            "zip": "50100"
        },
        "name": "ช่างนาฬิกา ซ่อมนาฬิกา เชียงใหม่  053-270264",
        "phone": "053 270 254 , 053 270264 ,093 181 2873"
    },
    {
        "about": "แลกเปลี่ยนความรู้เรื่องนาฬิกาและแว่นตา",
        "id": "225264520910600",
        "name": "ชุมชนช่างนาฬิกาและแว่นตา"
    },
    {
        "id": "134482786742162",
        "name": "ช่างก้อง นาฬิกา"
    },
    {
        "about": "รับสะเดาะกุญแจ รถ บ้าน ตู้เซฟ เปลี่ยนถ่านรีโมทรถยนต์ นาฬิกา กรอบรีโมทรถยนต์ ",
        "id": "183946401796833",
        "location": {
            "city": "Bangkok",
            "country": "Thailand",
            "latitude": 14.065171723158,
            "longitude": 100.61778662825,
            "street": "หน้าร้านห้างเพชรทองบางขันธ์ 91/14 หมู่ 8 ตำบลคลองหนึ่ง อำเภอคลองหลวง จังหวัดปทุมธานี",
            "zip": "12120"
        },
        "name": "ช่างกุญแจ/นาฬิกาบางขันธ์-ม.ธรรมศาสตร์ ศูนย์รังสิต,คลองหลวง โทร.0860003635",
        "phone": "0860003635"
    },
    {
        "about": "บริการงานซ่อมนาฬิกาทุกแบรนด์ทั่วโลกจากมืออาชีพ",
        "description": "รับซ่อมนาฬิกาทุกแบรนด์ทุกยี่ห้อทั่วโลก รับซ่อมแบบรอรับได้เลย จากช่างมืออาชีพประสบการณ์มากกว่า20 กว่าปี ทุกปัญหาของนาฬิกาเราแก้ไขและบอกรายละเอียดให้ลูกค้ารับทราบได้อย่างรวดเร็ว",
        "id": "267557243380086",
        "location": {
            "city": "Bangkok",
            "country": "Thailand"
        },
        "name": "ช่างดอนซ่อมนาฬิกาด่วน",
        "phone": "084-7620857"
    },
    {
        "about": "บริการ ซ่อมนาฬิกาและเปลี่ยนถ่านนาฬิกา รีโมทรถยนต์ ",
        "id": "397185830429073",
        "name": "ซ่อมนาฬิกา ช่างรุ่ง"
    },
    {
        "about": "ฉุกเฉิน เรียกได้ตลอด24ชม ช่างกุญแจสุพรรณบุรี095-7603236\n",
        "description": "บริการทุกที่ ไม่ว่าจะใกล้หรือไกลคิดราคา ตามระยะทาง",
        "emails": [
            "panyapon245@gmail.com"
        ],
        "id": "115309135335695",
        "location": {
            "city": "Suphan Buri",
            "country": "Thailand",
            "latitude": 14.470689208384,
            "longitude": 100.11639918518,
            "street": "เทศบาลเมืองสุพรรณบุรี",
            "zip": "72000"
        },
        "name": "ช่างกุญแจ/นาฬิกา เมืองสุพรรณบุรี โทร. 095-7603236",
        "phone": "0957603236"
    },
    {
        "id": "497662406941747",
        "name": "นาฬิกา โดย ช่างนาฬิกา"
    },
    {
        "about": "จัดจำหน่ายนาฬิกา สายนาฬิกา อะไหล่นาฬิกา เครื่องมือซ่อม และรับซ่อมนาฬิกาทุกชนิด",
        "general_info": "ร้านช่างน้อยเชียงใหม่ จัดจำหน่ายนาฬิกา สายนาฬิกา อะไหล่นาฬิกา เครื่องมือซ่อม ทั้งปลีกและส่ง ในราคาถูกเปี่ยวด้วยคุณภาพ อีกทั้งยังรับซ่อมนาฬิกาด้วยช่างมืออาชีพประสบการณ์มากกว่า 20 ปี  และรับสอนซ่อมนาฬิกาจนสามารถนำไปประกอบอาชีพได้\nสนใจติดต่อ 053-252100",
        "id": "1387292224839865",
        "location": {
            "city": "Chiang Mai",
            "country": "Thailand",
            "latitude": 18.790115220435,
            "longitude": 98.998734680112,
            "street": "Thailand",
            "zip": "50300"
        },
        "name": "ร้านช่างน้อยนาฬิกาเชียงใหม่",
        "phone": "053252100"
    },
    {
        "about": "นาฬิกาใหม่ใช้เวลาทำเพียงไม่นาน แต่การที่จะมีนาฬิกาเก่านั้นต้องใช้เวลานับสิบๆปี",
        "id": "108152069243206",
        "name": "ร้านนาฬิกาโบราณ By วิเชียรช่างออนไลน์"
    },
    {
        "description": "หลักสูตร \"ซ่อมนาฬิกาโบราณ\" โดย ช่างต้น เอสพีเค\nการเรียนการสอนเป็นแบบตัวต่อตัว และเน้นการปฏิบัติจริง จะเป็นการสอนในรูปแบบของช่างต้น\nจะเป็นการเรียนแบบ \"วิถีช่างโบราณ\" ที่ถูกส่งทอดต่อมา ไม่จำเป็นต้องซื้ออุปกรณ์หลักหมื่นแสน\nเพียงคุณมี คีม ฆ้อน ไขควง คุณก็สามารถสร้างรายได้ได้ในแบบฉบับของ ช่างต้น เอสพีเค\n\nหลักสูตรจะเป็นแบบ 4 วัน 16 ชั่วโมง เลือกเรียนได้วันละ 4 ชั่วโมง สามารถเลือกเรียนได้แบบภาคเช้า หรือภาคบ่าย จะเป็นการสอนแบบ \"ตัว ต่อ ตัว\" เพียงเท่านั้น และจะเน้นที่การปฏิบัติจริง นาฬิกาโบราณมีหลายประเภท ตั้งโต๊ะ ตั้งพื้น แขวน แต่แขนงออกไปอีกหลายสิบร้อยยี่ห้อ แต่ช่างต้นจะสอนหัวใจของการซ่อมในหลักสูตร \"เพียงแค่คุณเข้าใจการทำงานของระบบกลไกเดิน กลไกตี เพียงแค่สองอย่าง คุณสามารถซ่อมนาฬิกาได้ทุกประเภทตามความสามารถของคุณหลักจากจบหลักสูตรกับช่างต้น\n\nหลักสูตร 4 วัน 16 ชั่วโมง ---\u003e 18,000 บาท \n\nหลังจากจบหลักสูตร สามารถสอบถามและเข้ามาทบทวนวิชาได้ตลอด และหากคุณต้องการสร้างรายได้หลังจากเรียนจบ คุณสามารถมาปฏิบัติงานกับทางร้านซ่อมนาฬิกาโบราณเอสพีเคได้ โดยจะได้รับเป็นเปอร์เซนต์จากราคาค่าซ่อม (ได้ทบทวนวิชา และสามารถสร้างรายได้ในเวลาเดียวกัน)\n\nสอบถามรายละเอียดเพิ่มเติมติดต่อที่ ช่างต้น เอสพีเค 095 637 6299",
        "emails": [
            "spkwatchservice@gmail.com"
        ],
        "id": "260988270772357",
        "location": {
            "city": "Bangkok",
            "country": "Thailand",
            "latitude": 13.810781049848,
            "longitude": 100.68902878189,
            "street": "ร้านซ่อมนาฬิกาโบราณเอสพีเค (SPK Watch Service)",
            "zip": "10230"
        },
        "name": "หลักสูตร \"ช่างซ่อมนาฬิกาโบราณ\" โดย ช่างต้น เอสพีเค",
        "phone": "095 637 6299"
    },
    {
        "about": "รับทำกุญแจ ซ่อมนาฬิกา เปิดรถ เปิดบ้าน ",
        "id": "114211942264603",
        "location": {
            "city": "Bang Pa-in",
            "country": "Thailand",
            "latitude": 14.2041903,
            "longitude": 100.5906601,
            "street": "เทสโก้ โลตัส บางปะอิน",
            "zip": "13160"
        },
        "name": "ช่างกุญแจ  รับทำกุญแจ ซ่อมนาฬิกา Wichan key \u0026 time  T.0809492370",
        "phone": "0809492370"
    },
    {
        "id": "835510559899888",
        "name": "ช่างเย็บผ้า\u0026นาฬิกา"
    },
    {
        "id": "512440692252786",
        "name": "ช่างซ่อมและขายนาฬิกา"
    },
    {
        "id": "785760334800007",
        "location": {
            "city": "Tha Maka",
            "country": "Thailand",
            "latitude": 13.907811164856,
            "longitude": 99.766891479492
        },
        "name": "ร้านช่างเทพ หอนาฬิกา หวายเหนียว"
    },
    {
        "id": "439645016089210",
        "location": {
            "city": "Chiang Rai",
            "country": "Thailand",
            "latitude": 19.912845859556,
            "longitude": 99.832457171911,
            "street": "Rattanakheat Road"
        },
        "name": "ร้านกาแฟชางขอน ตรงหอนาฬิกาเชียงราย"
    },
    {
        "id": "511362399002631",
        "location": {
            "city": "Bangkok",
            "country": "Thailand",
            "latitude": 13.75395,
            "longitude": 100.50224,
            "street": "หน้าวัดหงษ์ทอง"
        },
        "name": "ช่างเปี๊ยก นาฬิกาวัดห์ทอง",
        "phone": "0892270753"
    },
    {
        "id": "521366654543292",
        "location": {
            "city": "Bangkok",
            "country": "Thailand",
            "latitude": 13.67036942304,
            "longitude": 100.50554155593,
            "street": "Thanon Pracha Uthit"
        },
        "name": "โย ช่างกุญแจ \u0026 นาฬิกา โทร. 0849077908 , 0845422692"
    },
    {
        "id": "540062332715980",
        "location": {
            "city": "Bangkok",
            "country": "Thailand",
            "latitude": 13.9346732,
            "longitude": 100.4115089
        },
        "name": "ร้านนาฬิการุ่งโรจน์ - ช่างอ้น"
    },
    {
        "id": "552455634820108",
        "location": {
            "city": "Chiang Rai",
            "country": "Thailand",
            "latitude": 19.906974434871,
            "longitude": 99.830507431272,
            "street": "ตรงข้ามโรงแรมสุขนิรันดร์ หอนาฬิกาเชียงราย",
            "zip": "57000"
        },
        "name": "กาแฟสดดูเมียร์ ดอยช้างหอนาฬิกาเชียงราย"
    },
    {
        "id": "577524942266870",
        "location": {
            "city": "Bangkok",
            "country": "Thailand",
            "latitude": 13.75395,
            "longitude": 100.50224,
            "street": "ปากซอย.ประชาอุทิศ12 (ซ.ร่มเย็น)"
        },
        "name": "ร้านช่างโย กุญแจและนาฬิกา"
    },
    {
        "id": "588295371257921",
        "location": {
            "city": "Chiang Mai",
            "country": "Thailand",
            "latitude": 18.917520480245,
            "longitude": 98.938844388016
        },
        "name": "แสงทองนาฬิกา ช้างเผือก"
    },
    {
        "id": "604705512971896",
        "location": {
            "city": "Bangkok",
            "country": "Thailand",
            "latitude": 13.723690233333,
            "longitude": 100.5211637,
            "zip": "10500"
        },
        "name": "ร้านเฮียตึ๋งซ่อมนาฬิกาหน้าเซ็นทรัลสีลมเก่า ช่างชำนาญงานกว่าสามสิบปี",
        "phone": "0816441737"
    },
    {
        "id": "604901439579033",
        "location": {
            "city": "Bangkok",
            "country": "Thailand",
            "latitude": 13.887213724372,
            "longitude": 100.49511335488,
            "zip": "11000"
        },
        "name": "บ้านช่างอั้มเทพนาฬิกาสุดเท่"
    },
    {
        "id": "637036329760761",
        "location": {
            "city": "Ratchaburi",
            "country": "Thailand",
            "latitude": 13.829715,
            "longitude": 99.868745,
            "street": "94/12 m.7 Sangchuto Road  Banpong",
            "zip": "70110"
        },
        "name": "ช่างมนัสนาฬิกา ผลิตและจำหน่าย นาฬิกา จัดส่งทั่วโลก Ebay Amazon",
        "phone": "0967438155"
    }
]