[
    {
        "about": "จานดาวเทียม กล้องวงจรปิด แอร์  มอเตอร์ปั้มน้ำ เครื่องซักผ้า ทีวีโทร.0833911469",
        "emails": [
            "changkoa@hotmail.com"
        ],
        "id": "173080386184328",
        "location": {
            "city": "นครศรีธรรมราช",
            "street": "สะพานลอยโคกยาง154/4ม.10ต.ร่อนพิบูลย์",
            "zip": "80130"
        },
        "name": "ร้านช่างขาวดาวเทียม กล้องวงจรปิดแอร์ โคกยาง",
        "phone": "0833911469"
    },
    {
        "about": "045-304006 087-6357570",
        "id": "782581855171996",
        "location": {
            "city": "อุบลราชธานี",
            "street": "49 ม.6 ต.เหล่าเสือโก้ก อ.เหล่าเสือโก้ก",
            "zip": "34000"
        },
        "name": "รับติดตั้งกล้องวงจรปิดอุบล ช่างโอ๊ต",
        "phone": "045-304006 0876357570"
    },
    {
        "about": "จำหน่ายกล้องวงจรปิดทุกระบบ และบริการติดตั้ง\nติดต่อ/สอบถาม 090-209-8879 ช่างช้าง (ช่างประสบการณ์)",
        "id": "1618678811709481",
        "location": {
            "city": "Bangkok",
            "country": "Thailand",
            "latitude": 13.8039103,
            "longitude": 100.6660004,
            "street": "85/155",
            "zip": "10240"
        },
        "name": "Hi-view ช.ช้าง กล้องวงจรปิด - cctv",
        "phone": "0902098879"
    },
    {
        "about": "แอร์บ้าน จานดาวเทียม กล้องวงจรปิด จำหน่าย ล้าง ย้าย ติดตั้ง",
        "id": "1537609889812643",
        "location": {
            "city": "Samut Prakan",
            "country": "Thailand",
            "latitude": 13.6183,
            "longitude": 100.61105,
            "street": "60/520 ต.บางเมืองใหม่ อำเภอเมือง จ.สมุทรปราการ",
            "zip": "10270"
        },
        "name": "แอร์บ้าน  จานดาวเทียมกล้องวงจรปิดโดยช่างวิโรจน์0825402559",
        "phone": "0825402559"
    },
    {
        "about": "ยินดีไห้บริการ\nPlease proposes service.",
        "id": "320728314697308",
        "location": {
            "city": "Rayohng",
            "country": "Thailand",
            "latitude": 12.73784,
            "longitude": 101.0456,
            "street": "บ้านฉาง",
            "zip": "21130"
        },
        "name": "ช่าง ติดตั้ง ซ่อม กล้องวงจรปิด จานดาวเทียม ระบบอินเตอร์เน็ท ระยอง ตะวันออก",
        "phone": "0906256741"
    },
    {
        "description": "รับติดตั้งจานดาวเทียม,กล้องวงจรปิด ทุกยี่ห้อ ทุกรุ่น ราคากันเอง \n\nรับตรวจเช็คสัญญาณจานดาวเทียม\n\nรับแก้งานจานดาวเทียม,กล้องวงจรปิด",
        "emails": [
            "kumpuservice@hotmail.com"
        ],
        "id": "265932260099148",
        "location": {
            "city": "Bangkok",
            "country": "Thailand",
            "latitude": 13.8044996,
            "longitude": 100.8105164,
            "street": "ลำลูกกา",
            "zip": "12130"
        },
        "name": "รับติดตั้งจานดาวเทียม,กล้องวงจรปิดโดย ช่างภู",
        "phone": "0865233504"
    },
    {
        "emails": [
            "ppcableplus@gmail.com"
        ],
        "id": "449498951797931",
        "location": {
            "city": "Bangkok",
            "country": "Thailand",
            "latitude": 13.70283,
            "longitude": 100.67317,
            "street": "ซอยรามคำแหง5 ถนนรามคำแหง  แขวง สวนหลวง เขต สวนหลวง",
            "zip": "10250"
        },
        "name": "รับติดตั้งจานดาวเทียม,กล้องวงจรปิดกับช่างใหญ่",
        "phone": "0865542949"
    },
    {
        "about": "ช่างติดตั้งกล้องวงจรปิด ราคาติดตั้งกล้องวงจรปิด",
        "id": "465300216976264",
        "name": "ช่างติดตั้งกล้องวงจรปิด ราคาติดตั้งกล้องวงจรปิด"
    },
    {
        "about": "รับติดตั้งจานดาวเทียม และกล้องวงจรปิด เบอร์ 0965623467",
        "id": "393735150822907",
        "name": "ช่างบอยรับติดตั้งจานดาวเทียม กล้องวงจรปิด จังหวัดตรัง"
    },
    {
        "id": "1090685514291611",
        "location": {
            "city": "Amphoe Kamphaeng Saen",
            "country": "Thailand",
            "latitude": 14,
            "longitude": 100,
            "street": "107 ม.6 ต.ห้วยขวาง อ.กำแพงแสน จ.นครปฐม",
            "zip": "73140"
        },
        "name": "ช่างชิต รับติดตั้ง,ซ่อม แอร์,กล้องวงจรปิด,ทีวีดาวเทียมทุกยี่ห้อ",
        "phone": "0851005996"
    },
    {
        "about": "จำหน่ายอุปกรณ์ ระบบกล้องวงจรปิด ราคาถูก ราคาช่างติดตั้ง",
        "id": "1456915597940426",
        "name": "ขายส่ง อุปกรณ์กล้องวงจรปิดราคาถูก ราคาช่างติดตั้ง"
    },
    {
        "about": "ก.การช่าง เหล็กดัด กระจก และ กล้องวงจรปิด โทร 087-6660156",
        "description": "รับทำ \nเหล็กดัด มุ้งลวด กันสาด อลูมิเนียม โพลี ไวนิล \nงานหลังคาต่างๆ ประตูสแตนเลส รางน้ำ กระจก ผ้าใบ \nและกล้องวงจรปิดพร้อมติดตั้ง ราคากันเอง รับประกันคุณภาพ\nประเมิณราคาฟรี เฉพาะกรุงเทพและปริมณฑล  โทรสอบถามได้ที่ 087-6660156\n",
        "id": "196048880592302",
        "name": "ก.การช่าง เหล็กดัด และ กล้องวงจรปิด"
    },
    {
        "about": "รับเดินระบบเครื่อข่ายอินเตอร์เนทและกล้องวงจรปิด โดย ช่างต้น เอสพีเค 097-3320825",
        "description": "รับเดินระบบเครื่อข่ายอินเตอร์เนทและกล้องวงจรปิด หอพัก อพาร์ทเมนต์ คอนโด โรงแรม ห้างร้าน โรงงาน บริษัทต่างๆ ฯลฯ โดย ช่างต้น เอสพีเค 097-3320825",
        "emails": [
            "dreamby.jdream@gmail.com"
        ],
        "id": "848389655205421",
        "location": {
            "city": "Bangkok",
            "country": "Thailand",
            "latitude": 13.7972603,
            "longitude": 100.6899719,
            "street": "65 Suansiam RD.",
            "zip": "10230"
        },
        "name": "รับเดินระบบเครื่อข่ายอินเตอร์เนทและกล้องวงจรปิด โดย ช่างต้น เอสพีเค",
        "phone": "0973320825"
    },
    {
        "id": "1025054244207776",
        "location": {
            "city": "Ron Phibun",
            "country": "Thailand",
            "latitude": 8.1456471666667,
            "longitude": 99.811408333333,
            "street": "154/4 ม.10 ต.ร่อนพิบูลย์",
            "zip": "80130"
        },
        "name": "ร้านช่างขาวดาวเทียมกล้องวงจรปิดโคกยาง"
    },
    {
        "id": "1008582229229176",
        "name": "ผู้ช่วยผู้บริหาร-ช่างติดตั้ง จานดาวเทียม-กล้องวงจรปิด"
    },
    {
        "about": "เราบริการรับติดตั้งกล้องวงจรปิดและจานดาวเทียมในราคากันเอง\nไฟฟ้าในบ้าน ไฟฟ้าโรงงาน ",
        "id": "789041787881242",
        "location": {
            "city": "Bangkok",
            "country": "Thailand",
            "latitude": 13.8253984,
            "longitude": 100.5308685,
            "street": "กรุงเทพ,ปทุมธานี",
            "zip": "12130"
        },
        "name": "ช่างเอดกล้องวงจรปิด",
        "phone": "0840452008"
    },
    {
        "about": "กล้องวงจรปิด เชียงใหม่",
        "id": "1655140608103309",
        "location": {
            "city": "Chiang Mai",
            "country": "Thailand",
            "latitude": 18.8124447,
            "longitude": 99.0113068,
            "street": "1/10 ซ.22 ถ. โชตนา ต.ช้างเผือก อ.เมือง",
            "zip": "50300"
        },
        "name": "กล้องวงจรปิด เชียงใหม่",
        "phone": "053-215498 , 083-8607722"
    },
    {
        "id": "1483752078544258",
        "location": {
            "city": "Bangkok",
            "country": "Thailand",
            "latitude": 13.931891693742,
            "longitude": 100.67040248281,
            "zip": "12150"
        },
        "name": "กล้องวงจรปิด Cctv ช่างตี้"
    },
    {
        "id": "1427635650860237",
        "location": {
            "city": "Amphoe Koh Sa-mui",
            "country": "Thailand",
            "latitude": 9.546388937547,
            "longitude": 100.06833605468
        },
        "name": "บ้านช่างชายรับเหมาระบบไฟฟ้าแอร์กล้องวงจรปิด"
    },
    {
        "id": "861285687223188",
        "location": {
            "city": "Pak Phun",
            "country": "Thailand",
            "latitude": 8.557575,
            "longitude": 99.95013
        },
        "name": "บ้านช่างโตรับติดตั้งจานดาวเทียมและกล้องวงจรปิด",
        "phone": "0937463292"
    },
    {
        "id": "804733419625168",
        "location": {
            "city": "Bung Kan",
            "country": "Thailand",
            "latitude": 18.3616406,
            "longitude": 103.6534786
        },
        "name": "ร้านช่างวี กล้องวงจรปิด"
    },
    {
        "about": "ติดตั้งไฟฟ้าภายในบ้าน หน่วยงานราชการ  ติดตั้งจานดาวเทียม  ติดตั้งกล้องวงจรปิด",
        "id": "703133403141344",
        "location": {
            "city": "Kanthararom",
            "country": "Thailand",
            "latitude": 15.03944,
            "longitude": 104.5797,
            "street": "363/8 ม.14 ต.ดูน อ.กันทรารมย์ จ.ศรีสะเกษ",
            "zip": "33130"
        },
        "name": "ช่างติดตั้งไฟฟ้า  จานดาวเทียม กล้องวงจรปิด",
        "phone": "0854965060"
    },
    {
        "id": "678108135560699",
        "location": {
            "city": "Ban Nong Yai",
            "country": "Thailand",
            "latitude": 13.15209,
            "longitude": 101.39687,
            "street": "ต.หนองเสือช้าง",
            "zip": "20190"
        },
        "name": "S Service บริการติดตั้งกล้องวงจรปิด cctv และอินเตอร์เนตสำหรับบ้านและหอพัก",
        "phone": "0863928166"
    },
    {
        "id": "672219259545993",
        "location": {
            "city": "บางมูลนาก",
            "latitude": 16.013443333333,
            "longitude": 100.48098833333,
            "street": "วังตะกู"
        },
        "name": "ร้านช่างยะ ดาวเทียม กล้องวงจรปิด",
        "phone": "0831639830"
    },
    {
        "id": "643483899105393",
        "location": {
            "city": "Pichit",
            "country": "Thailand",
            "latitude": 16.434596806667,
            "longitude": 100.35778299
        },
        "name": "ช่างยะกล้องวงจรปิด ข้างปั๊ม ปตท.หลิมศิริวงษ์"
    }
]