[
    {
        "about": "กล้องวงจรปิด ราคาถูก ดูภาพออนไลน์ฟรี รับประกัน2ปี 087-5950751 Line ID:sncctv",
        "description": "กล้องวงจรปิด ราคาถูก รับประกัน 2 ปี ดูภาพออนไลน์ฟรี(ตลอดชีพ) ออกแบบติดตั้งในบ้านอาศัย สำนักงาน โรงงาน โกดังเก็บสินค้า",
        "general_info": "กล้องวงจรปิด ช่างซา เซียร์รังสิต ชั้น4\nLine ID: sncctv\n087-5950751",
        "id": "678719002175505",
        "name": "กล้องวงจรปิด ช่างซา เซียร์รังสิต CCTV"
    },
    {
        "about": "กล้องวงจรปิดราคาถูก ติดตั้งเสร็จ..087-5950751, 080-9995125 line ID: kae733",
        "description": "กล้องวงจรปิดราคาถูก ติดตั้งเองได้ ไม่ต้องง้อช่าง..087-5950751, 080-9995125\nLine ID: sncctv",
        "id": "1425270544423341",
        "name": "กล้องวงจรปิด ช่างซา Delively"
    },
    {
        "about": "จำหน่าย ติดตั้ง จานดา่วเทียม กล้องวงจรปิด ขายปลีกส่ง มือถือ อุปกรณ์ คอมพิวเตอร์",
        "description": "จำหน่าย ติดตั้ง จานดา่วเทียม กล้องวงจรปิด ขายปลีกส่ง มือถือ อุปกรณ์ คอมพิวเตอร์\n\nให้บริการในพื้นที่จังหวัดลำพูน-เชียงใหม่\n\nรับติดตั้งจานดาวเทียม กล้องวงจรปิด \n\nรับจัดหาอุปกรณ์อิเล็กทรอนิกส์และอุปกรณ์คอมพิวเตอร์ในราคาถูก",
        "emails": [
            "oohayboy@gmail.com"
        ],
        "general_info": "ขายปลีก และ ส่ง ยินดีให้บริการถึงบ้านครับ",
        "id": "187604378090497",
        "location": {
            "city": "Lamphun",
            "country": "Thailand",
            "latitude": 18.574367600303,
            "longitude": 99.068981075274,
            "street": "49/29 หมู่ 9 หมู่บ้านเทพประทาน ต.บ้านกลาง อ.เมือง",
            "zip": "51000"
        },
        "name": "ช่างนุ จานดาวเทียม-กล้องวงจรปิด ลำพูน",
        "phone": "091-479-5655 , 091-479-5654"
    },
    {
        "emails": [
            "bencctv@hotmail.com"
        ],
        "id": "415267468655300",
        "location": {
            "city": "Bangkok",
            "country": "Thailand",
            "latitude": 13.7522,
            "longitude": 100.494,
            "street": "ลาดพร้าว",
            "zip": "10230"
        },
        "name": "ร้านช่างเบน กล้องวงจรปิด",
        "phone": "089-1116389"
    },
    {
        "about": "กล้องCCTV IR Camera ",
        "emails": [
            "jio7@hotmail.com",
            "tewtew69@hotmail.com"
        ],
        "general_info": "Finger Print, Face Scan, Access Control, Card Reader, Car park,CCTV, IR Camera, IP Camera",
        "id": "435045463269121",
        "location": {
            "city": "Phathumthani",
            "street": "39/10-14 Moo 8 Ladsawai Lumlookka",
            "zip": "12150"
        },
        "name": "กล้องวงจรปิด CCTV ช่างตี้ By SN ASEAN"
    },
    {
        "about": "สนใจ ติดต่ิอ 087-1234534 (Pong) 084-5670024 (Patty)",
        "emails": [
            "ponglocktion@gmail.com"
        ],
        "id": "119034008254547",
        "location": {
            "city": "Chonburi",
            "country": "Thailand",
            "zip": "20140"
        },
        "name": "กล้องวงจรปิด ชลบุรี - พอใจการช่าง",
        "phone": "087-1234534,084-5670024"
    },
    {
        "about": "กล้องวงจรปิด ราคาส่งอุปกรณ์พร้อมติดตั้ง ไม่ง้อช่าง",
        "description": "ติดต่อเจ้าของร้านผ่าน inbox ได้เลยจร้าาา\nติดต่อด่วน อยากได้กล้องไปติดไว ๆ เพราะขโมยเหลาไม้ไผ่ทำบันไดเสร็จแล้ว ติดต่อที่  081-1625431 พ่อค้าแฮมส์ คร๊าบบบบ",
        "emails": [
            "kimujee@hotmail.com"
        ],
        "id": "462834697076571",
        "location": {
            "city": "คลองสามวา กรุงเทพ",
            "street": "เลียบคลองสอง",
            "zip": "10510"
        },
        "name": "กล้องวงจรปิด ราคาส่ง ติดตั้งเองได้ ไม่ง้อช่าง",
        "phone": "0811625431"
    },
    {
        "about": "099-8709544\nรับประกันคุณภาพและเซอร์วิส",
        "id": "1525132231071223",
        "name": "ช่างวิทูรย์กล้องวงจรปิด"
    },
    {
        "about": "จานดาวเทียม กล้องวงจรปิด เสาดิจิตอลทีวี งานตามคอนโด อพาร์ทเม้น ติดตั้ง เเก้ไข เพิ่มจุดรับ",
        "description": "เราติดตั้ง จานดาวเทียม กล้องวงจรปิด ดิจิตอลทีวี  ทุกระบบ บริการด้วยช่างมืออาชีพ ราคาพุดคุนกันได้ รับประกันงานติดตั้ง เเละสินค้า ",
        "id": "587231404653052",
        "location": {
            "city": "Bangkok",
            "country": "Thailand",
            "latitude": 13.679469088873,
            "longitude": 100.53169978881,
            "street": "เลขที่ 1177 ซอย สาธุประดิษฐ์ 57  บางโพงพาง  ยานนาวา",
            "zip": "10120"
        },
        "name": "ร้านช่างโจ้จานดาวเทียม กล้องวงจรปิด ดิจิตอล",
        "phone": "085-1588-359//02-6822-211"
    },
    {
        "about": "เบอร์ติดต่อ 085-332-7516  ร้านพฤกษาดาวเทียม    LINE  pruksasat",
        "id": "555456337853153",
        "location": {
            "city": "Amphoe Bang Bua Thong",
            "country": "Thailand",
            "latitude": 13.919425832929,
            "longitude": 100.34983935709,
            "street": "46/964",
            "zip": "11110"
        },
        "name": "กล้องวงจรปิด จานดาวเทียม บางบัวทอง นนทบุรี กรุงเทพปริมณฑล ราคาถูก ช่างเชษฐ์",
        "phone": "0853327516"
    },
    {
        "about": "Club ช่างกล้องวงจรปิด แห่งประเทศไทย ศูนย์รวมช่างฝีมือ ระดับเทพ-เว็ปบอร์ดต่างๆ ติดต่อ Club 0612739889",
        "emails": [
            "hocctv.hiview@homail.co.th"
        ],
        "id": "446475985411515",
        "location": {
            "city": "เมือง ",
            "street": "211/4 หมู่ 4 ตำบลนครชุม",
            "zip": "62000"
        },
        "name": "Club ช่างกล้องวงจรปิด แห่งประเทศไทย",
        "phone": "0612739889"
    },
    {
        "about": "จำหน่าย กล้องวงจรปิด ราคาถูก สัญญา กันขโมย ระบบประตู คีย์การ์ด ถังดับเพลิง \nและ รับติดตั้ง ",
        "id": "1375224442786317",
        "name": "ช่างหมี กล้องวงจรปิด"
    },
    {
        "about": "จำหน่า และติดตั้ง กล้องวงจรปิด เกาะช้าง โซล่าเซลล์ สแกนนิ้ว ประตูไฟฟ้า คอมพิวเตอร์",
        "description": "สวัสดีครับทุกท่าน ขอฝากเนื้อฝากตัวด้วยครับ ในนามของ \" เกาะช้างโซล่าเซลล์ \" อยู่ติดกับโรงเรียนวัดคลองสน ต.เกาะช้าง อ.เกาะช้าง จ.ตราด\n\n....เรามีสินค้าจำหน่าย การติดตั้ง และการบริการ ที่หลากหลายครับ ยินดีให้คำปรึกษา แนะนำ และพร้อมให้บริการด้วยใจจริง แอดไลน์มาคุยกันได้นะครับ Line ID : easypowers\n\nรายละเอียดสินค้า และบริการนะครับ\n\n- จำหน่าย ติดตั้ง และซ่อม อุปกรณ์ กล้องวงจรปิด CCTV  ระบบความปลอดภัย กันขโมย และอื่นๆที่เกี่ยวข้องครบวงจร\n\n- ระบบสแกนนิ้ว ลงเวลาทำงาน เปิดประตูไฟฟ้าด้วยเครื่องสแกนนิ้ว หรือระบบคีย์การ์ด และอื่นๆที่เกี่ยวข้องครบวงจร\n\n- ระบบโซล่าเซลล์ พลังงานแสงอาทิตย์ พลังงานลม ระบบแสงสว่าง เปิด-ปิดเองอัตโนมัติ ไฟถนน ไฟส่องทาง ไฟรั้วรอบบ้าน ไฟโรงรถ ระบบสูบน้ำ น้ำพุ น้ำตก เครื่องทำน้ำร้อน เครื่องกรองน้ำระบบ RO+UV และอื่นๆที่เกี่ยวข้องครบวงจร\n\n- ระบบคอมพิวเตอร์ อินเตอร์เน็ต WIFI ระบบสื่อสารต่างๆ ครบวงจร\n\n- รับทำเว็บไซต์ และดูแลเว็บไซต์ อัฟเดทข้อมูล เว็บไซต์ทุกประเภท ครบวงจร\n\n- ระบบไฟฟ้า ระบบประหยัดไฟฟ้า หลอดประหยัดไฟ หลอดLED งานติดตั้งแอร์บ้าน โรงแรม ร้านอาหาร ล้างแอร์ และงานที่เกี่ยวข้องครบวงจร\n\n- ป้ายไฟแอลอีดี LED แต่งหน้าร้าน ป้ายไฟเชียร์ ป้ายไฟโชว์ ป้ายบอกทาง ไฟกระพริบ ไฟประดับ มีหลายสี ให้แสงสวยงาม ใช้ในงานตกแต่งสถานที่ อาคาร บ้าน จัดสวนต่างๆ ไฟแต่งรถ และอื่นๆที่เกี่ยวข้องครบวงจร\n \n- ระบบงานอิเล็กทรอนิกส์ ระบบพลังงานทดแทน  และงานอื่นๆที่เกี่ยวข้องทั้งหมดครบวงจร\n\n..เรายินดี และพร้อมให้บริการด้วยความจริงใจ ฉับไว ซื่อสัตย์ มีจรรยาบรรณกับลูกค้าเป็นที่สุด ทีมงานเรา คนเกาะช้าง เปรียบเสมือนเป็นลูกหลาน ญาติสนิท มิตรสหายของชาวเกาะช้าง เรียกหา เรียกใช้ มั่นใจเรื่องการบริการหลังการขาย รวดเร็ว ทันใจแน่นอนครับผม คอนเฟิร์ม!!..\nติดต่อเราได้ที่ Line ID : easypowers",
        "emails": [
            "kohchangsolarcell@gmail.com"
        ],
        "id": "276734415850771",
        "location": {
            "city": "Trad",
            "country": "Thailand",
            "latitude": 13.704092111083,
            "longitude": 100.4811318538,
            "zip": "23170"
        },
        "name": "กล้องวงจรปิด เกาะช้าง โซล่าเซลล์",
        "phone": "+66925043939"
    },
    {
        "about": "ปรึกษางาน บ้านทรุด ต่อเติม ติดต่อสอบถามก่อนได้",
        "emails": [
            "dainosol@hotmail.com"
        ],
        "id": "756447844433609",
        "location": {
            "city": "Samut Songkhram",
            "country": "Thailand",
            "latitude": 13.39413,
            "longitude": 99.99346,
            "street": "1247/84",
            "zip": "75000"
        },
        "name": "ช่างมั้ม รับเหมาต่อเติม บ้าน อาคาร กล้องวงจรปิด",
        "phone": "0617497974"
    },
    {
        "about": "บริการติดตั้ง จำหน่าย จานดวเทียม กล้องวงจรปิด เดินท่อ ร้อยสายกล้งวงจรปิด \nไฟฟ้า 0902299213",
        "id": "343888315679470",
        "location": {
            "city": "Amphoe Bang Yai",
            "country": "Thailand",
            "latitude": 13.86226,
            "longitude": 100.37279,
            "street": "บางใหญ่  นนทบุรี",
            "zip": "11140"
        },
        "name": "ช่างแจ๊ค จานดาวเทียม กล้องวงจรปิด",
        "phone": "0894055710"
    },
    {
        "about": "จำหน่ายปลีก-ส่ง พร้อมบริการติดตั้ง แก้ใข เพิ่มจุดรับชมจานดาวเทียม-กล้องวงจรปิด ",
        "emails": [
            "eak.sat@hotmail.com"
        ],
        "general_info": "จานดาวเทียม กล้องวงจรปิด พร้อมบริการติดตั้งติดตั้ง",
        "id": "1550079661942458",
        "location": {
            "city": "Amphoe Kukhan",
            "country": "Thailand",
            "latitude": 14.719572071178,
            "longitude": 104.20165003188,
            "street": "208 หมู่6 ห้วยเหนือ ขุขันธ์",
            "zip": "33140"
        },
        "name": "ช่างเอก จานดาวเทียม กล้องวงจรปิด ขุขันธ์",
        "phone": "0989397936"
    },
    {
        "id": "1627270304157243",
        "name": "ช่างจานดาวเทียม. กล้องวงจรปิด  ติดตั้ง  จำหน่าย"
    },
    {
        "about": "จำหน่ายขายส่งกล้องipcamera",
        "description": "จำหน่าย ขายส่ง กล้องวงจรปิด IP Camera",
        "id": "612206668879284",
        "location": {
            "city": "Bangkok",
            "country": "Thailand",
            "latitude": 13.85247,
            "longitude": 100.73933,
            "street": "bangkok",
            "zip": "10510"
        },
        "name": "ช่าง'แมนน นำเข้า-กล้องวงจรปิดราคาช่าง ถูกสุดดๆ",
        "phone": "0985677306"
    },
    {
        "id": "1527922747459794",
        "location": {
            "city": "Samut Sakhon",
            "country": "Thailand",
            "latitude": 13.5536346,
            "longitude": 100.2276993,
            "street": "206/27",
            "zip": "74000"
        },
        "name": "ช่างรัก การไฟฟ้า รับเดินไฟ บ้าน อาคาร สำนักงาน และ ติดตั้งกล้องวงจรปิด",
        "phone": "090-4400933"
    },
    {
        "about": "รับทำความสะอาดโคมไฟคริสตัลมีปัณหา ปริกษา  ได้ครับ  0817888683",
        "emails": [
            "prung555@gmail.com"
        ],
        "id": "486619298136207",
        "location": {
            "city": " ไทย",
            "street": "99/18 ม.8 ต.ตากเเด อ.เมือง จ. ชุมพร",
            "zip": "86000  โทร 0817888683"
        },
        "name": "ช่างไฟฟ้าชุมพร\"กล้องวงจรปิดไอพี \" ดาวเทียม\"ประปาปั๊มน้ำ ช่างเอก 0817888683",
        "phone": "0817888683"
    },
    {
        "id": "173793096058049",
        "name": "ช่างติดตั้งกล้องวงจรปิด"
    },
    {
        "about": "ติดต่อได้ตลอดเวลาครับ 084-078-1978...086-030-5044",
        "id": "629388730515995",
        "location": {
            "city": "Bangkok",
            "country": "Thailand",
            "zip": "10160"
        },
        "name": "ช่างติดตั้งเสาอากาศทีวีดิจิตอล กล้องวงจรปิดจานดาวเทียมพีเอสไอ",
        "phone": "086-030-5044"
    },
    {
        "id": "696743627105837",
        "location": {
            "city": "Lampun",
            "country": "Thailand",
            "latitude": 18.53688,
            "longitude": 99.07746,
            "street": "183 ถ.พระคงษ์ฤาษี ต.ในเมือง อ.เมือง จ.ลำพูน 51000",
            "zip": "51000"
        },
        "name": "กล้องวงจรปิด กาดเมืองใหม่ คำเที่ยง สันผีเสื้อ ช้างเผือก เชียงใหม่ ลำพูน",
        "phone": "0909152138"
    },
    {
        "id": "1003301669685035",
        "location": {
            "city": "Lampun",
            "country": "Thailand",
            "latitude": 18.53688,
            "longitude": 99.07746,
            "street": "183 ถ.พระคงษ์ฤาษี ต.ในเมือง อ.เมือง จ.ลำพูน 51000",
            "zip": "51000"
        },
        "name": "กล้องวงจรปิด กาดหลวง ท่าแพ ไนท์บาร์ซาร์ ช้างคลาน ช้างม่อย เชียงใหม่ ลำพูน",
        "phone": "0909152138"
    },
    {
        "about": "แอร์ กล้องวงจรปิด ดาวเทียม ระบบไฟฟ้า เครื่องใช้ไฟฟ้าทุกชนิด",
        "emails": [
            "ideal9.eng@gmail.com"
        ],
        "id": "866984866664397",
        "location": {
            "city": "Kamphaeng Phet",
            "country": "Thailand",
            "latitude": 16.44207,
            "longitude": 99.49592,
            "street": "100/7 ถใประชาหรรษา ต.ในเมือง อ.เมือง จ.กำแพงเพชร",
            "zip": "62000"
        },
        "name": "แอร์บ้าน กล้องวงจรปิด จานดาวเทียม ระบบไฟฟ้า โดย ช่างเอกวิศวกรรม",
        "phone": "0805041288"
    }
]