[
    {
        "about": "ช่างกล้องวงจรปิด จานดาวเทียม CCTV ลำพูน บริการติดตั้งระบบกล้องวงจรปิด ระบบจานดาวเทียม ",
        "emails": [
            "www.nicha@windowslive.com"
        ],
        "id": "628398803992155",
        "location": {
            "city": "Muang Lamphun",
            "country": "Thailand",
            "latitude": 18.5811,
            "longitude": 99.0092,
            "street": "mueang lamphun",
            "zip": "51000"
        },
        "name": "ช่างกล้องวงจรปิด จานดาวเทียม CCTV ลำพูน",
        "phone": "0965275429"
    },
    {
        "id": "574996775955630",
        "location": {
            "city": "Chantaburi",
            "country": "Thailand",
            "latitude": 12.64771568,
            "longitude": 102.09402659
        },
        "name": "หอพักที่ไม่มีกล้องวงจรปิดแต่มีช้างคอยเฝ้าระวัง"
    },
    {
        "id": "151548651711268",
        "location": {
            "city": "Nakhon Pathom",
            "country": "Thailand",
            "latitude": 13.826328915,
            "longitude": 100.03064583,
            "zip": "73000"
        },
        "name": "บ้านช่างนพ ป้ายโฆษณา \u0026 กล้องวงจรปิด",
        "phone": "086-3992183"
    },
    {
        "id": "291429540991439",
        "location": {
            "city": "Lampang",
            "country": "Thailand",
            "latitude": 18.343299946955,
            "longitude": 99.535675550652
        },
        "name": "แยกท่าเดื่อที่ช่างเอ๋มาติดตั้งกล้องวงจรปิด ตต้นธงชัย อเมือง จลำปาง"
    },
    {
        "id": "292272710875993",
        "location": {
            "city": "Ron Phibun",
            "country": "Thailand",
            "latitude": 8.1454632,
            "longitude": 99.8113801
        },
        "name": "ร้านช่างขาวจานดาวเทียมแอนด์กล้องวงจรปิด สี่แยกร่อนฯ"
    },
    {
        "id": "330610413815627",
        "location": {
            "city": "Nakhon Ratchasima",
            "country": "Thailand",
            "latitude": 14.952945695,
            "longitude": 102.1171746975
        },
        "name": "ร้านกล้องวงจรปิดช่างโจ้หน้าโรงเรียนบุญวัฒนา1"
    },
    {
        "id": "333102836851283",
        "location": {
            "city": "Bangkok",
            "country": "Thailand",
            "latitude": 13.961465400779,
            "longitude": 100.62316803854,
            "street": "เซียร์รังสิต",
            "zip": "12130"
        },
        "name": "กล้องวงจรปิด ช่างซา",
        "phone": "075950751"
    },
    {
        "id": "369605463160022",
        "location": {
            "city": "Chiang Mai",
            "country": "Thailand",
            "latitude": 18.779612046644,
            "longitude": 98.984633665399
        },
        "name": "Villaoranjeที่ช่างเอ๋ลำพูนติดตั้งกล้องวงจรปิด"
    },
    {
        "id": "433919346759093",
        "location": {
            "city": "Pak Phun",
            "country": "Thailand",
            "latitude": 8.50675947,
            "longitude": 99.94629446
        },
        "name": "บ้านช่างโตจำหน่ายแผงทีวีดิจิตอล.กล้องวงจรปิดและจานดาวเทียมทุกชนิด"
    },
    {
        "id": "483658261811770",
        "location": {
            "city": "Ban Bang Mun Nak",
            "country": "Thailand",
            "latitude": 16.01927155565,
            "longitude": 100.48949718475
        },
        "name": "ร้านช่างยะ ติดตั้งจานดาวเทียม แอร์บ้าน กล้องวงจรปิด"
    },
    {
        "id": "548362228544247",
        "location": {
            "city": "Chiang Mai",
            "country": "Thailand",
            "latitude": 18.65964999404,
            "longitude": 99.045087054393,
            "street": "78ม.2ต.อุโมงค์ อ.เมือง จ.ลำพูน51150"
        },
        "name": "ช่างเอ๋ ลำพูแซท ติดตั้งกล้องวงจรปิดและจานดาวเทียม",
        "phone": "0817169120"
    },
    {
        "description": "สนใจติดกล้องวงจรปิด 081-7169120",
        "id": "550798565051217",
        "location": {
            "city": "Chiang Mai",
            "country": "Thailand",
            "latitude": 18.616666,
            "longitude": 99.044862
        },
        "name": "หอพักลุงต้อย ช่างเอ๋ติดตั้งกล้องวงจรปิด"
    },
    {
        "id": "574280319338906",
        "location": {
            "latitude": 8.5068366666667,
            "longitude": 99.945935
        },
        "name": "บ้านช่างโตรับติดตั้งจานดาวเทียมและกล้องวงจรปิด"
    },
    {
        "about": "ที่1ของคนเชียงใหม่ \"บริการด้วยใจ อุ่นใจเมื่อเรียกหา 086 1827166\"\nhttps://www.facebook.com/messages/teeneede.cm",
        "description": "ติดตั้งกล้องวงจรปิดเชียงใหม่,CCTC Chiangmai,ติดตั้งCCTV,CCTVขายถูกที่สุด,กล้องcctvเชียงใหม่,กล้องBesuto,Hi-view,Watashi,PeopleFU,Topview,\nกล้องวงจรปิด ราคาถูกที่สุด,แอร์เชียงใหม่\nแอร์ ขายพร้อมติดตั้ง ย้ายแอร์ ล้างแอร์\nทีวี LCDtv PlasmaTV\nจานดาวเทียว\nเครื่องใช้ไฟฟ้าทุกชนิดเชียงใหม่\n\nเครือ\nhttp://www.teeneede.com/\nhttp://www.xn--12clbaafo8efdb1f1dml2a9azf1a0fycnz6xxcyggd.com/\nhttp://teeneede.lnwshop.com/",
        "emails": [
            "saychon.shop@gmail.com"
        ],
        "id": "520796921349684",
        "location": {
            "city": "Chiang Mai",
            "country": "Thailand",
            "latitude": 18.87994,
            "longitude": 99.06539,
            "street": "235/3-4 ถนนช้างม่อย ตำบลช้างม่อย",
            "zip": "50210"
        },
        "name": "กล้องวงจรปิด เชียงใหม่",
        "phone": "0861827166"
    },
    {
        "about": "จำหน่าย ติดตั้งกล้องวงจรปิด  ปลีก-ส่ง HIKVISION   อันดับ1ของโลก  มาตรฐาน จาก อเมริกา  \n082-193-1226\n",
        "id": "824257214298644",
        "location": {
            "city": "Bangkok",
            "country": "Thailand",
            "latitude": 13.75395,
            "longitude": 100.50224,
            "street": "bangkok"
        },
        "name": "ช่างวี ขายส่ง กล้องวงจรปิด Hikvision",
        "phone": "0821931226"
    },
    {
        "about": "จำหน่ายและติดตั้งกล้องวงจรปิด ระบบอินเตอร์เน็ต คีย์การ์ด สแกนนิ้วมือ ระบบ WiFi ตู้สาขา",
        "description": "จำหน่ายกล้องวงจรปิด ออกแบบติดตั้งระบบ กล้องวงจรปิด เชียงใหม่ และจังหวัดใกล้เคียง\nดูกล้องวงจรปิดออนไลน์, ดูกล้องวงจรปิดผ่านอินเตอร์เน็ต, ดูกล้องวงจรปิดผ่านมือถือ ทุกระบบ\nตู้สาขาโทรศัพท์, ระบบ LAN, ระบบ Hotspot, WiFi, ออกแบบ Network, ระบบ Server\nประตูคีย์การ์ด Finger Scan,สแกนลายนิ้วมือ, ดูแลระบบคอมพิวเตอร์ เชียงใหม่ และจังหวัดใกล้เคียง รับซ่อมคอมพิวเตอร์ เชียงใหม่ จำหน่ายชุด คอมพิวเตอร์สำนักงาน ลงโปรแกรมคอมพิวเตอร์ รับวางระบบ อินเตอร์เน็ตหอพัก, อินเตอร์เน็ตอพาทเม้นท์ อินเตอร์เน็ตโรงแรม อินเตอร์เน็ตร้านเกมส์ โรงพยาบาล และร้านอาหาร รับเดินสายในอาคาร-นอกอาคาร, ระบบคีย์เทค, ไฟอะลาม Intercom ระบบจานดาวเทียม PSI, ระบบ TV รวม, ระบบมิเตอร์ดิจิตอล, ซอฟแวร์บิลลิ่ง, ตู้สาขา เชียงใหม่ โทรศัพท์ภายใน และ ระบบรักษาความปลอดภัย ทุกระบบ, Access control, Finger scan, Key Card, Home security, ระบบกันขโมย อุปกรณ์จราจร กรวยจราจร ป้ายจราจร แผงกั้นจราจร ยางกันชน อุปกรณ์สะท้อนแสง เครื่องสำรองไฟ แบตเตอรี่เครื่องสำรองไฟ เชียงใหม่ ",
        "emails": [
            "winnetwork@hotmail.com"
        ],
        "id": "197016387083087",
        "location": {
            "city": "Chiang Mai",
            "country": "Thailand",
            "latitude": 18.808410816702,
            "longitude": 98.982667297349,
            "street": "39/2 ซ.เจดีย์ปล่อง ถ.เจดีย์ปล่อง ต.ช้างเผือก อ.เมือง จ.เชียงใหม่",
            "zip": "50300"
        },
        "name": "กล้องวงจรปิดเชียงใหม่-วินเน็ตเวิร์ค",
        "phone": "053482588"
    },
    {
        "id": "1502725123341971",
        "location": {
            "city": "Chiang Mai",
            "country": "Thailand",
            "latitude": 18.8065529,
            "longitude": 98.9853134,
            "street": "108/2 ต.ช้างเผือก อ.เมือง จ.เชียงใหม่",
            "zip": "50300"
        },
        "name": "กล้องวงจรปิดเชียงใหม่",
        "phone": "080-1252201"
    },
    {
        "about": "บริษัท แอนเท็ม ซีเคียวริตี้ ซิสเต็ม จำกัด(สาขาเชียงใหม่)",
        "id": "618184221559586",
        "location": {
            "city": "Chiang Mai",
            "country": "Thailand",
            "latitude": 18.74005,
            "longitude": 98.95965,
            "street": "๒๑๕/๒ ชั้น ๒ ห้อง ๒๐๑ ถนนช้างคลาน ต.ช้างคลาน อำเภอเมือง จังหวัดเชียงใหม่ ๕๐๑๐๐",
            "zip": "50100"
        },
        "name": "กล้องวงจรปิด เชียงใหม่ ราคาถูก",
        "phone": "087-7174726 "
    },
    {
        "about": "ศูนย์กล้องวงจรปิดเชียงใหม่ : CCTV chiangmai  สายตรงช่าง 081-952-6069",
        "description": "ด้วยประสบการณ์เกือบ 10 ปีด้านระบบเทคโนโลยี ระบบรักษาความปลอดภัย\nระบบลงเวลา ระบบควบคุมการเปิด - ปิดประตู และระบบป้ายไฟ LED \n       \nเราได้คัดสรรผลิตภัณฑ์ที่มีคุณภาพ และตรงตามความต้องการของ\nลูกค้าทุกท่าน  ด้วยสินค้าที่ได้รับมาตรฐาน  CE FC และ ISO ทุกชิ้น \nเพื่อให้เกิดความมั่นใจในตัวสินค้า  และบริการการแนะนำสินค้าก่อนที่\nจะให้ลูกค้าได้ตัดสินใจเลือกซื้ออย่างเหมาะสม  และคุ้มค่ากับการลงทุน \nรวมถึงการแนะนำวิธีการใช้งาน ซอฟต์แวร์ และตัวอุปกรณ์ \nอย่างถูกวิธี และมีบริการหลังการขายให้คำปรึกษาเพิ่มเติม \nโดยทีมงานมืออาชีพ ที่มีประสบการณ์มายาวนาน  \n\n\" คุ้มค่ากับการลงทุนด้านระบบความปลอดภัย ระบบลงเวลา \n   ระบบควบคุมการเปิด - ปิดประตู และระบบป้ายไฟ LED  \"",
        "emails": [
            "digital.dict@gmail.com"
        ],
        "id": "153432378053144",
        "location": {
            "city": "Chiang Mai",
            "country": "Thailand",
            "latitude": 18.83117,
            "longitude": 98.95191,
            "street": "11/3  ถนนเทวัญ ต.ช้างเผือก อ.เมือง  จ.เชียงใหม่",
            "zip": "50300"
        },
        "name": "กล้องวงจรปิด เชียงใหม่ : CCTV chiangmai",
        "phone": "โทร .082-218-8139 ,053-213339"
    },
    {
        "id": "589662257776495",
        "location": {
            "city": "Chiang Mai",
            "country": "Thailand",
            "latitude": 18.760529899764,
            "longitude": 99.011664390564,
            "street": "543/28",
            "zip": "50000"
        },
        "name": "จานดาวเทียม กล้องวงจรปิด ประตูรีโมท ฯลฯ  งานช่าง เชียงใหม่",
        "phone": "053800989"
    },
    {
        "about": "กล้องวงจรปิด CCTV  จานดาวเทียม",
        "id": "1551995808363464",
        "location": {
            "city": "Chiang Mai",
            "country": "Thailand",
            "latitude": 18.7983646,
            "longitude": 98.9863739,
            "street": "10/3 ช้างเผือก ซอย 2",
            "zip": "50200"
        },
        "name": "รับติดตั้งกล้องวงจรปิด จานดาวเทียม ทีวีดิจิตอล",
        "phone": "0892666754"
    },
    {
        "id": "706824306072855",
        "location": {
            "city": "Bangkok",
            "country": "Thailand",
            "latitude": 13.7972603,
            "longitude": 100.6899719,
            "street": "65 ถ.สวนสยาม",
            "zip": "10230"
        },
        "name": "รับติดตั้งเครือข่ายอินเตอร์เน็ทและกล้องวงจรปิด โดช่างต้น เอสพีเค",
        "phone": "0910160395"
    }
]