[
    {
        "about": "รับผลิตและติดตั้ง ประตูรั้วบ้านทาวเฮ้าส์ ประตูรั้วทาวน์เฮ้าส์ ทาวน์โฮม ",
        "description": "รับผลิตงาน ประตูรั้วทาวน์เฮ้าส์ ทาวน์โฮม ประตูรั้วบ้านทาวเฮ้าส์ราคาเป็นกันเอง อาทิเช่น ประตูรั้วสแตนเลสแบบพับ ประตูรั้วสแตนเลสแบบเลื่อน และประตูรั้วสแตนเลสผสมอลูมิเนียมลายไม้ ยินดีให้คำปรึกษาหน้างานสำหรับบ้านทาวเฮ้าส์และทาว์นโฮมที่ต้องการติดตั้งประตูรั้วบ้านใหม่เป็นสแตนเลส เรามีทีมงานมืออาชีพพร้อมผลิตตามความต้องการของลูกค้า งานประตูรั้วสแตนเลสคุณภาพดี เกรด 304 ทนต่อทุกสภาวะอากาศ ไม่เป็นสนิม ไม่ผุกล่อน น้ำหนักเบา ทำความสะอาดง่าย คุ้มค่าคุ้มราคา สแตนเลสเกรด 304 จึงนิยมนำมาผลิตประตูรั้วทาวน์เฮ้าส์ เพราะเป็นงานภายนอกที่ต้องเจอฝน แดด และความชื้น ทางเราสามารถออกแบบนำเสนอลูกค้าด้วยโปรแกรมคอมพิวเตอร์ ผลิตได้ทั้งประตูรั้วสแตนเลสแบบเงา และแบบด้าน ดัดโค้งสแตนเลสได้ตามต้องการ ใช้เวลาผลิตและติดตั้งเร็ว ราคาพิเศษสำหรับประตูรั้วบ้านทาวเฮ้าส์ ทาวน์โฮม ",
        "id": "312429125611849",
        "location": {
            "city": "Amphoe Muang Nonthaburi",
            "country": "Thailand",
            "street": "ซอยติวานนท์38 ถนนติวานนท์ ตำบลท่าทราย",
            "zip": "11000"
        },
        "name": "ประตูรั้วบ้านทาวเฮ้าส์ ประตูรั้วทาวน์เฮ้าส์ ทาวน์โฮม",
        "phone": "083-1345-222"
    },
    {
        "about": "ทำระแนง บังแดด บังตา กันสาด ซ่อมแซมประตูเหล็กรั้วบ้าน",
        "description": "ทำระแนง บังแดด บังตา กันสาด ซ่อมแซมประตูเหล็กรั้วบ้าน งานเล็กเรารับหมด ดูรายละเอียดเพิ่มได้ที่  http://www.facebook.com/ajax/messaging/attachment.php?attach_id=18f8e8373644a07c99fec84b3fcb3eac\u0026mid=mid.1372489818628%3Ade35960d14d35c2908\u0026hash=AQDoTIQxBXfK42yy",
        "id": "617125961635598",
        "location": {
            "city": "Bangkok",
            "country": "Thailand",
            "latitude": 13.8164902,
            "longitude": 100.5781326,
            "street": "38/11 ซอยอาภาภิรมย์,",
            "zip": "10900"
        },
        "name": "ทำระแนง บังแดด บังตา กันสาด ซ่อมแซมประตูเหล็กรั้วบ้าน งานเล็กเรารับหมด",
        "phone": "082-4875460"
    },
    {
        "about": "ประตู รั้ว กันสาด งานเหล็ก สแตนเลส",
        "emails": [
            "krason24@gmail.com"
        ],
        "id": "476786972417851",
        "location": {
            "city": "อ ธัญบุุรี  จ ประทุมธานี",
            "street": "37 ถ รังสิต นครนายก  ต ประชาธิปัตย์",
            "zip": "12130"
        },
        "name": "ประตู รั้ว กันสาด มุ้งลวด งานเหล็ก ซ่อม ทำสี ต่อเติมบ้าน อาคารต่างๆ",
        "phone": "0833171161  0841637077 029970717-8"
    },
    {
        "about": "รับเหมาทำประตูเหล็ก รั้วเหล็กสแตนเลส ประตูเหล็กม้วนรีโมท หลังคาเมทัลชีท ติดตั้งผ้าม่าน ",
        "description": "รับเหมาทำประตูเหล็ก รั้วเหล็ก รั้วสแตนเลส ประตูเหล็กม้วน รีโมทประตู รับซ่อมรีโมทประตู หลังคาเมทัลชีท โครงหลังคาเหล็ก จำหน่าย ติดตั้ง ซักรีด ผ้าม่าน เบอร์โทร 061-5720809",
        "id": "887053488039989",
        "location": {
            "city": "Kanchanaburi",
            "country": "Thailand",
            "latitude": 14.0192,
            "longitude": 99.5297,
            "street": "ต.ท่ามะกา อ.ท่ามะกา",
            "zip": "71120"
        },
        "name": "รับเหมาทำประตู รั้วเหล็กสแตนเลส ประตูม้วนรีโมท หลังคาเมทัลชีท ผ้าม่าน",
        "phone": "0615720809"
    },
    {
        "id": "378627142340449",
        "name": "พชร บริการ  รับทำงานเหล็ก สแตนเลส กันสาด รั้ว ประตู   ถังน้ำเหล็ก",
        "phone": "0817196488"
    },
    {
        "about": "รับออกแบบและติดตั้งงานสแตนเลสทุกชนิด รับประกันใช้เกรด 304 ทุกชิ้นงาน สอบถามราคาได้ 0917053892",
        "id": "1629763763978367",
        "location": {
            "city": "Suphan Buri",
            "country": "Thailand"
        },
        "name": "รับทำประตูสแตนเลส ประตูม้วน รั้ว ระเบียง ทุกชนิด",
        "phone": "0917053892"
    },
    {
        "about": "รับทำงานสแตนเลสและถังสแตนเลสทุกชนิด  ถังแรงดัน ถังผสม ถังนึ่ง  ถังสแตนเลสขนาดใหญ่",
        "description": "รับทำงานสแตนเลสทุกชนิด พร้อมให้บริการปรึกษาเกี่ยวกับเรื่องงานสแตนเลส โดยทีมช่างที่มีประสบการณ์ทำสแตนเลสมากกว่า 10ปี ทำสแตนเลสที่ร้านเราเวลามีปัญหา สามารถแก้ให้ทันทีโดยไม่บ่ายเบี่ยงลุกค้าหรือคิดเงินเพิ่ม เพราะทางเราคิดว่ามันเป็นความผิดของเรา ไม่ใช่ของลูกค้า ที่ทำงานให้ลูกค้าแล้วเกิดปัญหา และราคาที่เรารับทำนั้น ไม่แพงจนเกินไป พออยู่รอดของกิจการ เพราะถ้าเราไม่มีลูกค้าคอยสนับสนุนเรา เราก็คงไม่ได้ทำสแตนเลสจนถึงทุกวันนี้แน่นอนครับ ตัวอย่างงานที่ทางร้านรับทำ ถังสแตนเลส ถังเก็บสารเคมี ถังผสมเครื่องดื่ม ถังผสมสี รับผลิตถังสแตนเลสทุกประเภทและทุกขนาด ถังไซโลสแตนเลส ถังแรงดันสแตนเลส ถังกวน(ใบกวน)พร้อมมอเตอร์ ถังต้ม ถังไซโคลน ถังนึ่ง ถังสแตนเลส2ชั้น ถังผสมสารเคมี ถังใส่อาหาร โต๊ะสแตนเลส กะทะสแตนเลส เคาน์เตอร์สแตนเลส ถาดสแตนเลส ตู้สแตนเลส ชั้นวางของสแตนเลส ประตูรั้วสแตนเลส และงานตกแต่งภายใน ทางร้านยังรับงานเชื่อมสแตนเลส ตามแบบชิ้นงานที่ลูกค้ามอบหมาย และรับงานเชื่อมสแตนเลสทุกชนิด โดยใช้อาร์กอนในการเชื่อม ในราคาผู้รับเหมา ทางร้านมั่นใจในคุณภาพของสินค้าที่ทางร้านทำ หากมีงานสแตนเลส สามารถติดต่อหรือสอบถามได้ครับผม",
        "emails": [
            "stainless81@hotmail.co.th"
        ],
        "id": "163294440543165",
        "location": {
            "city": "Bangkok",
            "country": "Thailand",
            "street": "41/8/ หมู่ที่5 ถนนเอกขัย แขวงโพธิ์แจ้ เขตคอกกระบือ จังหวัดสมุทรสาคร (ตรงข้าม อบต.คอกกระบือ)",
            "zip": "7400"
        },
        "name": "รับทำแสตนเลสทุกชนิด ถัง/หม้อก๋วยเตี๋ยว ประตูบ้าน รั้ว",
        "phone": "0801611390 "
    },
    {
        "about": "ความสุขของเราคือรอยยิ้มของท่าน ^_^",
        "id": "408862762556318",
        "name": "รวมช็อตเด็ด การทำประตู ทุกสนาม"
    },
    {
        "id": "664441083645845",
        "location": {
            "city": "Bung Kan",
            "country": "Thailand",
            "latitude": 18.28669,
            "longitude": 103.6119,
            "street": "119/2 บ.นาสวรรค์ ต.นาสวรรค์",
            "zip": "38000"
        },
        "name": "นิยมสแตนเลส รับทำประตู รั้วบ้าน ราวบันได โพลี่ โครงแสตนเลส",
        "phone": "0847603195"
    },
    {
        "about": "รับผลิตติดตั้ง งานสแตนเลสทุกชนิด",
        "id": "795643817155343",
        "location": {
            "city": "Khon Kaen",
            "country": "Thailand",
            "latitude": 16.47889,
            "longitude": 102.82676,
            "street": "124/1",
            "zip": "40000"
        },
        "name": "รับทำงาน สแตนเลส รั้ว ประตู ลูกกรงเหล็กดัด หลังคากันสาด",
        "phone": "0854581833"
    },
    {
        "about": "รับทำ เหล็กดัด, กันสาด, โครงหลังคา, ประตูรั้ว, กรงสัตว์เลี้ยงและงานไฟฟ้าภายในบ้าน",
        "id": "787067561367709",
        "location": {
            "city": "Changwat Songkhla",
            "country": "Thailand",
            "latitude": 6.95218,
            "longitude": 100.56273,
            "street": "Namom",
            "zip": "90310"
        },
        "name": "สิลป์ชัยการช่าง รับทำ งานเหล็กตามแบบ โครงหลังคา ประตูรั้ว เหล็กดัดฯลฯ",
        "phone": "+66840674708"
    },
    {
        "id": "1047563778595720",
        "name": "รับเหมาทำประตู รั้ว  สแตนเลส"
    },
    {
        "id": "319117094958778",
        "location": {
            "city": "Bangkok",
            "country": "Thailand",
            "latitude": 13.683147933333,
            "longitude": 100.63738866667
        },
        "name": "บ้านมงคลบ้านหลังที่ใหญ่ที่สุดแล้วรวยที่สุดในซอยประตูทำด้วยทองแท้100%"
    },
    {
        "id": "1607398039508001",
        "location": {
            "city": "Nakhon Phanom",
            "country": "Thailand",
            "latitude": 17.4,
            "longitude": 104.783,
            "street": "112 ม11 บ้านห้อม",
            "zip": "48000"
        },
        "name": "รับทำประตูรั้วเหล็กดัด",
        "phone": "0982034795"
    },
    {
        "id": "1565171247102842",
        "location": {
            "city": "อำเภอปราณบุรี",
            "latitude": 12.3809694925,
            "longitude": 99.9443519175,
            "street": "ฝั่งท่า"
        },
        "name": "บ้านมุ้งมิ้งฟันเหล็กรั้วสีเขียวประตูสีม่วงมีหมาสองตัว"
    },
    {
        "id": "1498635123719625",
        "location": {
            "city": "Bangkok",
            "country": "Thailand",
            "latitude": 13.8661494,
            "longitude": 100.7226814
        },
        "name": "ร้าน นวกาญจน์ รับทำงานเหล็กแสตนเลส ประตู ช่องรั้ว โครงหลังคาและงานโชว์"
    },
    {
        "about": "รับสั่งทำ ประตูสแตนเลส ราคาถูก, ออกแบบใหม่ ติดตั้งงานด่วน ประตูรีโมท",
        "emails": [
            "electric_stainless_steel@hotmail.com"
        ],
        "id": "1479606722267547",
        "location": {
            "city": "Sing",
            "country": "Thailand",
            "latitude": 14.90406,
            "longitude": 100.39669,
            "street": "86/2",
            "zip": "16000"
        },
        "name": "รับทำประตู รั้ว สแตนเลส",
        "phone": "0837806521"
    },
    {
        "about": "รับทำประตู รั้ว อื่นๆ ราคากันเอง โดยช่างผู้ชำนาญการ สนใจติดต่อ ช่างสร้างสรรค์ 080-4633995",
        "id": "1442403626073902",
        "location": {
            "city": "Saraburi",
            "country": "Thailand",
            "latitude": 14.5333,
            "longitude": 100.917,
            "street": "14/5 ม. 5 ต. ผึ้งรวง",
            "zip": "18000"
        },
        "name": "รับทำประตู รั้ว ราวบรรได ราคากันเอง",
        "phone": "0804633995"
    },
    {
        "about": "รับทำงานสเตเสล ประตู รั่ว หน้าต่าง คับ สนจัย ลอง คุยกันได้คับผม (ขอบคุนคับ)",
        "id": "1222277394464313",
        "location": {
            "city": "Nakhon Sawan",
            "country": "Thailand",
            "latitude": 15.7133,
            "longitude": 100.135,
            "street": "46ม.7 ต.วัดไทร์ อ.เมือง จ. นครสวรรค์",
            "zip": "60000"
        },
        "name": "รับทำงาน สเตนเสล ประตู รั่ว หน้าต่าง",
        "phone": "0873088328"
    },
    {
        "id": "904065382973920",
        "location": {
            "city": "Ayutthaya",
            "country": "Thailand",
            "latitude": 14.48277483,
            "longitude": 100.53928914
        },
        "name": "บ้านญาณบุญ รับทำ เหล็กดัด มุ้งลวด ประตู หน้าต่าง รั้วบ้าน งานเหล็กทุกชนิด"
    },
    {
        "id": "879111932143381",
        "location": {
            "city": "Sing Buri",
            "country": "Thailand",
            "latitude": 14.8833,
            "longitude": 100.417,
            "street": "จ.สืิงห์บุรี ต.ค่ายบางระจัน อ.ค่ายบางระจุัน  ใกล้กุั จึัั",
            "zip": "16150"
        },
        "name": "รับ ต่อเติม ทำสเตนเลด รั่วบ้าน หน้าต่าง ประตู และอื่นๆ",
        "phone": "0823511315"
    },
    {
        "id": "748952931815817",
        "location": {
            "city": "Muang Phayao",
            "country": "Thailand",
            "latitude": 19.179658,
            "longitude": 99.918447
        },
        "name": "รับเหมาก่อสร้าง ต่อเติม ซ่อมแซม ทำโครงหลังคา ประตูรั้ว งานเหล็กทุกชนิด",
        "phone": "0848052876"
    },
    {
        "id": "671823896236290",
        "location": {
            "city": "Amphoe Ko Chang",
            "country": "Thailand",
            "latitude": 12.046089490229,
            "longitude": 102.29805841065
        },
        "name": "หอพักพนักงานระดับพรีเมี่ยม ประตูรั้วทางเข้าทำด้วยทองคำบริสุทธิ์"
    },
    {
        "id": "533527563358190",
        "location": {
            "city": "Doha",
            "country": "Qatar",
            "latitude": 25.268194903647,
            "longitude": 51.55971488993
        },
        "name": "ห้องขังรวมประตู ๙ ท่าอากาศยานนานาชาติ โดฮา"
    },
    {
        "id": "418802511543551",
        "location": {
            "city": "Bangkok",
            "country": "Thailand",
            "latitude": 13.8080897,
            "longitude": 100.3211092
        },
        "name": "เหน่ง แสตนเลส รับออกแบบสั่งทำ ประตูแสตนเลส ราวบันได ช่องรั้ว ลูกหมุน รางน้ำ"
    }
]