[
    {
        "id": "407790366075990",
        "location": {
            "city": "Surat Thani",
            "country": "Thailand",
            "latitude": 9.1264696,
            "longitude": 99.3347168,
            "street": "213/10 ซ.ชนเกษม 25/1",
            "zip": "84000"
        },
        "name": "เอ.บี.สแตนเลส รับทำประตู รั้ว กันสาดและงานสแตนเลสทุกชนิด"
    },
    {
        "emails": [
            "innomodel1@gmail.com"
        ],
        "id": "1375235859471464",
        "location": {
            "city": "Bangkok",
            "country": "Thailand",
            "latitude": 13.7522,
            "longitude": 100.494,
            "street": "ึ74/7 หมู่บ้านเสนานิเวศน์ จรเข้บัว ลาดพร้าว",
            "zip": "10230"
        },
        "name": "รับทำประตูบ้าน,รั้ว,ระแนงบังตา",
        "phone": "0955526000"
    },
    {
        "id": "1377573992476118",
        "location": {
            "city": "Muang Chum",
            "country": "Thailand",
            "latitude": 13.947966,
            "longitude": 99.616438,
            "zip": "71110"
        },
        "name": "@ บ้านท่าไม้รวก ประตู 2"
    },
    {
        "id": "900989776648973",
        "location": {
            "city": "Samut Sakhon",
            "country": "Thailand",
            "latitude": 13.5555897,
            "longitude": 100.232666,
            "street": "5/21ม3 ต.บางกระเจ้า อ.เมือง",
            "zip": "74000"
        },
        "name": "รับสมัคร ช่างทำประตู ราวบันได รั้ว สแตนเลส และเด็กฝึกงาน",
        "phone": "0954908228"
    }
]