[
    {
        "about": "รับจัดสวน ปูหญ้า งานไม้ระแนง ไม้พื้น \nจำหน่ายและจัดหาต้นไม้ทุกชนิด!!",
        "id": "311361009007449",
        "name": "ขายต้นไม้ จัดสวน ร้านบ้านช้าง เมืองนนท์"
    },
    {
        "id": "839696512795603",
        "location": {
            "city": "Ubon Ratchathani",
            "country": "Thailand",
            "latitude": 15.2552798,
            "longitude": 104.8352608,
            "street": "ซอยแจ้งสนิด4/7"
        },
        "name": "บ้านช่างเพรช จัดสวน"
    },
    {
        "id": "1556722094611640",
        "location": {
            "city": "Bangkok",
            "country": "Thailand",
            "latitude": 13.597998966585,
            "longitude": 100.83430085331
        },
        "name": "บ้านช่างเอจัดทำโดยช่างนุส่วนช่างหลุยแค่ดูๆ"
    },
    {
        "id": "1031589403521746",
        "location": {
            "city": "Amphoe Seka",
            "country": "Thailand",
            "latitude": 17.92855,
            "longitude": 103.95354,
            "street": "87หมู่23 บ.ทรัพย์วังทอง (ช่างปื้ด)",
            "zip": "38150"
        },
        "name": "จัดส่วน  ทุกรูปแบบปั้นน้ำตกลำธาร",
        "phone": "0985799322"
    },
    {
        "id": "945782372122919",
        "location": {
            "latitude": 13.031628420576,
            "longitude": 102.3384098243
        },
        "name": "ข้างสวนลำไย ช่างอ้นจัดบวม"
    },
    {
        "id": "724288254365390",
        "location": {
            "city": "Songkhla",
            "country": "Thailand",
            "latitude": 7.2,
            "longitude": 100.6
        },
        "name": "ส่วนจัดแสดงช้างสวนสัตว์สงขลา Songkhla Zoo"
    },
    {
        "id": "641075055984842",
        "location": {
            "latitude": 8.422964699142,
            "longitude": 99.616913438413
        },
        "name": "ร้านช่างตั้มมอเตอร์ไซด์ สวนขัน By ผู้จัดการต้อม สร้างภาพทีม"
    },
    {
        "id": "632710006828907",
        "location": {
            "city": "Don Sak",
            "country": "Thailand",
            "latitude": 9.1297982915528,
            "longitude": 99.682152271271
        },
        "name": "บ้านช้าง ออกแบบ-จัดสวน อ.ดอนสัก จ.สุราษฎร์ธานี"
    },
    {
        "id": "418282884950281",
        "location": {
            "city": "Bangkok",
            "country": "Thailand",
            "latitude": 13.75395,
            "longitude": 100.50224,
            "street": "จอมทอง"
        },
        "name": "เย็นนี้จัดหนัก ยำปูม้า ปลาช่อนลุยสวน ร้านช้างอั้นพระรามสอง"
    },
    {
        "id": "391291657691912",
        "location": {
            "city": "Khonkean",
            "country": "Thailand",
            "latitude": 16.454577688988,
            "longitude": 102.81372819523
        },
        "name": "จุดเล็กๆในส่วนขอบของ Galaxy ทางช้างเผือก"
    },
    {
        "id": "275071949277070",
        "location": {
            "latitude": 16.117570493385,
            "longitude": 100.72508666674
        },
        "name": "บ้านช่างปุ้ย จัดสวน"
    },
    {
        "id": "242422205957656",
        "location": {
            "latitude": 8.4228469208807,
            "longitude": 99.616900704115
        },
        "name": "ร้านช่างตั้มมอเตอร์เตอร์ไซด์ สวนขัน By ผู้จัดการต้อม"
    },
    {
        "id": "171687109635363",
        "location": {
            "city": "Nakhon Pathom",
            "country": "Thailand",
            "latitude": 13.826922793409,
            "longitude": 100.04280111718
        },
        "name": "ร้านช่างตูน ดีที่สุดในสวนตะใคร้ ไม่ยำ ไม่หมัก ไม่หมก จัดเต็ม"
    },
    {
        "id": "162820223900506",
        "location": {
            "latitude": 14.699878459294,
            "longitude": 104.64950941258
        },
        "name": "สวนเงาะ By. ช่างโม จัดหั่ย แน่นอน?"
    },
    {
        "id": "161943277325476",
        "location": {
            "city": "Ubon Ratchathani",
            "country": "Thailand",
            "latitude": 15.30553314928,
            "longitude": 104.87504370537
        },
        "name": "บ้านสวน ช่าง อรุณ  ภูศิริ เสี่ย นุ จัด ให้"
    },
    {
        "id": "131144717083862",
        "location": {
            "latitude": 14.700925860195,
            "longitude": 104.64193221944
        },
        "name": "สวนเงาะ ช่างโม มหาราช จัดหั่ย."
    },
    {
        "id": "121525224704159",
        "location": {
            "city": "Samut Prakan",
            "country": "Thailand",
            "latitude": 13.60378,
            "longitude": 100.86336,
            "street": "ต.บางเพรียง อ.บางบ่อ จ.สมุทรปราการ",
            "zip": "10560"
        },
        "name": "ช้างวิเศษคาแคร์ \u0026 อุปกรณ์จัดสวน",
        "phone": "0834478410"
    },
    {
        "about": "รับกำจัดปลวก และแมลง ",
        "id": "1424500904536298",
        "location": {
            "city": "Surat Thani",
            "country": "Thailand",
            "latitude": 9.1077633,
            "longitude": 99.3726501,
            "street": "55/3 หมู่ 1 ตำบลท่าโรงช้าง อำเภอพุนพิน จังหวัดสุราษฎร์ธานี",
            "zip": "84130"
        },
        "name": "ห้างหุ้นส่วนจำกัด เจ เอ็น เค กำจัดปลวก",
        "phone": "0848890746 ,0894730916"
    }
]