[
    {
        "id": "866838296713288",
        "location": {
            "city": "Wang Noi",
            "country": "Thailand",
            "street": "บ้านช้าง",
            "zip": "13210"
        },
        "name": "ช่างหนุ่มกระจก อลูมิเนียม ฝ้าทีบาร์ ฝ้าฉาบเรียบ ผนังกั้นห้อง",
        "phone": "0819487042"
    },
    {
        "about": "ซ่อมกระจกไฟฟ้า เบาะไฟฟ้า ม่านไฟฟ้า กลอนประตู ทุกรุ่น",
        "id": "1506578286266575",
        "location": {
            "city": "Bangkok",
            "country": "Thailand",
            "latitude": 13.77803,
            "longitude": 100.4854,
            "street": "639/109 ถนน บรมราชนนี แขวง บางยี่ขัน เขต บางพลัด กรุงเทพมหานคร",
            "zip": "10700"
        },
        "name": "ซ่อมกระจกไฟฟ้ารถยนต์ ช่างเหลิม",
        "phone": "0815627822"
    },
    {
        "about": "สามารถติดต่อได้ที่เบอร์โทรศัพท์ 091-7417096,085-8002998 ราคากันเอง",
        "id": "1666384150247601",
        "location": {
            "city": "Chiang Mai",
            "country": "Thailand",
            "latitude": 18.8118534,
            "longitude": 99.0112762,
            "street": "45/2 ม.3 ต.ห้วยทราย อ.สันกำแพง จ.เชียงใหม่",
            "zip": "50130"
        },
        "name": "ร้าน ว.เชียงใหม่ การช่าง รับทำ มุ้งลวด กระจก เหล็กดัด อลูมิเนียม สันกำแพง",
        "phone": "0917417096,0858002998"
    },
    {
        "id": "1501673440112817",
        "location": {
            "city": "Bangkok",
            "country": "Thailand",
            "latitude": 16.08755,
            "longitude": 102.75218,
            "street": "78.11 ม.3 บ้านเกิ้ง",
            "zip": "40110"
        },
        "name": "ช่างกระจก ป.อลูมิเนียม รับติดตั้งกระจก  อลูมิเนียม",
        "phone": "0981816536"
    },
    {
        "about": "ซ่อมเกียวกับประตูรถยนต์โดยตรง",
        "id": "724012254302596",
        "location": {
            "city": "Bangkok",
            "country": "Thailand",
            "latitude": 13.63148675245,
            "longitude": 100.61993708183,
            "street": "Thepharak",
            "zip": "10270"
        },
        "name": "ร้านซ่อมกระจกไฟฟ้ารยนต์ รีโมทกันขโมย เทพารักษ์ ช่างเอ็ม",
        "phone": "0896645156"
    },
    {
        "about": "สูขสวัสดิ์ 26 แขวงบางปะกอก ราษฏร์บูรณะ  กรุงเทพฯ  10140",
        "description": "รับติดตั้งกระจก อลูมิเนียม",
        "id": "241412042592316",
        "name": "ร้านพรสมบุญการช่าง. รับติดตั้งกระจก อลูมิเนียม"
    },
    {
        "about": "ลำปาง ช่างแอร์ ติดตั้งแอร์ ล้างแอร์ เติมน้ำยาแอร์ ",
        "description": "ส. รวมช่าง ซ่อมและติดตั้งแอร์ รับเหมาก่อสร้าง งานปูน งานเหล็ก งานกระจก มุ้งลวด รางน้ำ บริการทั่วเมืองลำปาง โทร. 0862533217",
        "emails": [
            "sor.2524@hotmail.com"
        ],
        "id": "167464626651600",
        "location": {
            "city": "้ห้างฉัตร จ.ลำปาง",
            "street": "165/10",
            "zip": "52190"
        },
        "name": "รวมช่าง ลำปาง ซ่อมและติดตั้งแอร์ กระจก มุ้งลวด เหล็กดัด รางน้ำ งานโครงสร้าง",
        "phone": "0862533217"
    },
    {
        "about": " รับออกแบบ-ติดตั้งกระจก อลูมิเนียม มุ้งลวด ประตู หน้าต่าง ",
        "description": "เรา ... รับออกแบบ-ติดตั้งกระจก อลูมิเนียม มุ้งลวด ประตู หน้าต่าง \n\n*** บานเลื่อน บานสวิง บานตาย บานเกล็ด มุ้งลวด ฝ้าเพดาน ฝ้า T Bar ผนังเบา \n\n*** งานกั้นห้อง/สำนักงาน ด้วยกระจก อลูมิเนียม\n\nราคาเป็นกันเอง รับประกันความพึงพอใจ พร้อมบริการหลังการขาย \n\nสนใจสอบถามรายละเอียดเพิ่มเติม-ประเมินราคาได้ที่ \n\nช่างโหน่ง สยาม ธิวังการ  โทร   081-783-1287 \n\nตั้งอยู่ที่ 229 ม.5 บ้านสันต้นเปา ต.ริมกก อ.เมือง จ.เชียงราย \n\n(ลงจากขัวพญามังราย ตรงมา เรื่อย ๆ  จนถึงแยกบ้านป่าตึง ห่างจากแยกบ้านป่า\n\nตึงประมาณ 50 เมตร ทางด้านขวามือ ติดกับร้านแกงราดข้าว ป้ามาลี)\n\nยินดีครับ !",
        "emails": [
            "changnong-alu@hotmail.com"
        ],
        "id": "155178777887497",
        "location": {
            "street": "กลางเวียง",
            "zip": "57100"
        },
        "name": "ทีมงานช่างโหน่ง กระจก อลูมิเนียม",
        "phone": "0817831287"
    },
    {
        "about": "Line ID: 053511112",
        "description": "จำหน่าย และรับออกแบบ-ติดตั้งกระจก อลูมิเนียม ประตู-หน้าต่าง มุ้งลวด เหล็กดัด กั้นห้อง กันสาด ประตูม้วน บอร์ด ตู้กระจก ฯลฯ\nLine ID: 053511112 โทร 053-511112, 097-9946362, 094-2299492",
        "emails": [
            "sahaychang1@hotmail.com"
        ],
        "id": "406846859487523",
        "location": {
            "city": "อ.เมืองลำพูน จ.ลำพูน",
            "street": "1/1 ถนนสันป่ายาง ต.ในเมือง",
            "zip": "51000"
        },
        "name": "ร้านสหายช่าง ลำพูน ติดตั้งกระจก-อลูมิเนียม",
        "phone": "053-511112, 094-2299492, 097-9946362 "
    },
    {
        "about": "รับซ่อมกระจกรถยนต์โดนหิน \nราคาเริ่มต้น 500-1,000 บาท\nบริการถึงที่ พื้นที่ กรุงเทพ และรอบๆๆ\n",
        "id": "738924299511511",
        "name": "ช่างเล็ก ซ่อมกระจกรถยนต์โดนหิน"
    },
    {
        "about": "รับออกแบบติดตั้งงานกระจก-อลูมิเนียม-ฝ้า-เหล็กดัด-ก่อสร้างและงานตกเเต่งทุกชนิด ",
        "id": "782252268502568",
        "location": {
            "city": "นนทบุรี",
            "street": "45/38ม5.บ้านไทรน้อย",
            "zip": "11150"
        },
        "name": "ช่างแชมป์ กระจก-อลูมิเนัยม",
        "phone": "029224305"
    },
    {
        "about": "รับติดตั้ง กระจก บานประตู หน้าต่าง ในโคราช โดยช่างที่มีประสบการณ์ ราคาเป็นกันเอง",
        "id": "852346624778660",
        "location": {
            "city": "Nakhon Ratchasima",
            "country": "Thailand",
            "latitude": 15.27803,
            "longitude": 102.53887,
            "street": "419 หมู่ 14 ต.โบสถ์ อ.พิมาย จ.นครราชสีมา",
            "zip": "30110"
        },
        "name": "รับติดตั้ง กระจก ประตู หน้าต่าง ในโคราช โดยช่างมืออาชีพ",
        "phone": "0884661900"
    },
    {
        "about": "กระจก ม้งลวด งานอลูมิเนียม ฝ้า เหล็กดัด",
        "id": "1534277393469341",
        "location": {
            "city": "สุโขทัย",
            "street": "สวรรคโลก",
            "zip": "64110"
        },
        "name": "ร้าน ช่างต้น-ช่างเหนือ กระจก อลูมิเนิยม",
        "phone": "0899574386"
    },
    {
        "about": "ธงชัยการช่าง รับทำ เหล็กดัด มุ้งลวด กระจก อลูมิเนียม กันสาด ประตูม้วน โครงหลังคา",
        "id": "838515129549525",
        "location": {
            "city": "Amphoe Khlong Luang",
            "country": "Thailand",
            "latitude": 14.06583,
            "longitude": 100.64215,
            "street": "26/164 กฤษณาเฮาส์ หมู่6 ต.คลองสาม",
            "zip": "12120"
        },
        "name": "ธงชัยการช่าง เหล็กดัด มุ้งลวด อลูมิเนียม กระจก กันสาด",
        "phone": "0867419532"
    },
    {
        "about": "งาน สแตนเลส เหล็ก กันสาด\nกระจก ฝ้า อลูมิเนียม และ อื่นๆ",
        "id": "546938818776619",
        "location": {
            "city": "Chanthaburi",
            "country": "Thailand",
            "latitude": 12.62871,
            "longitude": 102.11695,
            "street": "จันทบุรี",
            "zip": "22000"
        },
        "name": "ทีมช่าง สแตนเลส กระจก ฝ้าและอื่นๆ",
        "phone": "081-1615684"
    },
    {
        "emails": [
            "att.fc.th@gmail.com"
        ],
        "id": "330703440470750",
        "location": {
            "city": "Pak Kret",
            "country": "Thailand",
            "latitude": 13.93621,
            "longitude": 100.47408,
            "street": "สะพานพระราม 4 ปากเกร็ด",
            "zip": "11120"
        },
        "name": "Att อลูมิเนียมช่างเอ๋ รับติดตั้ง กระจก บานเลื่อน สวิง มุ้ง สแตนเลส",
        "phone": "0813567487  "
    },
    {
        "id": "1915632598661128",
        "name": "ผู้ช้วยช่าง กระจก-อลูมิเนียม"
    },
    {
        "id": "716992085073924",
        "name": "ร้านกระจกช่างน้อย"
    },
    {
        "about": "เจ้ต๊ะ ศูนย์ฝ้ากระจก ครบวงจร",
        "description": "เจ้ต๊ะ รับงาน ออกแบบติดตั้ง กระจก อลูมิเนียม บานเลื่อน บานสวิง บานกระทุ้ง มุ้งลวด กั้นผนังเบา ผนังกระจกอบ ฝ้าเพดานฝ้าทีบาร์\nต๊ะ 099-0969595\n     086-4106223\n     086-8334679\nเบอร์บ้าน 038-192901\nFax:038-292-545\n",
        "emails": [
            "pan.may.6112m5@gmail.com"
        ],
        "id": "1642714679276399",
        "location": {
            "city": "Cholburi",
            "country": "Thailand",
            "latitude": 13.3667,
            "longitude": 100.983,
            "street": "หนองไผ่แก้ว",
            "zip": "20220"
        },
        "name": "เจ้ต๊ะ รับทำฝ้า กระจก อลูมิเนียม รวดเร็ว ทันเวลา โดยช่างผู้เชี่ยวชาญ",
        "phone": "0835834454"
    },
    {
        "about": "รับติดตั้งกระจกอะลูมิเนียมทุกชนิด \nทั่วประเทศไทย  ราคาเป็นกันเอง\n\n",
        "id": "1595412167344250",
        "location": {
            "city": "Lamphun",
            "country": "Thailand",
            "latitude": 18.53688,
            "longitude": 99.07746,
            "street": "56/4 หมู่7 ต.บ้านกลาง อ.เมือง จ.ลำพูน",
            "zip": "51000"
        },
        "name": "ช่างดาว  รับติดตั้ง กระจก  อะลูมิเนียมทุกชนิด",
        "phone": "0857078872"
    },
    {
        "about": "โทร.084-640-3561 (ช่างวัฒน์)\nID Line: benz_drift\nEmail: benz_drift13@hotmail.com",
        "description": "รับทำ ติดตั้ง ซ่อมเเซม กระจก อลูมิเนียม บานเลื่อน บานสวิง มุ้งลวด เเละงานเหล็กทุกชนิด ",
        "id": "543342729059664",
        "location": {
            "city": "กรุงเทพมหานคร",
            "street": "143/176 ซ.เทวะ(เพชรเกษม4เเยก20) เเขวงวัดท่าพระ เขตบางกอกใหญ่",
            "zip": "10600"
        },
        "name": "รับทำกระจก อลูมิเนียม มุ้งลวด งานซ่อม ทุกชนิดฯลฯ ว.การช่าง",
        "phone": "084-640-3561"
    },
    {
        "id": "1540997576190613",
        "location": {
            "city": "Surat Thani",
            "country": "Thailand",
            "latitude": 9.1077633,
            "longitude": 99.3726501,
            "street": "78/1 ม.3 ต.ทุ่งเตาใหม่ อ.บ้านนาสาร จ.สุราษฏร์ธานี",
            "zip": "84000"
        },
        "name": "ช่าง ตี๋ กระจก\u0026อลูมิเนียม",
        "phone": "0986722169"
    },
    {
        "id": "844449348917989",
        "location": {
            "city": "Bangkok",
            "country": "Thailand",
            "latitude": 16.44472,
            "longitude": 99.86894,
            "street": "62/150   หมู่  16  ต.คลองสาม  อ.คลองหลวง  จ.ปทุมธานี",
            "zip": "12120"
        },
        "name": "ธนยศการช่าง-กระจก \u0026 อลูมิเนียม",
        "phone": "0806077363"
    },
    {
        "id": "527766564045743",
        "name": "ช่างติดตั้ง กระจกรถยนต์ แม็คโคร รถBUS"
    },
    {
        "about": "รับติดตั้งกระจก_อลูมิเนียม_ฝ้าเพดาน_บัวยิปซั้มกระบี่_ภูเก็ต_พังงา",
        "id": "1658293214441698",
        "name": "ช่างกระบี่รับงานกระจก_อลูมิเนียมและฝ้าเพดาน0814772348"
    }
]