[
    {
        "about": "ทำตู้กระจกaluminun หน้าต่าง มุ้งลวด ซ่มแซมทุกชนิด ราคากันเอง\n",
        "description": "รับทำตู้กระจกaluminum ซ่มแซมงานเล๊กงานใหญ่ ราคากันเ0ง",
        "emails": [
            "chavalit02102501@hotmail.com"
        ],
        "id": "463503693785908",
        "location": {
            "city": "Ban Hat Yai",
            "country": "Thailand",
            "latitude": 7.0152,
            "longitude": 100.39974,
            "street": "หาดใหญ่",
            "zip": "90110"
        },
        "name": "ช่างกระจกaluminum",
        "phone": "0877965177"
    },
    {
        "id": "404473786343845",
        "location": {
            "latitude": 14.6050473,
            "longitude": 100.412590278
        },
        "name": "ร้านกระจกช่างอ้นมงคล ปิเนียมซิ่ง"
    },
    {
        "id": "409685642490495",
        "location": {
            "city": "Khuan Khanun",
            "country": "Thailand",
            "latitude": 7.76642,
            "longitude": 100.00007,
            "street": "361ม.9ต.ควนขนุน อ.ควนขนุน จ.พัทลุง93110",
            "zip": "93110"
        },
        "name": "ช่างกระจก อลูมิเนียมควนขนุน พัทลุง",
        "phone": "0867472069"
    },
    {
        "id": "410739812384542",
        "location": {
            "city": "Amphoe Banphot Phisai",
            "country": "Thailand",
            "latitude": 15.9342,
            "longitude": 99.9789,
            "street": "นครสวรรค์",
            "zip": "60180"
        },
        "name": "ช่างพัน รับเหมางานลวดลาย, บูรณะวัดใหม่ ทาสี ติดกระจก",
        "phone": "0812847618"
    },
    {
        "id": "460364660694554",
        "location": {
            "latitude": 14.144801770054,
            "longitude": 100.63089980734
        },
        "name": "ร้านธนยศการช่าง กระจก-อลูมิเนียม ถนนเทพกุญชร ประตูน้ำพระอินทร์"
    },
    {
        "id": "461567677279416",
        "location": {
            "city": "Pattani",
            "country": "Thailand",
            "latitude": 6.86782,
            "longitude": 101.24948,
            "street": "ตรงข้ามซอย 9 ถนนมะกรูด  อ.เมือง ปัตตานี"
        },
        "name": "ร้านปาตานีกระจก อะลูมิเนียม - ช่างโซ๊ะ",
        "phone": "0896588770"
    },
    {
        "id": "427944904052342",
        "location": {
            "city": "Chaiya",
            "country": "Thailand",
            "latitude": 9.58533503,
            "longitude": 99.12818735
        },
        "name": "ช่างกาย - ร้านกระจกยูเทิรน์หนองปลิง"
    },
    {
        "id": "451834474991236",
        "location": {
            "city": "Saraburi",
            "country": "Thailand",
            "latitude": 14.54238592,
            "longitude": 100.9055239
        },
        "name": "ร้านกระจกช่างประพันธ์มีลูกสาวสวยรองจากส.มิทอล"
    },
    {
        "id": "442744059237559",
        "location": {
            "city": "Somdet",
            "country": "Thailand",
            "latitude": 16.7019427,
            "longitude": 103.7499149
        },
        "name": "บ้านช่างกระจก"
    },
    {
        "id": "438636456313089",
        "location": {
            "city": "Ban Klang",
            "country": "Thailand",
            "latitude": 12.9107625,
            "longitude": 101.5349915
        },
        "name": "ร้านกระจกช่างคิวซัง"
    },
    {
        "id": "438553446314778",
        "location": {
            "city": "ปราณบุรี",
            "latitude": 12.413389717766,
            "longitude": 99.956789016724
        },
        "name": "บ้านช่างนิดรับเหมาติดตั้งกระจกทุกชนิด"
    },
    {
        "id": "433279766866895",
        "location": {
            "city": "Amphoe Sawankhalok",
            "country": "Thailand",
            "latitude": 17.3240266,
            "longitude": 99.8479128
        },
        "name": "ร้านช่างมิ่ง กระจก"
    },
    {
        "id": "431081290294715",
        "location": {
            "city": "Muang Khon Kaen",
            "country": "Thailand",
            "latitude": 16.44221,
            "longitude": 102.8362,
            "street": "ขอนแก่น"
        },
        "name": "ร้านช่างใหญ่กระจกรถยนต์"
    },
    {
        "id": "276543919069338",
        "location": {
            "city": "Rayong",
            "country": "Thailand",
            "latitude": 12.625331410743,
            "longitude": 101.43074781584,
            "street": "บ้านเพ",
            "zip": "21160"
        },
        "name": "ช่างกัปตัน กระจกเหล็กดัด มุ้งลวด อลูมิเนียม สเตนเลส",
        "phone": "0859883911"
    },
    {
        "id": "180908935367653",
        "location": {
            "city": "Chiang Rai",
            "country": "Thailand",
            "latitude": 19.884678826989,
            "longitude": 99.830701521691,
            "zip": "57000"
        },
        "name": "พรประเสริฐการช่าง (กระจกรถยนต์)"
    },
    {
        "id": "313175865515185",
        "location": {
            "city": "Si Racha",
            "country": "Thailand",
            "latitude": 13.1478899,
            "longitude": 100.91612336
        },
        "name": "ร้านช่างปาร์ค ซ่อมกระจก"
    },
    {
        "about": "รับติดตั้ง กระจกอลูมิเนียมทุกชนิด ประตูอัตโนมัต รับติดตั้งทั่วราชอณาจักร",
        "id": "1607537849495600",
        "location": {
            "city": "Buriram",
            "country": "Thailand",
            "latitude": 15,
            "longitude": 103.117,
            "street": "16/29",
            "zip": "31000"
        },
        "name": "ร้าน ช่างเดี่ยวกระจก ดีไซร์",
        "phone": "0874590968"
    },
    {
        "id": "245011505531760",
        "location": {
            "city": "Bangkok",
            "country": "Thailand",
            "latitude": 13.598393490032,
            "longitude": 100.72713799946,
            "zip": "10540"
        },
        "name": "ร้านกระจก ส สนิทชัยการช่าง"
    },
    {
        "about": "กระจก อลูมิเนี่ยม ฝ้า ฯลฯ",
        "id": "106453776371203",
        "location": {
            "city": "Udon Thani",
            "country": "Thailand",
            "latitude": 17.4167,
            "longitude": 102.75,
            "street": "บ้านเลขที่35 บ้านกุดลิงง้อ ต.นาดี อ.เมือง จ.อุดรธานี",
            "zip": "41000"
        },
        "name": "ช่างชาญ กระจก อลูมิเนี่ยม",
        "phone": "0884603085"
    },
    {
        "id": "237374783129288",
        "location": {
            "city": "Lam Luk Ka",
            "country": "Thailand",
            "latitude": 13.932745885082,
            "longitude": 100.75050426831,
            "zip": "12150"
        },
        "name": "ร้านช่างไก่ กระจก-อลูมิเนียม",
        "phone": "0817118520"
    },
    {
        "about": "จำหน่าย กระจก - อลูมิเนียม",
        "description": "จำหน่ายกระจก - อลูมิเนียม\nบริการออกแบบ - ติดตั้งกระจก, อลูมิเนียม, ฝ้าเพดานและอื่นๆ\n--\u003e\u003e ราคาเป็นกันเอง ",
        "id": "379576048838370",
        "location": {
            "city": "Sisakate",
            "country": "Thailand",
            "latitude": 14.76787,
            "longitude": 104.34932,
            "street": "สาย24 แยกหัวช้าง อ.ไพรบึง",
            "zip": "33180"
        },
        "name": "แจ็คกระจก - JK Aluminum Co.,Ltd",
        "phone": "084-4893732"
    },
    {
        "id": "140495539620526",
        "location": {
            "city": "Bangkok",
            "country": "Thailand",
            "latitude": 13.8592997,
            "longitude": 100.8601837,
            "street": "หนองจอก คู้ขวา",
            "zip": "33200"
        },
        "name": "ช่างฝ้า\u0026กระจก  อานอล",
        "phone": "0615610981"
    },
    {
        "about": "บริการรับบัตรเครดิตรทุกธนาคารไม่มีชาร์จ 3 %",
        "emails": [
            "salearucknetdesign@gmail.com"
        ],
        "id": "318909111575686",
        "location": {
            "city": "Muang Chiang Mai",
            "country": "Thailand",
            "latitude": 18.83117,
            "longitude": 98.95191,
            "street": "144/22 ม.2 ต.ช้างเผือก",
            "zip": "50300"
        },
        "name": "ร้านกระจก ก.รุ่งเรืองทรัพย์ เชียงใหม่",
        "phone": "660815753993"
    }
]