[
    {
        "id": "496883220418164",
        "location": {
            "city": "Bangkok",
            "country": "Thailand",
            "latitude": 13.97531,
            "longitude": 100.65421,
            "street": "13/84",
            "zip": "12130"
        },
        "name": "ช่างอ้วนเหล็กดัด มุ้งลวด งานกระจก-อลูมิเนียม  งานสแตนเลส",
        "phone": "0860646056"
    },
    {
        "about": "รับออกแบบ ติดตั้ง ดัดแปลง แก้ไข และรับเหมาค่าแรง งานกระจก/อลูมิเนียม ",
        "id": "858708264156639",
        "location": {
            "city": "Phuket",
            "country": "Thailand",
            "latitude": 7.882915,
            "longitude": 98.39087,
            "street": "แถวๆเคหะ",
            "zip": "83000"
        },
        "name": "ช่างโจ๊ก งานกระจก อลูมิเนียม ทุกชนิด",
        "phone": "095-090-0151"
    },
    {
        "about": "ซ่อมรอยแตก-ร้าว กระจกรถยนต์ ช่างปาร์คซ่อมกระจก",
        "description": "ช่างปาร์คซ่อมกระจก\nซ่อมรอยแตก-ร้าวกระจกรถยนต์\nจำหน่าย-ติดตั้ง กระจกรถยนต์-รถขุด\nฟิล์มรถยนต์-อาคาร  แบตเตอรี่ เคฟล่า (บริการถึงบ้าน)\nติดต่อ ช่างปาร์ค 084-9403688\nwww.srirachakrajok.blogspot.com\n\nประโยชน์ของการซ่อมกระจกรถยนต์\n*ประหยัดค่าใช้จ่าย การเปลี่ยนกระจกบานใหม่นั้นมีราคาที่สูงมากกว่าการซ่อม 4,000 ถึง 5,0000 บาท แต่ค่าซ่อม 500 - 1,500 บาท\n*ไม่ต้องกังวลในการบริการ การติดตั้งกระจกใหม่อาจทำให้มีการรั่วซึม หรือ เสี่ยงต่อการรื้อถอนของช่างที่ไม่ชำนาญ (ประสบการณ์น้อย)\n*ใช้เวลาไม่นานๆ ไม่ต้องไปนั่งรอเสียเวลาเป็นชั่วโมงในการเปลี่ยนกระจกบานใหม่\n\nวิธีป้องกันรอยแตกเบื้องต้น\n*เมื่อมีรอยแตกให้จอดรถในที่เย็น หลีกเลี่ยงการจอดในกลางแจ้ง หรือ แดดส่องโดยตรง เพื่อลดอุณหภูมิในรถยนต์ เนื่องจากกระจกที่ร้อนจะอ่อนตัวมีแนวโนมจะแตกร้าวสูงมาก\n*อย่าปิดประตูกระแทกแรงๆ เพราะอาจจะทำให้เกิดแรงอัดกระทบทำให้แผลแตกร้าวได้\n*อย่าใช้มือดันบริเวณแผลแตกไม่ว่าจากข้างในหรือข้างนอก เพราะจะทำให้แผลแตกร้าวได้ง่าย\n*งดการล้าง ถ้าหลีกเลี่ยงไม่ได้หรือกลัวซ่อมแล้วไม่สวยควรหาเทปกาวหรือสติกเกอร์ปิดบริเวณแผลแตกด้านนอกไว้\nหมายเหตุ -ซ่อมแล้วไม่พอใจยินดีไม่คิดค่าบริการ\n\t-ไม่ว่าจะอยู่ที่ไหนซ่อมได้ทุกที่\n\t-รับประกันตลอดอายุการใช้งาน\n\nซ่อมรอยแตก-ร้าว กระจกรถยนต์ ช่างปาร์คซ่อมกระจก จำหน่าย-ติดตั้ง กระจกรถยนต์-รถขุด ฟิล์มรถยนต์-อาคาร  แบตเตอรี่ เคฟล่า (บริการถึงบ้าน) ติดต่อ ช่างปาร์ค 084-9403688 www.srirachakrajok.blogspot.com",
        "emails": [
            "park0849403688@gmail.com"
        ],
        "id": "538183816206090",
        "location": {
            "city": "Si Racha",
            "country": "Thailand",
            "street": "Sriracha",
            "zip": "20110"
        },
        "name": "ช่างปาร์ค ซ่อมกระจก",
        "phone": "084-9403688"
    },
    {
        "about": " รับติดตั้ง กระจก อลูมิเนียม รับเหมา ต่อเติม ในราคามาตรฐาน พร้อมรับประกันงาน",
        "id": "552149674915338",
        "location": {
            "city": "Bangkok",
            "country": "Thailand",
            "latitude": 13.589888385,
            "longitude": 100.36684899167,
            "street": "พระรามสอง",
            "zip": "74000"
        },
        "name": "เฮง การช่าง - กระจก อลูมิเนียม",
        "phone": "0871128844"
    },
    {
        "about": "รับออกแบบ - ติดตั้ง\n- งานกระจก- งานมุ้งลวด- งานอลูมิเนียม\n- งานฝ้าเพดาน- งานผ้าม่าน\nhttp://www.chorsuchat.com/",
        "description": "รับออกแบบ - ติดตั้ง\n- งานกระจก- งานมุ้งลวด- งานอลูมิเนียม\n- งานฝ้าเพดาน- งานผ้าม่าน\nhttp://www.chorsuchat.com/",
        "emails": [
            "suchat_aluminum@hotmail.com"
        ],
        "id": "317426848385034",
        "location": {
            "city": "เชียงใหม่",
            "street": "553 ม.5 ต.สันทรายน้อย อ.สันทราย",
            "zip": "50210"
        },
        "name": "ติดตั้งกระจก อลูมิเนียม - ช.สุชาติการช่าง เชียงใหม่",
        "phone": "053-380837"
    },
    {
        "id": "824882490962241",
        "name": "อาเซียน โมเดิร์น เวิร์ก - หน้าพระลานกระจก.ช่างมะนัติ"
    },
    {
        "about": "ซ่อมกระจกไฟฟ้า - รีโมทกันขโมย รถยนต์  - กุญแจฝังชิพ immobilizer  - ก๊อปปี้รีโมทรถ - รีโมทบ้าน",
        "description": "รับติดตั้งกระจกไฟฟ้า    รถยนต์  ทุกรุ่น\nรับติดตั้งรีโมทกันขโมย รถยนต์  ทุกรุ่น\nซ่อมกลอนประตูรถยนต์ \nติดตั้ง เซ็นเซอร์ถอยหลัง \nสลิงรางยกกระจกไฟฟ้า \nมอเตอร์กระจไฟฟ้ารถยนต์ ญี่ปุ่น ยุโรบ เกาหลี \nมือเปิด นอก - ใน \nสวิทกระจกไฟฟ้ารถยนต์ \nซ่อมกระจกมองข้างพับ   ติดตั้ง กระจกมองข้างพับ ออโต้ เวลาล็อครถ \nอัพเกตรีโมทกันขโมย เพิ่มสัญญาณเสียง\nมอเตอร์เซ็นทรัลล็อค ",
        "emails": [
            "mk_powerlock_@hotmail.com"
        ],
        "id": "510301099071800",
        "location": {
            "city": "Rangsit",
            "country": "Thailand",
            "latitude": 13.989422771847,
            "longitude": 100.63834276282,
            "street": "ถนน รังสิต - นครนายก 27",
            "zip": "12130"
        },
        "name": "ร้านmk ออยส์ เซอร์วิส กระจกไฟฟ้ารถยนต์ กลอนประตู รีโมทกันขโมย  ช่าง กล้า",
        "phone": "0851216376"
    },
    {
        "about": "รับติดตั้ง กระจก\u0026อลูมินั่ม ทุกชนิด นอกสถานที่ฯ",
        "description": "รับติดตั้งงานกระจก\u0026อลูมิเนียม บานเลื่อน บานสวิง บานเปลือย บานแขวน  มุ้งลวดอลูมิเนียม  และงานฝ้าเพดาน ฝ้าผนังทุกชนิด",
        "emails": [
            "c_l-b@hotmail.com"
        ],
        "id": "1412718668971300",
        "location": {
            "city": "Lop Buri",
            "country": "Thailand",
            "latitude": 14.819915471429,
            "longitude": 100.64865075714,
            "street": "91/199 เขาสามยอด10 ซอยวิไลใจดี อำเภอเมือง จังหวัดลพบุรี 15000",
            "zip": "15000"
        },
        "name": "ช่างกุ่ย กระจก\u0026อลูมิเนียม",
        "phone": "082-0227288"
    },
    {
        "about": "ทุกอย่างที่เกี่ยวกับประตูรถยนต์ และ ระบบล๊อค",
        "description": "รับซ่อม  กลอนประตูรถยนต์ กระจกไฟฟ้า/มือหมุน กุญแจ ยางขอบประตู เซ็นทรันล๊อค \nทุกอย่างที่เกี่ยวกับประตูรถยนต์ และ ระบบล๊อค",
        "emails": [
            "ruksiam_11@hotmail.com"
        ],
        "id": "1376954222621600",
        "location": {
            "city": "Amphoe Kabin Buri",
            "country": "Thailand",
            "latitude": 13.9772359,
            "longitude": 101.7486954,
            "street": "39/3 ม.13 ต.เมืองเก่า อ.กบินทร์บุรี จ.ปราจีนบุรี",
            "zip": "25240"
        },
        "name": "ดี อรัญการช่าง - กลอนประตูรถยนต์ กระจกไฟฟ้า",
        "phone": "0831135997"
    },
    {
        "id": "463046227170867",
        "location": {
            "city": "Lampang",
            "country": "Thailand",
            "latitude": 18.45033,
            "longitude": 99.82672,
            "street": "maemoh",
            "zip": "52220"
        },
        "name": "ช่างเอ๋ กระจก-อลูมิเนียม",
        "phone": "0988128197"
    },
    {
        "id": "968096749887375",
        "location": {
            "city": "Ayutthaya",
            "country": "Thailand",
            "street": "39/1หมู่2 ต.หัวเวียง อ.เสนา",
            "zip": "13110"
        },
        "name": "ช่าง สุธี รับเหมาทาสี ติดกระจก ซ่อมแซม",
        "phone": "0988575340"
    },
    {
        "about": "รับออกแบบและติดตั้งงานกระจก อลูมิเนียม ราคากันเองครับ",
        "id": "351013578404703",
        "location": {
            "city": "Chanthaburi",
            "country": "Thailand",
            "latitude": 12.587467536162,
            "longitude": 102.15549439049,
            "street": "Sukumvit RD",
            "zip": "22000"
        },
        "name": "ช่างต้อม กระจก\u0026อลูมิเนียม",
        "phone": "0821582855"
    },
    {
        "about": "รับติดตั้งกระจก อลูมิเนียม ประตู หน้าต่างบานสวิง บานเลื่อน บานเปลือย มุ้งลวด",
        "id": "999534436746605",
        "location": {
            "city": "Chanthaburi",
            "country": "Thailand",
            "street": "37/258 ม.6 ซ.สุขสมภพ5 มบ.มั่นคงเกาะโตนด ต.เกาะขวาง อ.เมือง จ.จันทบุรี",
            "zip": "22000"
        },
        "name": "ช่างอุ๋ย กระจก และอลูมิเนียม",
        "phone": "0853927554"
    },
    {
        "about": "รับติดตั้งกระจกบ้าน บานเลื่อน บานสวิง อลูมิเนียม",
        "id": "607802839347884",
        "location": {
            "city": "Muang Loeui",
            "country": "Thailand",
            "latitude": 17.87242,
            "longitude": 101.71168,
            "street": "บ้านธาตุ",
            "zip": "42110"
        },
        "name": "ช่างต่าย งานกระจก อลูมิเนียม",
        "phone": "0610426091"
    },
    {
        "id": "1723826234512822",
        "location": {
            "city": "Rayong",
            "country": "Thailand",
            "latitude": 12.6742,
            "longitude": 101.279,
            "street": "107/16 ม.3 ต.เพ",
            "zip": "21160"
        },
        "name": "ช่างกัปตัน กระจก เหล็กดัด มุ้งลวด อลูมิเนียม สเตนเลส",
        "phone": "0859883911"
    },
    {
        "about": "รับเหมาทำฝ้าเพดาน กระจกทุกชนิด",
        "id": "1605413813076596",
        "location": {
            "city": "Ubon Ratchathani",
            "country": "Thailand",
            "latitude": 15.2281,
            "longitude": 104.859,
            "street": "บ้านแก้งใต้ อ.โพธิ์ไทร จ.อุบลราชธานี",
            "zip": "34340"
        },
        "name": "ช่างเจต รับทำฝ้าเรียบ ฝ้าทีบา งานกระจก ทุกชนิด",
        "phone": "0906105289"
    },
    {
        "id": "629942323728333",
        "location": {
            "city": "Sisakate",
            "country": "Thailand",
            "latitude": 15.09934,
            "longitude": 104.35064,
            "street": "1622/13 ถ.รอบเมืองใต้ ต.เมืองใต้",
            "zip": "33000"
        },
        "name": "ช่างสน รับติดตั้งกระจก อะลูมิเนียม",
        "phone": "0815930287 "
    },
    {
        "id": "1503566006626188",
        "name": "ช่างเชื่อม  + กระจก"
    },
    {
        "id": "705322956148958",
        "location": {
            "city": "Pathum Thani",
            "country": "Thailand",
            "latitude": 14.0201,
            "longitude": 100.52357,
            "street": "ถนนเทพกุญชร เลียบคลองแอน 1",
            "zip": "12120"
        },
        "name": "ธนยศการช่าง กระจก-อลูมิเนียม",
        "phone": "0907211522"
    },
    {
        "about": "รับติดฟิล์มรถยนต์ทุกชนิดอละฟิล์มกรองแสงราคากันเอง",
        "id": "1688097834767974",
        "location": {
            "city": "Chon Buri",
            "country": "Thailand",
            "latitude": 13.3667,
            "longitude": 100.983,
            "street": "9/6 หมู่4",
            "zip": "20000"
        },
        "name": "ช่างราม รับติดตั้งฟิล์มกระจกรถยนต์และฟิล์มกรองแสงทุกชนิด",
        "phone": "0861587293"
    },
    {
        "id": "288143514710054",
        "name": "ช่างดี.  กระจกรถยนต์"
    },
    {
        "id": "675054582596442",
        "location": {
            "city": "Songkhla",
            "country": "Thailand",
            "street": "13 ถ.โชคสมาน5",
            "zip": "90110"
        },
        "name": "ช่าง น้อง สายงาน กระจก-อลูมิเนียม",
        "phone": "0936980396"
    },
    {
        "about": "จำหน่ายอะไหล่ และซ่อมรถยนต์ทุกชนิด",
        "description": "ติดต่อสั่งอะไหล่ด่วน อะไหล่แท้ ราคากันเอง",
        "emails": [
            "pruamchang2001@gmail.com"
        ],
        "id": "390098184342241",
        "location": {
            "city": "Muang Pha Nga",
            "country": "Thailand",
            "latitude": 8.4231799412026,
            "longitude": 98.503302174377,
            "street": "15 หมู่ 4 ถนนเพชรเกษม ต.ถ้ำน้ำผุด",
            "zip": "82000"
        },
        "name": "อู่ ป.รวมช่าง และกระจกยานยนต์พังงา",
        "phone": "0-7644-0347"
    },
    {
        "id": "712494925521672",
        "location": {
            "city": "Amphoe Mae Chaem",
            "country": "Thailand",
            "latitude": 18.5014,
            "longitude": 98.3611,
            "street": "33/2 หมู่ 10 ต.ช่างเคิ่ง",
            "zip": "50270"
        },
        "name": "ช่างตุ๋ย รับเหมา ต่อเติมบ้าน งานฝ้าเพดาน กันสาด  กระจก อลูมิเนียม ฯลฯ",
        "phone": "0904346576"
    },
    {
        "about": "ช่างเฉพาะทาง ไม่ทิ้งงาน.....สนใจติดต่อได้เลยครับ",
        "description": "E-mail  :   oldland21@gmail.com\nLine     :   0875033508\nFAX     :   027309422",
        "emails": [
            "oldland21@gmail.com"
        ],
        "id": "1390572257827529",
        "location": {
            "city": "Muang Samut Prakan",
            "country": "Thailand",
            "latitude": 13.6,
            "longitude": 100.6,
            "street": "แพรกษา",
            "zip": "10280"
        },
        "name": "รับติดตั้งอลูมิเนียม กระจก ฝ้าเพดาน0875033508 ช่างเบีย",
        "phone": "087-5033508"
    }
]