[
    {
        "about": "รับทำกระจก แสตนเลส มุ่งลวด เหล็กดัด ด้วยช่างฝีมือคุนภาพ ",
        "id": "1554746198140127",
        "location": {
            "city": "Amphoe Khlong Luang",
            "country": "Thailand",
            "latitude": 14.06583,
            "longitude": 100.64215,
            "street": "14/4 ต.คลองสอง อ .คลองหลวง จ.ปทุมธานี",
            "zip": "12120"
        },
        "name": "รับทำกระจก แสตนเลส มุ่งลวด งานเหล็ก ด้วยช่างฝีมือคุณภาพ",
        "phone": "0875357137"
    },
    {
        "id": "1520897784843807",
        "location": {
            "city": "Rat Burana",
            "country": "Thailand",
            "street": "กรุงเทพมหานคร"
        },
        "name": "ช่างกระจก  อลูมิเนียม",
        "phone": "0815125501"
    },
    {
        "about": "รับติดตั้งกระจก อลูมิเนียม ใาฉาบเรียบ ฝ้าทีบา\n(ราคาเป็นกันเอง)\nช่างรัน 0924438302 :: 0838505594",
        "id": "1448184808796711",
        "location": {
            "city": "Ayuthaya",
            "country": "Thailand",
            "latitude": 14.34342,
            "longitude": 100.56622,
            "street": "Ayutthaya",
            "zip": "13000"
        },
        "name": "รับติดตั้งกระจก อลูมิเนียมทุกชนิด - ราคาเป็นกันเอง ช่างรัน 0838505594",
        "phone": "0838505594"
    },
    {
        "id": "175054439495527",
        "location": {
            "city": "Amphoe Klaeng",
            "country": "Thailand",
            "latitude": 12.7784389,
            "longitude": 101.7334566
        },
        "name": "ที่ร้านกระจกช่างหนุ่ม อลูมิเนียม"
    },
    {
        "about": "กระจกอลูมิเนียม บานเลื่อน บานสวิง บ้านกระทุ้ง ฝ้า",
        "description": "รับติดตั้ง : กระจกอลูมิเนียม บานเลื่อน บานสวิง บานกระทุ้ง บานเปลือย บานชาวเวอร์ มุ้งลวด\n ฝ้าฉาบเรียบ ทีบาร์ ผนังเบา กั้นห้อง",
        "id": "1575970552682705",
        "location": {
            "city": "Bangkok",
            "country": "Thailand",
            "latitude": 13.7522,
            "longitude": 100.494,
            "street": "บางชัน",
            "zip": "10510"
        },
        "name": "รับติดตั้ง ฝ้า กระจก   อลูมิเนียม บานเลื่อน  ช่างมงคล",
        "phone": "0854635812"
    },
    {
        "about": "รับทำกระจก ฝ้า มุ้งลวด บานเลื่อน ประตู ราคากันเองปรึกษาตีราคาได้ที่ 082-2314675 ช่างพล",
        "id": "1392624920991807",
        "name": "กระจก ฝ้า อลูมิเนียม งานช่างทั่วไป",
        "phone": "0822314675"
    },
    {
        "about": "รับทำ กระจกบานเลื่อน บานสวิง มุ้งลวด 0869325955~\r\n",
        "id": "738037416234844",
        "location": {
            "city": "พิษณุโลก",
            "street": "วัดจุฬามณี",
            "zip": "65000"
        },
        "name": "โรงงานกระจก-อลูมิเนียม ช่างต้อม",
        "phone": " 0869325955"
    },
    {
        "id": "1635745016699137",
        "location": {
            "city": "Chiang Rai",
            "country": "Thailand",
            "latitude": 20.0384102,
            "longitude": 99.8312607,
            "street": "22/6 ม.13 ถ.พหลโยธิน ต.รอบเวียง อ.เมือง",
            "zip": "57000"
        },
        "name": "กระจกรถยนต์ พรประเสริฐ์การช่าง",
        "phone": "0894359129"
    },
    {
        "about": "รับออกแบบ ติดตั้งกระจก\u0026อลูมิเนียม บานเลื่อน บานสไลด์ ",
        "emails": [
            "mickey_b348@hotmail.com"
        ],
        "id": "315280111886775",
        "name": "กระจก\u0026อลูมิเนียม สุราษฎร์ธานี By ช่างหนอม",
        "phone": "0810853488"
    },
    {
        "id": "558805290818276",
        "name": "ช่างเต้ย รับทำ-ซ่อมแซม อลูมิเนียม มุงลวด กระจก และอื่นๆอีกมากมาย"
    },
    {
        "id": "1444450835835492",
        "name": "เคี้ยง การช่าง รับทำ สแตนเลส เหล็กดัด กระจก อลูมิเนียม โทร.081-4526758"
    },
    {
        "about": "รับติดตั้งกระจก - อลูมิเนียม",
        "id": "1444736682416298",
        "location": {
            "zip": "พิษณุโลก"
        },
        "name": "ร้านช่างพจน์ กระจก- อลูมิเนียม"
    },
    {
        "id": "882205795141623",
        "location": {
            "city": "Ayutthaya",
            "country": "Thailand",
            "latitude": 14.53658,
            "longitude": 100.69075,
            "street": "72 ม.6",
            "zip": "13130"
        },
        "name": "รับงานช่างปิดทองประดับกระจก",
        "phone": "0890835765"
    },
    {
        "id": "426224480860504",
        "location": {
            "city": "Nakhon Si Thammarat",
            "country": "Thailand",
            "latitude": 8.00309,
            "longitude": 99.48697,
            "street": "46 ม.5 ต.บ้านนิคม อ.บางขัน จ.นครศรีธรรทราช",
            "zip": "80360"
        },
        "name": "ร้านยุทธกระจกการช่าง",
        "phone": "0848389101"
    },
    {
        "id": "1429837473944509",
        "location": {
            "city": "กระบี่",
            "street": "251 ม.1 ต.ศาลาด่าน อ.เกาะลันตา",
            "zip": "81150"
        },
        "name": "ส.ช่างชาย กระจก/อลูมิเนียม",
        "phone": "0856927642"
    },
    {
        "id": "391638631009894",
        "location": {
            "city": "Phayao",
            "country": "Thailand",
            "latitude": 19.16541,
            "longitude": 99.86263,
            "street": "15/11 ถ.ประตูกลอง 1 ต.เวียง อ.เมือง จ.พะเยา",
            "zip": "56000"
        },
        "name": "วัชระ การช่าง เหล็ก อลูมิเนียม กระจก  สแตนเลส",
        "phone": "0848858780"
    },
    {
        "id": "703141593149373",
        "location": {
            "city": "Chon Buri",
            "country": "Thailand",
            "latitude": 13.3667,
            "longitude": 100.983
        },
        "name": "ร้านช่างเล็ก \u0026ไดนาโม\u0026กระจกไฟฟ้าทุกยี่ห้อ"
    },
    {
        "id": "1388993761399929",
        "name": "ผู้รับเหมาอิสระ(ช่างกุ้ง.กระจก.อลูมิเนืยม)"
    },
    {
        "id": "1621079541479590",
        "name": "พนักงานช่างอลูมิเนียม กระจก"
    },
    {
        "about": "เราคัดแล้วคัดอีก . ช่างฝีมือดี มีคุณภาพ",
        "id": "947221091996275",
        "location": {
            "city": "Chiang Rai",
            "country": "Thailand",
            "latitude": 20.0384102,
            "longitude": 99.8312607,
            "street": "235/11 ตำบล ดอยลาน อำเภอเมือง จังหวัดเชียงราย",
            "zip": "57000"
        },
        "name": "สมนึกการช่าง รับติดตั้งฝ้าเพดาน กระจก อลูมิเนียม",
        "phone": "0813413997"
    },
    {
        "about": "ราคาเป็นกันเองค่าบ",
        "id": "862213353838478",
        "location": {
            "city": "Kap Choeng",
            "country": "Thailand",
            "latitude": 14.4667,
            "longitude": 103.6,
            "street": "78 ม.9",
            "zip": "32210"
        },
        "name": "กันตวงการช่าง รับติดตั้งกระจก อลูมิเนียม",
        "phone": "0930795586"
    },
    {
        "id": "446646435523704",
        "location": {
            "city": "Amphoe Muang Chon Buri",
            "country": "Thailand",
            "latitude": 13.345281720031,
            "longitude": 100.97750460007,
            "street": "113 ม. 3 ต. บ้านสวน อ. เมือง จ.  ชลบุรี",
            "zip": "20000"
        },
        "name": "ร้านช่างเล็ก ไดนาโมรับซ่อมกระจกไฟฟ้าทุกยี่ห้อ"
    },
    {
        "id": "885619321521861",
        "name": "ร้านช่างเล็ก ไดนาโมรับซ่อมกระจกไฟฟ้าทุกยี่ห้อ  0985155534"
    },
    {
        "about": "ในเขตชลบุรี นอกเขตชลบุรี และ เขตใกล้เคียงกรุงเทพตกลงราคากันได้คับผม.",
        "id": "692876344152131",
        "name": "ทีมงานช่างวิเชียว ติดตั้งกระจกทุกรูปแบบ ออกแบบ ตามแบบ",
        "phone": "0811511158"
    },
    {
        "about": "รับเหมาติดตั้งกระจก. อลูมิเนียม บางเลื่อน บางสวิง",
        "id": "1543610382556274",
        "location": {
            "city": "Bangkok",
            "country": "Thailand",
            "latitude": 13.81319,
            "longitude": 100.41714,
            "street": "181/13 หมู่ 4 ต.ปลายบาง. อ.บางกรวย จ.นนทบุรี",
            "zip": "11130"
        },
        "name": "รับเหมาติดตั้งกระจก อลูมิเนียม ช่างสุริยา 0804404827",
        "phone": "0804404827"
    }
]