[
    {
        "id": "144072369087946",
        "location": {
            "city": "Chonburi",
            "country": "Thailand",
            "latitude": 13.3253808,
            "longitude": 100.9644748,
            "zip": "20000"
        },
        "name": "ช.การช่าง กระจกรถยนต์"
    },
    {
        "id": "146849758987994",
        "location": {
            "city": "Amphoe Klaeng",
            "country": "Thailand",
            "latitude": 12.82321832,
            "longitude": 101.63048986
        },
        "name": "อู่ช่างคิว คิวซังกระจกซิ่ง. อู่ที่มี 3 หนุ่มสุดหล่ออยู่ประจำการ"
    },
    {
        "id": "576278625826656",
        "location": {
            "latitude": 16.6497275,
            "longitude": 98.6138303,
            "street": "แม่กุเหนือม.12"
        },
        "name": "สวนลำใยกระจกช่างดล"
    },
    {
        "id": "157041597832844",
        "location": {
            "city": "Cha-am",
            "country": "Thailand",
            "latitude": 12.79964,
            "longitude": 99.96694,
            "street": "ชะอำ"
        },
        "name": "บ้าน ช่างน้อยกระจก ชะอำ"
    },
    {
        "id": "160948584010584",
        "location": {
            "city": "Chonburi",
            "country": "Thailand",
            "latitude": 13.305761217092,
            "longitude": 101.1093381948
        },
        "name": "กระจกรถยนต์ ใหญ่การช่าง(บ้านบึง ชลบุรี)"
    },
    {
        "id": "166960110152223",
        "location": {
            "city": "Chumporn",
            "country": "Thailand",
            "latitude": 10.514632123532,
            "longitude": 99.119198173377,
            "street": "ชุมพร-ระนอง"
        },
        "name": "ร้านวงษ์ทองกระจก อลูมิเนียม - ช่างเสก"
    },
    {
        "id": "183550488521405",
        "location": {
            "city": "Thanon Yai",
            "country": "Thailand",
            "latitude": 14.820539946682,
            "longitude": 100.65015438022,
            "street": "91/199 เขาสามยอด10 ซอยวิไลใจดี เมือง ลพบุรี",
            "zip": "15000"
        },
        "name": "ร้าน\"ช่างกุ่ย\"กระจก อลูมินั่ม",
        "phone": "0820227288"
    },
    {
        "id": "185784561632603",
        "location": {
            "city": "Amphoe Klaeng",
            "country": "Thailand",
            "latitude": 12.78558406,
            "longitude": 101.73259124
        },
        "name": "ร้านกระจก อลูมิเนียม  ช่างบุญธรรม"
    },
    {
        "id": "189719381177976",
        "location": {
            "city": "Hat Yai",
            "country": "Thailand",
            "latitude": 7.013384,
            "longitude": 100.459931
        },
        "name": "บ้านช่างน้องกระจกยนต์"
    },
    {
        "id": "190903717690726",
        "location": {
            "city": "Nakhon Sawan",
            "country": "Thailand",
            "latitude": 15.705567583333,
            "longitude": 100.12814998333,
            "zip": "60000"
        },
        "name": "อภิชัย กระจก อลูมิเนียม(ช่าง"
    },
    {
        "id": "195481787263643",
        "location": {
            "city": "Muang Khon Kaen",
            "country": "Thailand",
            "latitude": 16.44221,
            "longitude": 102.8362,
            "street": "บ้านหนองไผ่"
        },
        "name": "ช่างใหญ่กระจกรถยนต์"
    },
    {
        "id": "200980206601042",
        "location": {
            "city": "Bangkok",
            "country": "Thailand",
            "latitude": 13.808343493024,
            "longitude": 100.49316282417
        },
        "name": "ส.การช่าง กระจก อลูมิเนียม ฝ้า ทีบาร์ ฉาบเรียบ"
    },
    {
        "id": "465718176829042",
        "location": {
            "city": "Ban Koh Lanta",
            "country": "Thailand",
            "latitude": 7.6430690827989,
            "longitude": 99.034971058752,
            "zip": "81150"
        },
        "name": "ส.ช่างชาย กระจก อลูมิเนียม"
    },
    {
        "id": "468416453277162",
        "location": {
            "city": "Suphan Buri",
            "country": "Thailand",
            "latitude": 14.489571,
            "longitude": 100.13609
        },
        "name": "สุวรรณาคาเฟ่ - ร้านกระจกวิจิตรการช่าง"
    },
    {
        "id": "470622343078269",
        "location": {
            "latitude": 14.15417595,
            "longitude": 100.51881505
        },
        "name": "ช่างภาพกระจกสี ศูนย์ศิลปาชีพบางไทร"
    },
    {
        "id": "499470303494760",
        "location": {
            "city": "Hat Yai",
            "country": "Thailand",
            "latitude": 6.9901334960079,
            "longitude": 100.4681869504
        },
        "name": "ร้านช่างกระจก"
    },
    {
        "id": "504078429666063",
        "location": {
            "city": "Nong Phai",
            "country": "Thailand",
            "latitude": 15.993226412684,
            "longitude": 101.0663167946,
            "zip": "67140"
        },
        "name": "ช่างสมศักดิ์ กระจก-อลูมิเนียม"
    },
    {
        "id": "477669762317816",
        "location": {
            "latitude": 13.753360814,
            "longitude": 99.775287056
        },
        "name": "ร้านสวาทการช่าง รับติดตั้ง กระจก อลูมิเนียม ฝ้า"
    },
    {
        "description": "บ้านวังบาล ตรงข้ามวัดจอมศรีดอยสะเก็ด อ.หล่มเก่า จ.เพชรบูรณ์",
        "id": "373663092782379",
        "location": {
            "city": "Wang Ban",
            "country": "Thailand",
            "latitude": 16.913488442078,
            "longitude": 101.18465300649
        },
        "name": "บ้านช่างอ๋อง ( รับติดกระจก มุ้งลวด)"
    },
    {
        "id": "399333896832276",
        "location": {
            "city": "Hat Yai",
            "country": "Thailand",
            "latitude": 7.0133685,
            "longitude": 100.459885,
            "zip": "90110"
        },
        "name": "บ้านช่างน้องกระจกยนต์"
    },
    {
        "id": "374410652668991",
        "location": {
            "city": "Bangkok",
            "country": "Thailand",
            "latitude": 13.766025,
            "longitude": 100.538845,
            "street": "PHAHON YOTHIN 72"
        },
        "name": "ช่างศิลป์ - รางน้ำรับซ่อมประตู กระจกรถยนต์"
    },
    {
        "id": "379266198912473",
        "location": {
            "city": "Ban Taphan Hin",
            "country": "Thailand",
            "latitude": 16.13696803,
            "longitude": 100.40321098
        },
        "name": "บ้านกระจก\u0026อลูมิเนียม - ช่างปาน"
    },
    {
        "id": "382966758532439",
        "location": {
            "city": "Ron Thong",
            "latitude": 11.2456666,
            "longitude": 99.4716633
        },
        "name": "ร้านฝ้า กระจก อลูมิเนียม โดยช่างกบ ตรงข้ามซุ้มวัดทุ่งมะพร้าว"
    },
    {
        "id": "386283224848077",
        "location": {
            "city": "พิดโลกๆ",
            "latitude": 16.68704007,
            "longitude": 100.11912053,
            "street": "หล่ายโพธ์"
        },
        "name": "บ้านมดช่างกระจก"
    },
    {
        "id": "393757054167800",
        "location": {
            "city": "Amphoe Khlong Yai",
            "country": "Thailand",
            "latitude": 11.7780923,
            "longitude": 102.8821474,
            "street": "ร้านกระจกช่างน้อย"
        },
        "name": "ร้านกระจกช่างน้อย"
    }
]