[
    {
        "id": "162403774099190",
        "location": {
            "city": "Bangkok",
            "country": "Thailand"
        },
        "name": "ร้าน กระจก อลูมิเนียม ช่างโอ๊ต"
    },
    {
        "id": "753517314715843",
        "name": "รับแกะสลัก ลายกระจกทุกชนิด ลายกรอบกระจกห้องน้ำ โทร 098 7649282 ช่างวุธ"
    },
    {
        "id": "328013380656401",
        "name": "รับติดตั้งกระจกอูลมิเนียม.ฝ้า.ผนังเบา.สี.ติดต่อใด้ที่.,,0813042645.ช่างเพชร"
    },
    {
        "id": "594961880594089",
        "location": {
            "city": "Bang Bua Thong",
            "country": "Thailand",
            "latitude": 13.93149,
            "longitude": 100.39004,
            "street": "บางบัวทอง",
            "zip": "11110"
        },
        "name": "ช่างอลูมิเนียม-กระจก สรายุทธ",
        "phone": "0866217486"
    },
    {
        "id": "600368706640828",
        "location": {
            "city": "Hat Yai",
            "country": "Thailand",
            "latitude": 7.013356,
            "longitude": 100.460033
        },
        "name": "บ้านช่างน้องกระจกยนต์"
    },
    {
        "id": "618958491533541",
        "location": {
            "city": "Nakhon Luang",
            "country": "Thailand",
            "latitude": 14.467637994138,
            "longitude": 100.60303296851
        },
        "name": "ร้านช่างสนั่น รับติดตั้งกระจก อลูมิเนียม"
    },
    {
        "id": "625316750895839",
        "location": {
            "city": "Hat Yai",
            "country": "Thailand",
            "latitude": 6.97314,
            "longitude": 100.47108
        },
        "name": "ป.กระจก-อลูมิเนียมการช่าง"
    },
    {
        "id": "631280967017820",
        "location": {
            "city": "Hat Yai",
            "country": "Thailand",
            "latitude": 7.0152,
            "longitude": 100.39974,
            "street": "44 ซ.7 ถ.คลองเรียน 2",
            "zip": "90110"
        },
        "name": "ช่างดุลย์ กระจก-อลูมิเนียม",
        "phone": "0899767908"
    },
    {
        "id": "653562158019197",
        "location": {
            "city": "สระบุรี",
            "latitude": 14.4677908,
            "longitude": 100.8967869,
            "street": "หนองยาวใต้"
        },
        "name": "บ้านช่างสมาน ติดตั้งกระจก อลูมินั่ม"
    },
    {
        "id": "660076490716738",
        "location": {
            "city": "Bangkok",
            "country": "Thailand",
            "latitude": 13.65923225,
            "longitude": 100.42626502
        },
        "name": "ร้านกระจก อลูมิเนี่ยมช่างตี๋๋"
    },
    {
        "id": "671676766214256",
        "location": {
            "city": "Chiang Mai",
            "country": "Thailand",
            "latitude": 18.627586607872,
            "longitude": 98.899377588511,
            "zip": "50120"
        },
        "name": "บุญรับกระจก หมู่1 บ้านช่างกระดาษ",
        "phone": "053355427"
    },
    {
        "id": "587835844582357",
        "location": {
            "city": "Cha-am",
            "country": "Thailand",
            "latitude": 12.79964,
            "longitude": 99.96694,
            "street": "Cha-Am"
        },
        "name": "บ้าน ช่างน้อย กระจก ชะอำ"
    },
    {
        "id": "686511841372240",
        "location": {
            "city": "Pak Nam Pho",
            "country": "Thailand",
            "latitude": 15.7224373,
            "longitude": 100.1325313
        },
        "name": "ช่างน้อยกระจกนครสวรรค์"
    },
    {
        "about": "รับติดตั้งกระจกรถ",
        "id": "688074931315221",
        "location": {
            "city": "Wang Noi",
            "country": "Thailand",
            "latitude": 14.23928,
            "longitude": 100.71865,
            "street": "ประตูน้ำพระอินทร์",
            "zip": "13170"
        },
        "name": "กาญจนบุรีกระจก ช่างป๊อด",
        "phone": "081-036 1169,085-329 3319,081-866 7937"
    },
    {
        "id": "694852967205764",
        "location": {
            "city": "Ta Phraya",
            "country": "Thailand",
            "latitude": 14.004679679871,
            "longitude": 102.81170654297
        },
        "name": "ที่ร้านกระจกช่างชาติ"
    },
    {
        "id": "696502440461205",
        "location": {
            "city": "Amphoe Thap Sakae",
            "country": "Thailand",
            "latitude": 11.4833,
            "longitude": 99.55,
            "street": "53 ม2",
            "zip": "77130"
        },
        "name": "รับติดตั้งอลูมิเนียม กระจก ฝ้าเพดาน มุ้งลวด 099-316-9859 ช่างเบีย",
        "phone": "099-316-9859"
    },
    {
        "id": "701763936571292",
        "location": {
            "city": "Chamai",
            "country": "Thailand",
            "latitude": 8.1618,
            "longitude": 99.6732,
            "street": "ม.4 ต.ควนกรด อ.ทุ่งสง จ.นครศรีฯ"
        },
        "name": "ร้านช่างอ๊อด กระจก-อลูมิเนียม ม4ตควนกรดอทุ่งสง",
        "phone": "0878867115"
    },
    {
        "id": "554400934663548",
        "location": {
            "city": "Dan Chang",
            "country": "Thailand",
            "latitude": 14.82616,
            "longitude": 99.69191,
            "street": "อ.ด่านช้าง จ.สุพรรณ"
        },
        "name": "ร้านกระจกไทยรัฐอลูมิเนียม",
        "phone": "0826726089"
    },
    {
        "id": "514134812000554",
        "location": {
            "city": "Muang Lopburi",
            "country": "Thailand",
            "latitude": 14.8021,
            "longitude": 100.61434,
            "street": "ตรงข้ามเมืองไทยลิสซิ่ง มทบ.13"
        },
        "name": "กระจกเลิศการช่าง"
    },
    {
        "id": "530363987034475",
        "location": {
            "city": "Maha Sarakham",
            "country": "Thailand",
            "latitude": 16.25571873,
            "longitude": 103.23150534
        },
        "name": "ร้านช่างพัดกระจก อลูมิเนียม"
    },
    {
        "about": "จำหน่ายและติดตั้งกระจกรถยนต์ทุกชนิด ",
        "id": "531469866978942",
        "location": {
            "city": "Amphoe Muang Songkhla",
            "country": "Thailand",
            "latitude": 7.12177,
            "longitude": 100.62622,
            "street": "3/41 ม.1 ต.เขารูปช้าง  อ.เมืองสงขลา",
            "zip": "90000"
        },
        "name": "สมหวังกระจกรถยนต์",
        "phone": "0846310741"
    },
    {
        "id": "534079576702119",
        "location": {
            "city": "Chaiya",
            "country": "Thailand",
            "latitude": 9.359389,
            "longitude": 99.173027
        },
        "name": "ที่ร้านกระจกช่างแก้ว",
        "phone": "0816765698"
    },
    {
        "id": "534779526624023",
        "location": {
            "city": "Bangkok",
            "country": "Thailand",
            "latitude": 13.92987916,
            "longitude": 100.37697447
        },
        "name": "บ้านช่างกระจกรถยนต์ ไอยรา"
    },
    {
        "id": "537157343097256",
        "location": {
            "city": "NONG TAMLUENG",
            "latitude": 13.395450396942,
            "longitude": 101.10065300958,
            "street": "หนองหงษ์"
        },
        "name": "บ้านช่างหนุ่ย..กระจกซิ่ง"
    },
    {
        "id": "551023334952509",
        "location": {
            "latitude": 14.688498470946,
            "longitude": 104.3590798975,
            "street": "สาย 24 แยกหัวช้าง"
        },
        "name": "แจ็คกระจก - JK Aluminum Co.,Ltd",
        "phone": "0844893732"
    }
]