[
    {
        "id": "921490351247656",
        "location": {
            "city": "Pak Nam Pho",
            "country": "Thailand",
            "latitude": 15.7208964,
            "longitude": 100.1289334
        },
        "name": "โรงงานช่างศักดิ์รับทำงานเหล็ก งานกระจก งานอลูมิเนียม งานเฟอร์"
    },
    {
        "id": "1041890545843935",
        "location": {
            "city": "Amphoe Muang Ang Thong",
            "country": "Thailand",
            "latitude": 14.6050874,
            "longitude": 100.4127233
        },
        "name": "ร้านกระจกช่างอ้นมงคล"
    },
    {
        "id": "1068340646513448",
        "location": {
            "city": "Ban Klang",
            "country": "Thailand",
            "latitude": 12.903750945847,
            "longitude": 101.53837888954
        },
        "name": "ร้านกระจกช่างคิวซัง"
    },
    {
        "id": "1074652382548759",
        "location": {
            "city": "Amphoe Klaeng",
            "country": "Thailand",
            "latitude": 12.835020909469,
            "longitude": 101.66414924911
        },
        "name": "ช่างมืด อู่ทองกระจก"
    },
    {
        "id": "1162093733804586",
        "location": {
            "city": "Ban Plak Raet",
            "country": "Thailand",
            "latitude": 16.687198155,
            "longitude": 100.1196655475
        },
        "name": "ร้านมดช่างกระจก ณ บ้านหล่ายโพธิ์"
    },
    {
        "id": "1374558536113643",
        "location": {
            "city": "Chantaburi",
            "country": "Thailand",
            "latitude": 12.571008540461,
            "longitude": 102.10602383925
        },
        "name": "หน้าร้าน \" ช่างเค รับติดตั้งกระจก อลูมิเนียม ทุกชนิด \""
    },
    {
        "id": "1390563497853345",
        "location": {
            "city": "Khuan Khanun",
            "country": "Thailand",
            "latitude": 7.76642,
            "longitude": 100.00007,
            "street": "ที่361ม.9ต.ควนขนุน อ.ควนขนุน จ.พัทลุง93110",
            "zip": "93110"
        },
        "name": "บ้านช่างเสริฐกระจก อลูมิเนียมควนขนุน พัทลุง",
        "phone": "0867472069"
    },
    {
        "id": "1403777423238290",
        "location": {
            "city": "Chiang Khan",
            "country": "Thailand",
            "latitude": 17.895973515714,
            "longitude": 101.65960143795,
            "zip": "42110"
        },
        "name": "เชียงคาน ก. กระจก เจ้เปรี้ยวช่างพร สนใจติดต่อ"
    },
    {
        "id": "109526846060999",
        "location": {
            "city": "Amphoe Klaeng",
            "country": "Thailand",
            "latitude": 12.778277154286,
            "longitude": 101.73350935286
        },
        "name": "ร้านกระจกช่างหนุ่ม",
        "phone": "0861978371"
    },
    {
        "id": "1418656405105801",
        "location": {
            "city": "เทศบาลอุดรธานี",
            "latitude": 17.465043124402,
            "longitude": 102.70007293671,
            "street": "บ.หนองหลอด ต.เชียงยืน อ.เมือง จ.อุดรธานี"
        },
        "name": "บ้านช่างอิทธิพล ช่างกระจกฝ้าผนังเบาอลูมิเนียมทุกชนิด",
        "phone": "0872178106"
    },
    {
        "id": "1420336121517244",
        "location": {
            "city": "Ta Phraya",
            "country": "Thailand",
            "latitude": 14.0071953,
            "longitude": 102.8103109
        },
        "name": "ร้านกระจก ช่างชาติ"
    },
    {
        "id": "1421919341433522",
        "location": {
            "city": "Phe",
            "latitude": 12.648594131303,
            "longitude": 101.44301109016,
            "street": "ปากทางเข้าวัดมาบจันทร์ 21/1ม.6ต.เพ อ.เมือง จ.ระยอง"
        },
        "name": "ศ.การช่าง รับทำงานสแตนเลส งานเหล็กทุกชนิด ฝ้า กระจก อลูมิเนียม ฯลฯ",
        "phone": "0618806762"
    },
    {
        "id": "1424225274514831",
        "location": {
            "city": "Hat Yai",
            "country": "Thailand",
            "latitude": 7.0116086544902,
            "longitude": 100.45528632778
        },
        "name": "ร้านอลูมิเนียมกระจก ช่างนก"
    },
    {
        "id": "1437144446508591",
        "location": {
            "city": "Khuan Khanun",
            "country": "Thailand",
            "latitude": 7.46352,
            "longitude": 100.07695,
            "street": "บ้าน361ม.9ต.ควนขนุน อ.ควนขนุน จ.พัทลุง93110"
        },
        "name": "ร้านกระจก อลูมิเนียมช่างเสริฐควนขนุน พัทลุงของถูกคุณภาพดี",
        "phone": "0867472069"
    },
    {
        "id": "1445441179033418",
        "location": {
            "city": "Surat Thani",
            "country": "Thailand",
            "latitude": 9.38636,
            "longitude": 99.188499
        },
        "name": "ร้านกระจกช่างแก้ว",
        "phone": "0816765698"
    },
    {
        "id": "1453247674970695",
        "location": {
            "city": "Lamae",
            "country": "Thailand",
            "latitude": 9.7601771,
            "longitude": 99.0617563
        },
        "name": "ร้านช่างแดงกระจก"
    },
    {
        "about": "ทาสีอาคารสูง กันหลังคาดาดฟ้ารั่วซึม สระว่ายน้ำ ทาสีพื้นโรงงาน ติดตั้งระบบพื้น",
        "id": "1472544219719719",
        "location": {
            "city": "Pathum Thani",
            "country": "Thailand",
            "latitude": 14.0167,
            "longitude": 100.533,
            "street": "อุดรการช่าง",
            "zip": "12000"
        },
        "name": "กันซึม โรยตัว กระจกนอก อาคารสูง ขายน้ำยากันซึม",
        "phone": "0876749021"
    },
    {
        "id": "1472760679649978",
        "location": {
            "city": "Nakhon Sawan",
            "country": "Thailand",
            "latitude": 15.69823,
            "longitude": 100.17683,
            "street": "เลขที่ 76/3-4 หมู่ที่ 6 ต.ตะเคียนเลื่อน อ.เมือง",
            "zip": "60000"
        },
        "name": "ช่างแจ๊ก กระจก อาลูมิเนียม",
        "phone": "0871982557"
    },
    {
        "id": "1496602853972013",
        "location": {
            "city": "Surat Thani",
            "country": "Thailand",
            "latitude": 9.1090298,
            "longitude": 99.3721771,
            "street": "สุราษฎร์ธานี",
            "zip": "84100"
        },
        "name": "กระจก อะลูมิเนียม - ช่างตี๋",
        "phone": "0986722169"
    },
    {
        "id": "301666359973218",
        "location": {
            "city": "Ban Mi",
            "country": "Thailand",
            "latitude": 15.04452,
            "longitude": 100.537,
            "street": "รับเหมาติดตั้งกระจก อลูมิเนียม"
        },
        "name": "บ้านช่างกระจก คนจน",
        "phone": "0922541370"
    },
    {
        "id": "237447973048472",
        "location": {
            "latitude": 13.068995686477,
            "longitude": 99.890654717676
        },
        "name": "บ้านช่างนึก กระจก อลูมิเนียม"
    },
    {
        "id": "242946995877681",
        "location": {
            "city": "Amphoe Klaeng",
            "country": "Thailand",
            "latitude": 12.77809,
            "longitude": 101.64803,
            "street": "133/3ม9 ต.บ้านนาอ.แกลงจ.ระยอง"
        },
        "name": "กระจกบ้านนา - โค้งจ่าวาช่างแดง"
    },
    {
        "id": "251568844986756",
        "location": {
            "city": "Hat Yai",
            "country": "Thailand",
            "latitude": 7.013371,
            "longitude": 100.459849,
            "zip": "90110"
        },
        "name": "บ้านช่างน้องกระจกยนต์"
    },
    {
        "id": "255403137992543",
        "location": {
            "city": "นาทวี",
            "latitude": 6.7984074,
            "longitude": 100.6762846
        },
        "name": "ร้านช่างพงษ์กระจก-อลูมิเนียม"
    },
    {
        "id": "255712087959461",
        "location": {
            "latitude": 16.6497485,
            "longitude": 98.6138303,
            "street": "277/8"
        },
        "name": "ร้านกระจกช่างดลแม่กุเหนือ ม.8"
    }
]