[
    {
        "id": "261490180704735",
        "location": {
            "latitude": 9.994286,
            "longitude": 98.652349
        },
        "name": "ร้านช่างหนึ่ง  กระจก อลูมีเนียม ฝ้าเพดาน"
    },
    {
        "id": "271577776360734",
        "location": {
            "city": "Bangkok",
            "country": "Thailand",
            "latitude": 13.795808324407,
            "longitude": 100.37877157331
        },
        "name": "ช่างหวังลงรักษ์ปิดทองและงานกระจกสี",
        "phone": "0868178881"
    },
    {
        "id": "284521615084837",
        "location": {
            "city": "Khun Han",
            "country": "Thailand",
            "latitude": 14.688431838557,
            "longitude": 104.35885565301,
            "street": "สาย24 สี่แยกหัวช้าง",
            "zip": "33180"
        },
        "name": "ร้านแจ็คกระจก : ขายส่ง-ขายปลีกกระจก อลูมิเนียม และอุปกรณ์ต่างๆ",
        "phone": "0844893732"
    },
    {
        "id": "292296190893909",
        "location": {
            "latitude": 14.060669055728,
            "longitude": 99.451707190402
        },
        "name": "บ้านช่างเชาว์  อลูมิเนียม  กระจก"
    },
    {
        "id": "293372754095948",
        "location": {
            "city": "Bangkok",
            "country": "Thailand",
            "latitude": 13.653236227123,
            "longitude": 100.2612903785,
            "zip": "74110"
        },
        "name": "ร้านกระจก P.S.R การช่าง"
    },
    {
        "id": "295631823922589",
        "location": {
            "city": "Muang Lopburi",
            "country": "Thailand",
            "latitude": 14.790360502413,
            "longitude": 100.67406668925,
            "zip": "15000"
        },
        "name": "ส.มงคล - หัวช้างกระจก อลูมิเนียม",
        "phone": "036446203"
    },
    {
        "id": "218244698299454",
        "location": {
            "city": "Suphan Buri",
            "country": "Thailand",
            "latitude": 14.46731,
            "longitude": 100.1176529,
            "street": "สุพรรณบุรี"
        },
        "name": "ร้านกระจกวิจิตรการช่าง",
        "phone": "035569212"
    },
    {
        "id": "304474669668740",
        "location": {
            "latitude": 12.69257,
            "longitude": 101.44929
        },
        "name": "ช่าง กัปตัน เหล็ก กระจก อลูมิเนียม   หลังวัด:)"
    },
    {
        "id": "310677782386717",
        "location": {
            "latitude": 8.4252147016991,
            "longitude": 98.504827458828
        },
        "name": "อู่ป.รวมช่างและกระจกยานยนต์พังงา"
    },
    {
        "id": "313935845460312",
        "location": {
            "city": "Mae Sot",
            "country": "Thailand",
            "latitude": 16.71314,
            "longitude": 98.57384,
            "street": "27/3 ถ.แม่สอด-แม่ตาว อ.แม่สอด จ.ตาก"
        },
        "name": "ร้านช่างเล็ก กระจก อลูมิเนียม",
        "phone": "0899578406"
    },
    {
        "id": "314343422023869",
        "location": {
            "city": "Bangkok",
            "country": "Thailand",
            "latitude": 13.6746849,
            "longitude": 100.6794877
        },
        "name": "ร้าน ช่าง ตุ้ย กระจก อลูมิเนียม Ss กระจกซิ่ง ราม.2",
        "phone": "0866272734"
    },
    {
        "id": "318653554911762",
        "location": {
            "city": "Kapoe",
            "country": "Thailand",
            "latitude": 9.5820571698113,
            "longitude": 98.588632830189
        },
        "name": "ร้านกระจก ช่าง M อลูมิเนียม"
    },
    {
        "id": "321639127990016",
        "location": {
            "city": "Phanom Sarakham",
            "country": "Thailand",
            "latitude": 13.770202735,
            "longitude": 101.352153465,
            "street": "ม.6 ต.หนองยาว อ.พนมสารคาม จ.ฉะเชิงเทรา",
            "zip": "24120"
        },
        "name": "บ้านช่างกฤษ รับทำกระจก,ฝ้า,มุ้งลวด,และงานดนตรี",
        "phone": "0861499954"
    },
    {
        "id": "330830730457005",
        "location": {
            "city": "Bangkok",
            "country": "Thailand",
            "latitude": 13.69877,
            "longitude": 100.52258,
            "street": "5\\5 หมู่6",
            "zip": "10120"
        },
        "name": "สมาคมรวมช่างฝ้า มิเนียมและกระจก",
        "phone": "0843228328"
    },
    {
        "id": "343930392390019",
        "location": {
            "city": "Chiang Rai",
            "country": "Thailand",
            "latitude": 19.9350309,
            "longitude": 99.8425555,
            "street": "229 M.5 Ban San ton pao",
            "zip": "57100"
        },
        "name": "ทีมงาน ช่างโหน่ง กระจก อลูมิเนียม",
        "phone": "081 783 1287"
    },
    {
        "id": "362773750485411",
        "location": {
            "city": "Phrom Phiram",
            "country": "Thailand",
            "latitude": 17.11351468,
            "longitude": 100.16136737
        },
        "name": "สัมพันธ์การช่าง กระจกรถยนต์ ฟิล์ม"
    },
    {
        "id": "367411103463081",
        "location": {
            "city": "Amphoe Pak Chong",
            "country": "Thailand",
            "latitude": 14.721856766856,
            "longitude": 101.4327150948,
            "street": "543/3ม.10ต.หนองสาหร่ายอ.ปากช่องจ.นครราชสีมา",
            "zip": "30130"
        },
        "name": "ร้านอลูมิเนียม กระจก ฝ้าทีบาร์ เหล็กดัดทุกชนิด -ช่างอุ้ย เมืองโคตร"
    },
    {
        "id": "148083175394089",
        "location": {
            "city": "Amphoe Muang Khon Kaen",
            "country": "Thailand",
            "latitude": 16.394740426985,
            "longitude": 102.82860002212,
            "zip": "40000"
        },
        "name": "ช่างใหญ่กระจกรถยนต์"
    },
    {
        "id": "861075513902952",
        "location": {
            "city": "Amphoe Khanuworalak Buri",
            "country": "Thailand",
            "latitude": 16.0694912,
            "longitude": 99.862287633333,
            "street": "ขาณุ"
        },
        "name": "ร้านกระจก ช่างรุ่ง ขาณุ",
        "phone": "0827773621"
    },
    {
        "id": "858229094222360",
        "location": {
            "city": "Nakhon Ratchasima",
            "country": "Thailand",
            "latitude": 14.959615474096,
            "longitude": 102.06066066906,
            "street": "บ้านมิตรภาพ"
        },
        "name": "บ้านช่างแมน กระจก อลูมิเนียม",
        "phone": "0898466749"
    },
    {
        "id": "1404854106399052",
        "location": {
            "city": "Surat Thani",
            "country": "Thailand",
            "latitude": 9.133925,
            "longitude": 99.33854,
            "street": "Donnok Road 33"
        },
        "name": "ร้านธีระการช่าง กระจก อลูมิเนียม"
    },
    {
        "about": "งานอลูมิเนียม กระจก  มุ้งลวด  ฝ้าทีบาร์  และเหล็กดัดทุกชนิด",
        "id": "1444414152540356",
        "location": {
            "city": "Nakhon Ratchasima",
            "country": "Thailand",
            "latitude": 14.9596004,
            "longitude": 102.0606308,
            "street": "543/3 หมู่ 10 ต.หนองสาหร่าย อ.ปากช่อง จ.นครราชสีมา",
            "zip": "30130"
        },
        "name": "งานอลูมิเนียม กระจก มุ้งลวด ฝ้าทีบาร์ เหล็กดัดทุกชนิด - ช่างอุ้ย เมืองโคตร",
        "phone": "0811868998"
    },
    {
        "id": "195278857331375",
        "location": {
            "city": "Phangnga",
            "country": "Thailand",
            "latitude": 8.49378,
            "longitude": 98.49079,
            "street": "57 ถ.บริรักษ์บำรุง ต.ท้ายช้าง อ.เมือง จ.พังงา 82000",
            "zip": "82000"
        },
        "name": "ตี๋ กระจก",
        "phone": "0835935799"
    },
    {
        "id": "115013735366714",
        "location": {
            "city": "Hat Yai",
            "country": "Thailand",
            "latitude": 7.00205,
            "longitude": 100.45739,
            "street": "หมู่ 5 (ริมทางรถไฟ ม.หาดใหญ่) ต.คอหงส์ อ.หาดใหญ่ จ.สงขลา"
        },
        "name": "ป.กระจก-อลูมิเนียมการช่าง"
    },
    {
        "id": "132998103555455",
        "location": {
            "city": "Hat Yai",
            "country": "Thailand",
            "latitude": 7.013319,
            "longitude": 100.4597925,
            "zip": "90110"
        },
        "name": "บ้านช่างน้องกระจกยนต์"
    }
]