[
    {
        "description": "ช่างกระจก รับเหมาติดตั้งกระจก ช่างกระจกบ้าน รับติดกระจกบ้าน รับติดกระจกบริษัท รับติดตั้งกระจกอลูมิเนียม กระจกบานเลื่อน รับติดตั้งกระจกบานเปลือย",
        "id": "1619490151608177",
        "location": {
            "city": "Bangkok",
            "country": "Thailand",
            "street": "76 ถ.สุขภิบาล 5 ซ.24 แขวงท่าแร้ง เขตบางเขน",
            "zip": "10220"
        },
        "name": "ช่างกระจก",
        "phone": "0847653000"
    },
    {
        "about": "ให้คำปรึกษา ออกแบบ ทุกอย่างที่เป็นงานกระจก",
        "id": "1424186451224325",
        "name": "ช่างกระจก"
    },
    {
        "id": "127594737308389",
        "name": "ช่างกระจก"
    },
    {
        "about": "ก่อตั้งขึ้นมาเพื่อ แลกเปลี่ยนและช่วยเหลือซึงกันและกัน เพื่อสาขาอาชีพนี้",
        "description": "Hi, we are Engineering aluminum Thailand. We come together to share our knowledge.",
        "id": "544484112275220",
        "name": "ชมรมช่างกระจก-อลูมิเนียมไทย Glazier Thailan dan Australian"
    },
    {
        "about": "รับติดตั้งกระจกอลูมิเนียม  ประตู หน้าต่าง กระจก อลูมิเนียม บานเลื่อนในกรุงเทพมหานคร",
        "description": "รับติดตั้งกระจกอลูมิเนียม  ประตูอลูมิเนียม บานเลื่อน กระจก หน้าต่างกระจก บานเลื่อน อลูมิเนียม บานแขวน บานสวิง บานกระทุ้ง ในกรุงเทพมหานคร โดยช่างผู้ชำนาญงาน",
        "emails": [
            "glassthailand999@gmail.com"
        ],
        "id": "1639794602973665",
        "name": "ช่างกระจกรับติดตั้งกระจกอลูมิเนียม กรุงเทพ099-456-8568",
        "phone": "099-456-8568"
    },
    {
        "id": "824882490962241",
        "name": "อาเซียน โมเดิร์น เวิร์ก - หน้าพระลานกระจก.ช่างมะนัติ"
    },
    {
        "id": "898674633560222",
        "name": "ช่างกระจกรับติดตั้งกระจกอลูมิเนียมในอยุธยา099-4568568",
        "phone": "0994568568"
    },
    {
        "about": "บริการติดตั้งกระจก อลูมิเนียม ฝ้าเพดาน  ผนังเบา โดยช่างฝีมือดี รับประกันผลงาน",
        "emails": [
            "wiboon.proalu@gmail.com"
        ],
        "id": "581174025293850",
        "location": {
            "city": "Bangkok",
            "country": "Thailand",
            "latitude": 13.67908,
            "longitude": 100.61183,
            "street": "271/4 ซอยสุขุมวิท101/1 ถนนสุขุมวิท แขวงบางจาก เขตพระโขนง",
            "zip": "10260"
        },
        "name": "ช่างวิบูลย์ บริการติดตั้ง กระจก อลูมิเนียม ฝ้าเพดาน",
        "phone": "0867733615"
    },
    {
        "about": "ทีมงานช่างโหน่ง กระจก อลูมิเนียม ",
        "description": "ติดตั้งกระจก อลูมิเนียม ติดตั้งงานด้วยประสบการณ์ 20 ปีด้านกระจก - อลูมิเนียม ด้วย คุณภาพและบริการ ราคายุติธรรม ติดต่อช่างโหน่ง 081 783 1287 รับประกันงานติดตั้ง 1 ปี",
        "emails": [
            "changnong-alu@hotmail.com"
        ],
        "general_info": "โทร. 081 783 1287 / 080 496 5979",
        "id": "1378761619005952",
        "location": {
            "city": "เมืองเชียงราย ",
            "street": "บ้านดู่",
            "zip": "57100"
        },
        "name": "ทีมงานช่างโหน่ง กระจก อลูมิเนียม  Changnong Glass \u0026 Aluminium Team",
        "phone": "081 783 1287"
    },
    {
        "about": "รับออก แบบติดตั้งงาน กระจกิลูมิเนียม ประตูหน้าง\n งาน ประตูหน้าต่าง u pvc ใวนิล",
        "id": "1466444476927333",
        "location": {
            "city": "พัทยา",
            "zip": "20150"
        },
        "name": "ช่างกระจก เมืองหนอง",
        "phone": "0888376374"
    },
    {
        "about": "รับติดตั้งกระจก อลูมิเนียม มุ้งลวด ประตู หน้าต่าง ",
        "emails": [
            "jaebja@gmail.com"
        ],
        "id": "650146638386290",
        "location": {
            "city": "Bangkok",
            "country": "Thailand",
            "latitude": 13.70426,
            "longitude": 100.40088,
            "street": "กรุงเทพมหานคร",
            "zip": "10160"
        },
        "name": "ช่างหลงรับติดตั้งกระจก อลูมิเนียม",
        "phone": "089-760-8219"
    },
    {
        "id": "516474058502508",
        "name": "ช่างกระจกรับติดตั้งกระจกอลูมิเนียมในโคราชTel:099-456-8568",
        "phone": "0994568568"
    },
    {
        "about": "ติดตั้งมุ้งลวด มุ้งพับจีบ มุ้งม้วนเก็บ บานประตู-หน้าต่างอลูมิเนียม งานกระจกทุกชนิด",
        "description": "ร้านก้าวอลูมิเนียม กระจกเชียงใหม่ ได้เปลี่ยนชื่อเป็น ช่างพล อลูมิเนียมราชพฤกษ์ แล้วครับ ตั้งอยู่ 410/2-3 หมู่ที่ 12 ถ.เลียบคลองชลประทาน ต.หนองควาย อ.หางดง จ.เชียงใหม่ 50230รับติดตั้งรื้อถอนงานบานประตู-หน้าต่างอลูมิเนียม บานทั่วไป บานดัดแปลง มุ้งลวด มุ้งม้วน มุ้งจีบ กระจกอบเทมป์เปอร์ เจียรปรี ทุกรูปแบบ เหล็กดัด กันสาด มีอลูมิเนียมทุกยี่ห้อและแก้ไขปัญหาต่าง ๆ อย่างถาวร พร้อมบริการหลังการขายที่เป็นเลิศติดต่อได้ทุกวัน คุณภัทรพล  ณภัทรภูรินท์โทร-089-8532286(รับติดตั้งทุกจังหวัด) คลิกที่ www.changphon.com",
        "emails": [
            "kow_alu@hotmail.com"
        ],
        "id": "178285632224822",
        "location": {
            "city": "Chiang Mai",
            "country": "Thailand",
            "latitude": 18.742920954032,
            "longitude": 98.938098010254,
            "zip": "50230"
        },
        "name": "ช่างพล อลูมิเนียมราชพฤกษ์ (ก้าวอลูมิเนียม กระจกเชียงใหม่2)",
        "phone": "089-8532286"
    },
    {
        "id": "629942323728333",
        "location": {
            "city": "Sisakate",
            "country": "Thailand",
            "latitude": 15.09934,
            "longitude": 104.35064,
            "street": "1622/13 ถ.รอบเมืองใต้ ต.เมืองใต้",
            "zip": "33000"
        },
        "name": "ช่างสน รับติดตั้งกระจก อะลูมิเนียม",
        "phone": "0815930287 "
    },
    {
        "about": " รับติดตั้ง กระจก อลูมิเนียม รับเหมา ต่อเติม ในราคามาตรฐาน พร้อมรับประกันงาน",
        "id": "552149674915338",
        "location": {
            "city": "Bangkok",
            "country": "Thailand",
            "latitude": 13.589888385,
            "longitude": 100.36684899167,
            "street": "พระรามสอง",
            "zip": "74000"
        },
        "name": "เฮง การช่าง - กระจก อลูมิเนียม",
        "phone": "0871128844"
    },
    {
        "id": "1503566006626188",
        "name": "ช่างเชื่อม  + กระจก"
    },
    {
        "about": "รับติดตั้งกระจกรถยนต์ ทุกชนิด บริการใน - นอกสถานที่",
        "description": "รับติดตั้งกระจกรถยนต์ รถแบ็คโฮ รถ 10 ล้อ  รถ 6 ล้อ รถตัก รถเคลน ทุกชนิด พร้อมออกบริการใน - นอกสถานที่  พร้อมบริการติดฟิล์มกรองแสงรถยนต์",
        "emails": [
            "changyaikajok@hotmail.com"
        ],
        "id": "644294088944420",
        "location": {
            "city": "เมืองเก่า ขอนแก่น",
            "street": "209/49 ถนนกลางเมือง",
            "zip": "40000"
        },
        "name": "ร้านช่างใหญ่กระจกรถยนต์",
        "phone": "043222479 ,085-7449755"
    },
    {
        "id": "917931311632260",
        "name": "ช่างกระจกรับติดตั้งกระจกอลูมิเนียมในสระบุรี099-456-8568"
    },
    {
        "about": " รับติดตั้งกระจกอลูมิเนียม ประตู หน้าต่าง",
        "id": "1012251725481366",
        "name": "ช่างกระจกรับติดตั้งกระจกในขอนแก่นโทร099-456-8568",
        "phone": "099-456-8568 "
    },
    {
        "about": "รับออกแบบ - ติดตั้ง\n- งานกระจก- งานมุ้งลวด- งานอลูมิเนียม\n- งานฝ้าเพดาน- งานผ้าม่าน\nhttp://www.chorsuchat.com/",
        "description": "รับออกแบบ - ติดตั้ง\n- งานกระจก- งานมุ้งลวด- งานอลูมิเนียม\n- งานฝ้าเพดาน- งานผ้าม่าน\nhttp://www.chorsuchat.com/",
        "emails": [
            "suchat_aluminum@hotmail.com"
        ],
        "id": "317426848385034",
        "location": {
            "city": "เชียงใหม่",
            "street": "553 ม.5 ต.สันทรายน้อย อ.สันทราย",
            "zip": "50210"
        },
        "name": "ติดตั้งกระจก อลูมิเนียม - ช.สุชาติการช่าง เชียงใหม่",
        "phone": "053-380837"
    },
    {
        "id": "355969374603075",
        "location": {
            "city": "Chiang Mai",
            "country": "Thailand",
            "latitude": 18.74287,
            "longitude": 98.88195,
            "street": "อ.หางดง",
            "zip": "50230"
        },
        "name": "ช่างกระจก อลูมิเนียม เชียงใหม่",
        "phone": "082-6940997"
    },
    {
        "about": "ซ่อมรอยแตก-ร้าว กระจกรถยนต์ ช่างปาร์คซ่อมกระจก",
        "description": "ช่างปาร์คซ่อมกระจก\nซ่อมรอยแตก-ร้าวกระจกรถยนต์\nจำหน่าย-ติดตั้ง กระจกรถยนต์-รถขุด\nฟิล์มรถยนต์-อาคาร  แบตเตอรี่ เคฟล่า (บริการถึงบ้าน)\nติดต่อ ช่างปาร์ค 084-9403688\nwww.srirachakrajok.blogspot.com\n\nประโยชน์ของการซ่อมกระจกรถยนต์\n*ประหยัดค่าใช้จ่าย การเปลี่ยนกระจกบานใหม่นั้นมีราคาที่สูงมากกว่าการซ่อม 4,000 ถึง 5,0000 บาท แต่ค่าซ่อม 500 - 1,500 บาท\n*ไม่ต้องกังวลในการบริการ การติดตั้งกระจกใหม่อาจทำให้มีการรั่วซึม หรือ เสี่ยงต่อการรื้อถอนของช่างที่ไม่ชำนาญ (ประสบการณ์น้อย)\n*ใช้เวลาไม่นานๆ ไม่ต้องไปนั่งรอเสียเวลาเป็นชั่วโมงในการเปลี่ยนกระจกบานใหม่\n\nวิธีป้องกันรอยแตกเบื้องต้น\n*เมื่อมีรอยแตกให้จอดรถในที่เย็น หลีกเลี่ยงการจอดในกลางแจ้ง หรือ แดดส่องโดยตรง เพื่อลดอุณหภูมิในรถยนต์ เนื่องจากกระจกที่ร้อนจะอ่อนตัวมีแนวโนมจะแตกร้าวสูงมาก\n*อย่าปิดประตูกระแทกแรงๆ เพราะอาจจะทำให้เกิดแรงอัดกระทบทำให้แผลแตกร้าวได้\n*อย่าใช้มือดันบริเวณแผลแตกไม่ว่าจากข้างในหรือข้างนอก เพราะจะทำให้แผลแตกร้าวได้ง่าย\n*งดการล้าง ถ้าหลีกเลี่ยงไม่ได้หรือกลัวซ่อมแล้วไม่สวยควรหาเทปกาวหรือสติกเกอร์ปิดบริเวณแผลแตกด้านนอกไว้\nหมายเหตุ -ซ่อมแล้วไม่พอใจยินดีไม่คิดค่าบริการ\n\t-ไม่ว่าจะอยู่ที่ไหนซ่อมได้ทุกที่\n\t-รับประกันตลอดอายุการใช้งาน\n\nซ่อมรอยแตก-ร้าว กระจกรถยนต์ ช่างปาร์คซ่อมกระจก จำหน่าย-ติดตั้ง กระจกรถยนต์-รถขุด ฟิล์มรถยนต์-อาคาร  แบตเตอรี่ เคฟล่า (บริการถึงบ้าน) ติดต่อ ช่างปาร์ค 084-9403688 www.srirachakrajok.blogspot.com",
        "emails": [
            "park0849403688@gmail.com"
        ],
        "id": "538183816206090",
        "location": {
            "city": "Si Racha",
            "country": "Thailand",
            "street": "Sriracha",
            "zip": "20110"
        },
        "name": "ช่างปาร์ค ซ่อมกระจก",
        "phone": "084-9403688"
    },
    {
        "id": "414608372048485",
        "location": {
            "city": "Amphoe Lam Luk Ka",
            "country": "Thailand",
            "latitude": 13.97531,
            "longitude": 100.65421,
            "street": "ศุนย์รวมแท็กซี่ เต๊นคุณสำเนียง",
            "zip": "12130"
        },
        "name": "ช่างนะ กระจกรถยนต์",
        "phone": "0895464223"
    },
    {
        "about": "รับซ่อมกระจกรถยนต์  แตกร้าวเป็นจุดและเส้น ..โดยที่ไม่ต้องเปลี่ยนใหม่\nราคาเริ่มที่6⃣0⃣0⃣บาท\n",
        "description": "รับซ่อมกระจกรถยนต์ แตกร้าว..เป็นจุด..และเส้น..ซ่อมได้โดยที่ไม่ต้องเปลี่ยนใหม่...\nกระจกแตกโทรปรึกษาเราได้ครับ\nอย่าปล่อยให้แตกร้าวเพิ่มขึ้นกว่าเดิม\nจนต้องเสียเวลาเสียค่าใช้จ่ายมากขึ้น\nหลังซ่อมรับประกันตลอดอายุการใช้งาน\nในราคาย่อมเยาว์...ราคาเริ่มต้นที่600บาท\nพร้อมให้คำปรึกษาฟรี!!!!!\n",
        "emails": [
            "sddia2515@gmail.com"
        ],
        "id": "404972159694013",
        "location": {
            "city": "Nong Chok",
            "country": "Thailand",
            "latitude": 13.8030796,
            "longitude": 100.8133087,
            "street": "31/9",
            "zip": "10530"
        },
        "name": "ช่างซ่อมกระจกรถยนต์",
        "phone": "☎️0994424092"
    },
    {
        "about": "กระจกรถยนต์ รถแบคโฮ ",
        "id": "430756507109404",
        "name": "ช่างเอ๋ กระจกรถยนต์"
    }
]