[
    {
        "about": "เปิดรับสมัครงานช่างอาคาร   ธุรการ บัญชี ผู้จัดการอาคาร จำนวนมาก",
        "description": "บริษัท ไนท์แฟรงค์ ประเทศไทยเป็นผู้ให้บริการชั้นนำด้านอสังหาริมทรัพย์ในประเทศไทย | เป็นบริษัทในเครือของบริษัทไนท์แฟรงค์ประเทศอังกฤษที่มีเครือข่ายทั่วโลก มีสำนักงานในกว่า 43 ประเทศ บริษัทไนท์แฟรงค์ก่อตั้งในปี คศ.1896 ได้รับการกล่าวถึงว่าเป็น \"ทรัสต์แอทไวเซอร์ด้านอสังหาริมทรัพย์”\n--------------------------------------------------------\nเปิดรับสมัครงานช่างอาคารจำนวนมาก บริษัท ไนท์แฟรงค์ ชาร์เตอร์ (ประเทศไทย) จำกัด \n#รับสมัครช่างอาคาร #พนักงานธุรการ #พนักงานบัญชี #เจ้าหน้าที่อาคาร #ผู้จัดการอาคาร\nสนใจสอบถาม 0-2643-8223 ต่อ 137 หรือ https://www.facebook.com/messages/675320602478064 \nหรือส่งประวัติมาที่ hr@th.knightfrank.com\n",
        "emails": [
            "hr@th.knightfrank.com"
        ],
        "id": "675320602478064",
        "location": {
            "city": "Bangkok",
            "country": "Thailand",
            "latitude": 13.75395,
            "longitude": 100.50224,
            "street": "65/192 ชั้น 23 อาคารชำนาญ เพ็ญชาติ บิสเนส เซ็นเตอร์ ถนนพระราม 9 แขวงห้วยขวาง เขตห้วยขวาง กรุงเทพ 10320",
            "zip": "10320"
        },
        "name": "รับสมัครงานช่างอาคาร ธุรการ บัญชี ผู้จัดการอาคาร ไนท์แฟรงค์ ประเทศไทย",
        "phone": "026438223"
    },
    {
        "about": "ซ่อม \u0026 โมดิฟาย รถจักรยานยนต์",
        "id": "195481767281715",
        "location": {
            "city": "Surin",
            "country": "Thailand",
            "latitude": 14.878140376909,
            "longitude": 103.49469655148,
            "street": "เยื้องวัดประทุมเมฆ",
            "zip": "32000"
        },
        "name": "ร้านช่างอ๊อดสุรินทร์",
        "phone": "0858571631"
    },
    {
        "about": "Giant ink tattoo\n\n",
        "id": "1658357267775308",
        "name": "ช่างไจแอ้นท์สกลนคร"
    },
    {
        "about": "อู่ ป.การช่างสากเหล็ก จังหวัดพิจิตร \nบริการตั้งศูนย์ ถ่วงล้อ เบรค ครัช เกียร์ รถยนต์ทุกชนิด",
        "id": "1030434063657008",
        "name": "อู่ ป.การช่าง สากเหล็ก Phichit"
    },
    {
        "id": "166670976795548",
        "name": "สำนักช่างสิบหมู่ กรมศิลปากร กระทรวงวัฒนะธรรม"
    },
    {
        "about": "รับจัดฝึกอบรม สอนนอกพื้นที่ ทั้งกรุงเทพและต่างจังหวัด",
        "description": "บริหารงานโดย อาจารย์ประวิทย์ สุดประเสริฐ\nงานของเรา\n1.\"งานขาย\" สินค้าที่มีประกัน 2 ปี\n2.\"งานบริการ\" ส่งมอบ หรือ ติดตั้ง ถึงที่บ้าน\n3.\"งานอบรม\" รับสอนนอกพื้นที่ ทั้งกรุงเทพ และต่างจังหวัด\n\nทุกงานอบรม 3-5วัน\nจบหลักสูตรออกใบรับวุฒิบัตรรับรองการฝึกอบรมให้\n\n++งานสื่อสิ่งพิมพ์++\n1.งานพ่นทราย\n2.งานตัดสติ๊กเกอร์\nและอื่นๆ สอบถามกดมาที่เบอร์ 02-8944420,081-8241332,084-0847173\n\n++งานช่าง++\n1.ช่างไฟฟ้าโรงงาน\n2.ช่างไฟฟ้าคอนโทรล\n3.ช่างพันมอเตอร์\n4.ช่างเครื่องปรับอากาศ\n5.ข่างแอร์ชิลเลอร์\n6.ช่างซ่อมตู้เย็น-ตู้แช่\n7.ช่างแอร์รถยนต์\n8.ช่างกล้องวงจรปิด\n9.ช่างระบบกันขโมย\n10.ช่างติดตั้งพลังงานแสงอาทิตย์\n11.ช่างติดตั้งจานดาวเทียม\n12.ช่างเชื่อมไฟฟ้า\n\nChannel\n \n\u003e\u003e    http://www.youtube.com/trainingsiam  \u003c\u003c\n\u003e\u003e  http://www.youtube.com/trainingcenterthai1  \u003c\u003c\n\nเว็บไชต์โรงเรียน http://www.thaitrainingsiam.com\nเว็บไชต์สินค้าและบริการhttp://www.trainingsiam.com\nสอบถามเพิ่มเติมกดมาที่เบอร์ 02-8944420,081-8241332,084-0847173",
        "emails": [
            "aseantrainingcenter@gmail.com"
        ],
        "id": "358055160932864",
        "location": {
            "street": "ที่ตั้ง :\t 115/203 ซอย 93/1 ถนนเอกชัย เขตบางบอน กรุงเทพฯ",
            "zip": "10150"
        },
        "name": "ศูนย์ฝึกปฏิบัติงานช่างโชคทวีคูณ ในเครือโรงเรียนศูนย์ฝึกวิชาชีพระยะสั้น",
        "phone": "02-894-5020,081-824-1332,081-407-6084"
    },
    {
        "about": "-บริการตัดผมฟรีและราคาย่อมเยา\n-บริการสระผม ไดร์ผม \n-ผู้ให้บริการหน้ารักเป็นกันเอง",
        "id": "1381376308836810",
        "location": {
            "city": "Amphoe Prachantakham",
            "country": "Thailand",
            "latitude": 14.0667,
            "longitude": 101.517,
            "street": "-",
            "zip": "25130"
        },
        "name": "ช่างเสริมสวยน้อย",
        "phone": "0615177910"
    },
    {
        "about": "ช่างแต่งหน้า ช่างทำผม by meple_makeup \nรับทั้งในและนอกสถานที่นะค่ะ",
        "description": "ช่างแต่งหน้า ช่างทำผม by meple_makeup เป็นช่างแต่งหน้ามืออาชีพ มั่นใจได้ในฝีมือ ความสามารถและคุณภาพ การันตีได้ในผลงาน\nซื่อสัตย์และตรงเวลา ใส่ใจทุกรายละเอียด เต็มที่กับทุกบริการ เพื่อมอบสิ่งที่ดีที่สุดให้กับลูกค้าทุกท่าน\n\nแต่งหน้าทำผมเจ้าสาว,\nแต่งหน้าทำผมรับปริญญา,\nแต่งหน้าไปงานทั่วไป,\nแต่งหน้าสมัครแอร์,\nแต่งหน้าทำผมรายการต่างๆ,\nแต่งหน้าแฟชั่น,\nแต่งหน้าไปงานบายเนียร์,\nแต่งหน้าถ่ายแบบ,\nแต่งหน้าพริตตี้,\nแต่งหน้าทำผมเป็นกลุ่มหรือบริษัทหรือองค์กรต่างๆ,\nแต่งหน้าในโอกาสต่างๆ ตามความต้องการของลูกค้า\n\nเราให้บริการอย่างเป็นกันเองในราคามิตรภาพ อยากให้แต่งหน้าในแบบไหนสไตล์ไหน สามารถแจ้งได้เลยนะค่ะ\n\nรับรองไม่ทำให้ท่านผิดหวังแน่นอน หน้าสวย ผมเลิศ คอนเฟิร์ม.... เป๊ะเว่อๆ แน่นอนค๊า....\n\n\"เอาใจใส่ทุกรายละเอียด ดูแลเหมือนญาติสนิท ในราคามิตรภาพจริงๆค่ะ\"\n\nโดยช่างแต่งหน้าทำผมมืออาชีพ ด้วยเครื่องสำอางค์แบรนด์เนมชั้นนำจากเคาน์เตอร์ทุกชิ้นเลยค่ะ\n\n\nเรียนแต่งหน้าตัวเอง เปิ้ลเปิดคอร์สสอนแต่งหน้าตัวเอง สำหรับท่านใดต้องการเรียนแต่งหน้าสวยๆง่ายๆด้วยตัวเอง เราสอนทั้งทฤษฏีและเน้นการปฏิบัติ การแก้ไขรูปหน้า การใช้แสงเงา การเลือกโทนสีให้เหมาะกับตัวเองให้สาวๆสวยดูดีมีความมั่นใจ เน้นการแต่งหน้าในชีวิตประจำวัน ไปทำงาน ไปงานเลี้ยง ไปออกงานต่างๆ\nการเรียนเปิ้ลจะสอน 2 ลุคใน 1 วันค่ะ \n\nรับทั้งในสถานที่และบริการแต่งหน้านอกสถานที่ นะค่ะ จึงทำให้สะดวกสบายสำหรับลูกค้าทุกท่านเลยค่ะ\n\n++กรณีในสถานที่เป็นที่รัชดา19 หรือ วิภาวดี16 หรือ MRT สถานีรัชดาภิเษก",
        "id": "881974311838861",
        "location": {
            "city": "Bangkok",
            "country": "Thailand",
            "latitude": 13.82676,
            "longitude": 100.56398,
            "street": "Regent Home5 Condo",
            "zip": "10900"
        },
        "name": "ช่างแต่งหน้ารับปริญญา แต่งหน้าสมัครแอร์ แต่งหน้าไปงาน by meple_makeup",
        "phone": "083-922-1141"
    },
    {
        "about": "รับแต่งมอเตอร์ไซค์ ทุกชนิด 4T\u00262T  ",
        "id": "1443923039167388",
        "location": {
            "city": "Ban Photharam",
            "country": "Thailand",
            "zip": "70120"
        },
        "name": "ร้าน \" ช่างเป้ บ้านสิง \" จัดหนัก.",
        "phone": "0887070261"
    },
    {
        "about": "ผลิตภัณฑ์จากงาช้าง และหางช้าง ของแท้ จากสุรินทร์\nสนใจติดต่อ 088-3674765 : 086-3842055\nขอบคุณครับ :D",
        "id": "608735089210601",
        "name": "ผลิตภัณฑ์จากงาช้าง และหางช้าง ของแท้ จากสุรินทร์"
    },
    {
        "about": "โทร  081-0721044\nID line. 40697769n",
        "description": "    ตะขอช้าง เป็นหนึ่งในวัตถุมงคลแปดประการของพราหมณ์ หมายถึง การมีอำนาจในการควบคุมเหตุการณ์ต่างๆไว้ได้ ป้องกันและแก้อาถรรพ์คุณไสย ดีเด่นด้านโภคทรัพย์ ใครมีครอบครองจะเรียกทรัพย์สินเงินทองมาให้  ",
        "emails": [
            "charine.thongsuk.n@hotmail.com"
        ],
        "id": "605961602764741",
        "location": {
            "street": "อ.จอมพระ   จ.สุรินทร์",
            "zip": "32180"
        },
        "name": "ตะขอช้าง ของดีเมืองสุรินทร์",
        "phone": "0810721044"
    },
    {
        "about": "ผลิตชิ้นงานตามแบบ ลูกกลิ้งลำเลียง roller conveyor เฟือง pulley\nSuperlene MC Nylon,Cast Nylon,Bakelite,PVC,POM,Teflon เชียงใหม่\n\n",
        "description": "ผลิตและจำหน่ายแองคอร์โบลท์ เชียงใหม่\nAnchor Bolt , J Bolt , L Bolt ทุกชนิด ทุกเกรด ทุกระบบเกลียว ตามแบบที่ท่านต้องการ ทำเหล็กเพลทหัวเสา ตัดเหล็กเพลทหัวเสา พร้อมเจาะรูกลม รู slot ทุกแบบทุกขนาด ",
        "id": "819751521465221",
        "location": {
            "city": "Chiang Mai",
            "country": "Thailand",
            "latitude": 18.792273236491,
            "longitude": 99.026319980621,
            "street": "4/1 หมู่ 1 ตำบล หนองป่าครั่ง อ.เมือง เชียงใหม่",
            "zip": "50000"
        },
        "name": "โรงกลึง หจก.ส.การช่าง เชียงใหม่",
        "phone": "053304766"
    },
    {
        "id": "155867307812077",
        "name": "ช่างตรวจสภาพรถ"
    },
    {
        "id": "142100559148074",
        "name": "ช่างผสมสี"
    },
    {
        "id": "428424683992848",
        "location": {
            "city": "Wiang Pa Pao",
            "country": "Thailand",
            "latitude": 19.364710352881,
            "longitude": 99.503726057966,
            "street": "222",
            "zip": "57170"
        },
        "name": "บ้านช้าง นมสด เบเกอร์รี่ เค้ก โฮมเมด"
    },
    {
        "id": "167804553274921",
        "location": {
            "city": "Chiang Mai",
            "country": "Thailand",
            "latitude": 18.800155543724,
            "longitude": 98.986674049272,
            "street": "ต.ศรีภูมิ ถ.สนากีฬา อ.เมือง จ.เชียงใหม่",
            "zip": "50200"
        },
        "name": "สถานนีขนส่งช้างเผือก เชียงใหม่",
        "phone": "053418328"
    },
    {
        "description": "หนาวๆ เดวห่อกลับไปเกษตรไปซะเลย",
        "id": "473296329407461",
        "location": {
            "city": "Supanburi",
            "country": "Thailand",
            "latitude": 14.843159256643,
            "longitude": 99.759942060435,
            "street": "109 ต.หนองมะค่าโมง อ.ด่านช้าง จ.สุพรรณบุรี",
            "zip": "72180"
        },
        "name": "โรงงานน้ำตาลมิตรผล อ.ด่านช้าง จ.สุพรรณบุรี"
    },
    {
        "id": "507221772747999",
        "location": {
            "city": "Ayutthaya",
            "country": "Thailand",
            "latitude": 14.359634880422,
            "longitude": 100.56290887376,
            "street": "อู่ทอง29 ต ทาวาสุกริ อ อยุธยา จ อยุธยา",
            "zip": "13000"
        },
        "name": "แผนกวิชาช่างกลโรงงาน สาขางาน เทคนิคการผลิต\"วิทยาลัยเทคนิคพระนครศรีอยุธยา"
    },
    {
        "id": "686657871464210",
        "location": {
            "city": "Casablanca",
            "country": "Morocco",
            "latitude": 33.5333,
            "longitude": -7.5833
        },
        "name": "สี่แยกทางช้างเผือก เลี้ยวซ้ายไปดาวพลูโต เลี้ยวขวาไปดาวนาเม็ก"
    },
    {
        "id": "389862871183570",
        "location": {
            "city": "Amphawa",
            "country": "Thailand",
            "latitude": 13.426158738996,
            "longitude": 99.965413686416
        },
        "name": "วัดจุฬามณี ตำบลบางช้าง อำเภออัมพวา จังหวัดสมุทรสงคราม"
    },
    {
        "id": "326298957523457",
        "location": {
            "city": "Muang Roi Et",
            "country": "Thailand",
            "latitude": 16.055086084353,
            "longitude": 103.65529266313,
            "street": "ใต้ตึกช้าง   อ.เมือง  จ.ร้อยเอ็ด",
            "zip": "45000"
        },
        "name": "ส้มตำถาด ตึกช้าง"
    },
    {
        "description": "เจริญกิจการช่าง แบ่งงานเป็น 2 อย่าง\n1.ผลิต - แก้ไขดัดแปลงอุปกรณ์กการเกษตร\n1.1 .ท่อสูบน้้ำพญานาค (สินค้าที่ได้รับความนิยมเป็นอย่างมาก ) ด้วยคุณภาพงานที่เรียบร้อยทุกแนวตะแขบการเชื่อม ใบพัดสูตรเฉพาะเอกลัก\nษ์ของ เจริญกิจการช่าง ด้วยน้ำแรงสะใจ เร่งได้ตามอัตราเครื่อง เราใช้วัสดุชันดี สเตนเลส 304 อย่างดี\n1.2. รถไถนาเกียร์โฟร์ เราได้นำเกียร์เก่าญี่ปุ่น มาดัดแปลงทำเป็นรถไถนา (สินค้าได้รับความนิยมมาก) โดดเด่นด้วยรูปทรงที่ดูทันสมัย ฉีกจากรูปแบบเดิม และ เนื้องานคุณภาพ \n2.ส่วนของการขาย หน้าร้านแสดงสินค้า\n2.1 จำหน่ายสแตนเลส ท่อกลม ท่อเหลี่ยม เกลียว ฉาก แบน แผ่น ด้วยเกรด 304 , 202 , 201 อุปกรณ์งาน อุปกรณ์ช่าง และอื่น ๆ\n2.2 จำหน่าย สินค้า อุปกกรณ์การเกษตร อุปกรณ์ช่าง และอื่น ๆ\n",
        "emails": [
            "jkc_stainless@hotmail.co.th"
        ],
        "general_info": "เจริญกิจการช่างยินดีให้คำปรึกษาและให้บริการลูกค้าด้วยความเต็มใจ และ ความพึงพอใจของลูกค้าคือสิ่งที่เราต้องการ \nหมายเหตุ : สามารถสอบถามราคาสเตนเลส และสั่งสเตนเลสได้ที่ 0815662054 \nสามารถสั่งท่อสูบน้ำพญานาค รถไถนาเกียร์โฟร์ รถไถซิ่งได้ที่ 08156620554\n\n: เจริญกิจการช่าง มีผู้เชียวชาญช่วยกันคิดออกแบบสินค้าต่าง ๆ โดยได้รับความร่วมมือจาก เดชาศิลป์การช่าง ทวีทรัพย์การช่าง และ เจริญกิจการช่าง จึงทำให้ลูกคค้าแน่ใจได้ว่า สินค้าเราเต็มด้วยคุณภาพ\n",
        "id": "108249759333500",
        "name": "เจริญกิจการช่าง-สเตนเลส",
        "phone": "0815662054"
    },
    {
        "id": "139245852925930",
        "location": {
            "city": "Bang Kapi",
            "country": "Thailand",
            "latitude": 13.70426,
            "longitude": 100.40088,
            "street": "8/125 ซ.กาญจนาภิเษก",
            "zip": "10160"
        },
        "name": "ช่าง รับลงยาสี",
        "phone": "0815511728"
    },
    {
        "about": "รับเหมาก่อสร้าง ต่อเติม ซ่อมแซม บ้าน และอาคาร ทุกประเภท",
        "description": "รับเหมาก่อสร้าง ต่อเติม ซ่อมแซม บ้าน และอาคาร ทุกประเภท\nในพื้นที่จังหวัดพิษณุโลก และจังหวัดใกล้เคียง\n\nราคาเป็นกันเอง มีบริการหลังการก่อสร้างแล้วเสร็จ และรับประกันผลงาน 1 ปี\n\nมีประสบการณ์ด้านงานก่อสร้างมากกว่า 30 ปี",
        "id": "662110197153978",
        "location": {
            "city": "Pitsanulok",
            "country": "Thailand",
            "street": "36/3 หมู่ 8 ต.หัวรอ",
            "zip": "65000"
        },
        "name": "ช้างเผือก คอนสตรัคชั่น : รับเหมาก่อสร้าง พิษณุโลก",
        "phone": "\u003c\u003cnot-applicable\u003e\u003e"
    },
    {
        "about": "แหล่งรวมความรู้ด้านเทคนิคของเครื่องคอมพิวเตอร์โน๊ตบุ๊ค และอุปกรณ์หายาก",
        "description": "สมาพันธ์ช่างซ่อมโน้ตบุ๊ต ก่อตั้งขึ้นเพื่อประโยชน์ของเจ้าของกิจการและช่างซ่อมโน้ตบุ๊คทุกท่าน จุดประสงค์หลักคือ แบ่งปันความรู้และประสบการณ์ด้านงานช่าง รวมทั้งแจ้งข่าวสารเรื่องอุปกรณ์ต่างๆ ว่ารุ่นไหนดีรุ่นไหนเสีย ซื้อจากที่ไหนดีที่ไหนไม่ดี รวมไปถึงการกระจายงานให้สมาชิกในสมาพันธ์ด้วย ที่สำคัญที่ไม่เน้นเรื่องธุรกิจนะครับ ",
        "id": "466312960130360",
        "name": "สมาพันธ์ช่างซ่อมโน้ตบุ๊ค"
    }
]