[
    {
        "about": "ช่างศิลป์ กราฟฟิก,โรงแรม มาพูดคุย แลกเปลี่ยนความคิดเห็นในการทำงานกันครับ",
        "id": "333836210052324",
        "name": "สมาคมช่างศิลป์โรงแรม"
    },
    {
        "about": "JIRAT บริการถ่ายภาพ ติดต่อ 083-107-2524 -by..ภีม(ช่างภาพสีนิล)",
        "emails": [
            "picpattern@hotmail.com"
        ],
        "id": "439637889416705",
        "location": {
            "city": "Bangkok",
            "country": "Thailand",
            "zip": "10220"
        },
        "name": "ช่างภาพสีนิล",
        "phone": "0831072524"
    },
    {
        "id": "939054106153417",
        "location": {
            "city": "Chiang Mai",
            "country": "Thailand",
            "latitude": 18.7983646,
            "longitude": 98.9866867,
            "street": "1/32 ถ.ช้างเผือก ซ 4 ต.ศรีภูมิ อ.เมือง",
            "zip": "50200"
        },
        "name": "ส.ช่างทอง",
        "phone": "0932539192"
    },
    {
        "id": "1192529230763538",
        "location": {
            "street": "กรุงเทพ"
        },
        "name": "ช่างสุรชัยรับเหมาปูปาร์เก้"
    },
    {
        "about": "ช่างยนต์ เทคนิคนครสวรรค์",
        "id": "472413986139550",
        "location": {
            "city": "นครสวรรค์",
            "street": "แผนกเครื่องกล(ช่างยนต์)",
            "zip": "60000"
        },
        "name": "สมาคมเด็กช่างยนต์นครสวรรค์"
    },
    {
        "about": "เราเป็นเด็กกลุ่มเล็กๆ ที่ไม่ได้มีความฝันเล็กๆ",
        "id": "190354174364738",
        "location": {
            "city": "นนทบุรี",
            "street": "75/1 ม.6 ต.ท่าอิฐ อ.ปากเกร็ด",
            "zip": "11120"
        },
        "name": "สมาคมงวงช้าง'"
    },
    {
        "description": "สำนักการช่าง อบจ.ขอนแก่น มีอำนาจหน้าที่ความรับผิดชอบดังต่อไปนี้\n    •งานเกี่ยวกับการสำรวจ ออกแบบ เพื่อการก่อสร้าง\n    •งานบำรุงรักษาทางบก และทางน้ำที่เชื่อมต่อระหว่างองค์กรปกครองส่วนท้องถิ่นอื่น\n    •งานการจัดทำข้อมูลทางด้านวิศวกรรม\n    •านรวบรวมข้อมูล และจัดทำทะเบียนประวัติโครงการต่างๆ\n    •งานจัดเก็บและทดสอบคุณภาพวัสดุ\n    •งานตรวจสอบการก่อสร้าง\n    •งานควบคุมอาคารตามระเบียบกฎหมาย\n    •งานควบคุมการก่อสร้างและซ่อมบำรุง\n    •งานส่งเสริมการพัฒนาเทคโนโลยีที่เหมาะสม\n    •งานป้องกันและบรรเทาสาธารณภัย\n    •งานแผนงานวิศวกรรมเครื่องจักรกล\n    •งานติดตาม ควบคุมการปฏิบัติงานเครื่องจักรกล\n    •งานควบคุม บำรุงรักษาเครื่องจักรกลและยานพาหนะ\n    •งานประสานสนับสนุนและให้ความร่วมมือในการปฏิบัติหน้าที่ขององค์กรปกครองส่วนท้องถิ่นอื่นในการพัฒนา\n    •งานจัดทำผังเมืองรวมของจังหวัด\n    •งานจัดการสิ่งแวดล้อมและมลพิษต่างๆ\n    •งานจัดตั้งและดูแลระบบบำบัดน้ำเสียรวม การกำจัดมูลฝอย และสิ่งปฏิกูลรวม\n    •งานอื่นๆที่เกี่ยวข้องและที่ได้รับมอบหมาย",
        "general_info": "สำนักงานกองช่าง (ฝ่ายผังเมือง) องค์การบริหารส่วนจังหวัดขอนแก่น ถนนหน้าเมือง ตำบลในเมือง อำเภอเมือง จังหวัดขอนแก่น 40000 โทรศัพท์/โทรสาร 0-4324-1440\n\nศูนย์เครื่องจักรกลองค์การบริหารส่วนจังหวัดขอนแก่น\n(ฝ่ายสำรวจและออกแบบ , ฝ่ายก่อสร้างและซ่อมบำรุง , ฝ่ายเครื่องจักรกล , ฝ่ายสาธารณภัยและสิ่งแวดล้อม)\nถนนเลี่ยงเมือง ตำบลสำราญ อำเภอเมือง จังหวัดขอนแก่น 40000\nโทรศัพท์/โทรสาร 0-4323-5826",
        "id": "457040414340387",
        "location": {
            "city": "ขอนแก่น",
            "street": "ตำบลในเมือง อำเภอเมืองขอนแก่น",
            "zip": "40000"
        },
        "name": "สำนักการช่าง องค์การบริหารส่วนจังหวัดขอนแก่น",
        "phone": "043241440"
    },
    {
        "about": "รับสักร่างกาย ราคาย่อมเยาว์",
        "id": "724663597592277",
        "location": {
            "city": "Bangkok",
            "country": "Thailand",
            "latitude": 16.83441,
            "longitude": 100.31658,
            "street": "63 ถ.บรมไตรโลกนารถ ต.ในเมือง",
            "zip": "65000"
        },
        "name": "LionTiger Tattoo By ช่างสัก เสือสิงห์",
        "phone": "0848208985"
    },
    {
        "about": "รับออเดอร์ส้มตำ ไก่ทอด หมูทอด ลาบ แกงอ่อม(อาหารอีสาน) จัดส่งถึงบ้านหรือมารับเองที่ร้านค่ะ",
        "id": "619159078120550",
        "location": {
            "city": "ปทุมธานี",
            "street": "บ้านใหม่",
            "zip": "12000"
        },
        "name": "ส้มตำนายช่าง",
        "phone": "0818876359"
    },
    {
        "about": "เราคือช่างที่ชำนาญเรื่องสีระบบ_2K",
        "id": "465792183587445",
        "name": "ช่างผสมสีรถยนต์ระบบ_2k"
    },
    {
        "id": "801010980013369",
        "location": {
            "city": "Narathiwat",
            "country": "Thailand",
            "latitude": 6.42444,
            "longitude": 101.824,
            "street": "99"
        },
        "name": "ช่างมะ ยามู ยานยนต์ ช่างสี่พี่น้อง",
        "phone": "0935977617"
    },
    {
        "id": "159405327585010",
        "location": {
            "city": "Bangkok",
            "country": "Thailand",
            "latitude": 13.75395,
            "longitude": 100.50224,
            "street": "สาทร สีลม สุขุมวิท ราชเทวี บางรัก ชิดลม สี่พระยา จุฬา พญาไท เสาวรีย์",
            "zip": "10000"
        },
        "name": "ช่างกุญแจสาทร 083 1111 938",
        "phone": "0831111938"
    },
    {
        "about": "มวยไทย\u0026ไก่ชน",
        "id": "1557692221131599",
        "name": "ช่างพจน์ มวยสยาม"
    },
    {
        "about": "รับงานสแตนเลสและงานเหล็กทุกชนิด",
        "id": "308049149374125",
        "location": {
            "city": "ราชบุรี"
        },
        "name": "ช่างเด่น สแตนเลสเหล็ก",
        "phone": "0863051231"
    },
    {
        "id": "892989124071461",
        "location": {
            "city": "Udon Thani",
            "country": "Thailand",
            "latitude": 17.42029,
            "longitude": 102.7702637,
            "street": "อุดรธานี",
            "zip": "41000"
        },
        "name": "ช่างแต่งหน้ารับปริญา เจ้าสาว งานเลี้ยงทั่วประเทศ",
        "phone": "0962411508"
    },
    {
        "about": "สันรวมช่าง รับทำรถ อีแต๋น งานเหล็กทุกชนิด ",
        "description": "รับทำ รถอีแต๋น กระบะต่อดั้ม อุปกรณ์การเกษตร งานเหล็กทุกชนิด",
        "emails": [
            "likit_wongphen@hotmail.com"
        ],
        "id": "674931949264476",
        "location": {
            "city": "Muang Buriram",
            "country": "Thailand",
            "latitude": 14.941560566858,
            "longitude": 103.08949830177,
            "street": "ทางเข้าอ่างเก็บน้ำห้วยจรเข้มาก",
            "zip": "31140"
        },
        "name": "สันรวมช่าง รับทำรถ อีแต๋น งานเหล็กทุกชนิด",
        "phone": "0899132642"
    },
    {
        "id": "1619712524957247",
        "name": "โรงเรียนบ้านตูบช้าง สำนักงานเขตพื้นที่การศึกษาประถมศึกษาบุรีรัมย์ เขต 1"
    },
    {
        "about": "อยากแรงก็ต้องลองนะครับ\nติดต่อ0843199203ช่างดลครับ",
        "emails": [
            "\u003c\u003cnot-applicable\u003e\u003e"
        ],
        "id": "1377222339169282",
        "location": {
            "city": "ไทย",
            "street": "นครปฐม"
        },
        "name": "ช่างดลท่อสูตรซิ่ง\u0026สบายดีเทอร์โบ",
        "phone": "0843199203"
    },
    {
        "about": "ช่างกุญแจสระบุรี 24 ชั่วโมง รับทำกุญแจฝังชิพ immobilizer โทร086-3334941",
        "id": "661095747280719",
        "name": "ช่างกุญแจสระบุรี รับทำกุญแจฝังชิพ immobilizer ช่างฟลุ๊ค 086-3334941",
        "phone": "0863334941"
    },
    {
        "about": "รับงานสำรวจทุกชนิด ทำสำรวจด้วยGPS RTK Total Station",
        "description": "รับทำแบ่งแปลงที่ดิน สอบเขต รวมโฉนด รับสำรวจทำหมุดวงรอบ หมุดGPS Topo เส้นชั้นความสูงทำระดับดินตัด-ดินถม วางผังวางหมุดเข็ม ทำสำรวจด้วยRTK Total Station",
        "emails": [
            "p_wisai@hotmail.com"
        ],
        "id": "428802737244875",
        "name": "สำนักงานช่างรังวัดเอกชน ทาวน์แววเซอร์เวย์อินเตอร์",
        "phone": "0865743332"
    },
    {
        "id": "575161135937702",
        "location": {
            "city": "Bangkok",
            "country": "Thailand",
            "latitude": 13.713955736668,
            "longitude": 100.30806468085,
            "zip": "74130"
        },
        "name": "ช่างกบ สาย5"
    },
    {
        "about": "จำหน่าย แคร่-สินค้าจากไม้ไผ่ ทั้งปลีกและส่งสนใจติดต่อได้ที่\nTel.094-9704468    083-7409238\nLine: immortal-4468\nFacebook : Immortal Nanza'a",
        "id": "666204283471536",
        "location": {
            "city": "Ubon Ratchathani",
            "country": "Thailand",
            "latitude": 15.13359,
            "longitude": 104.73783,
            "street": "101 หมู่ 19 ต.บุ่งหวาย อ.วารินชำราบ จ.อุบลราชธานี",
            "zip": "34310"
        },
        "name": "ช่างนะการค้า - บุ่งหวายเฟอร์นิเจอร์ไม้ไผ่ ทั้งปลีก-ส่ง",
        "phone": "0949704468"
    },
    {
        "about": "รับทำกุญแจครบวงจร ปลดล็อค ซ่อมแก้ไขทุกกรณี รับทำกุญแจระบบฝังชิพทุกรุ่น 092-8721178",
        "description": "ช่างกุญแจสุพรรณบุรี 24ชั่วโมง 092-8721178",
        "id": "172942059572225",
        "location": {
            "city": "Supan",
            "country": "Thailand",
            "latitude": 14.484318978407,
            "longitude": 100.12354833183,
            "zip": "72000"
        },
        "name": "ช่างกุญแจสุพรรณบุรี โทร092-8721178เปิดรถ บ้าน เซพ ทำกุญแจฝังชิพ",
        "phone": "0928721178"
    },
    {
        "about": "ขายลูก ขายต้น พร้อมคำแนะนำการดูแล",
        "id": "663228940479294",
        "name": "สวนมะนาว ช่างเทอด วัดสุวรรณ บ่อทอง"
    },
    {
        "about": "ช่างกุญแจแหลมฉบัง อ่าวอุดม ศรีราชา บางพระ ชลบุรี",
        "id": "506160492866363",
        "location": {
            "city": "Amphoe Si Racha",
            "country": "Thailand",
            "latitude": 13.1667,
            "longitude": 100.933,
            "street": "4/222หมู่10ตำบลทุ่งสุขลา",
            "zip": "20230"
        },
        "name": "ช่างกุญแจแหลมฉบังชลบุรีบริการนอกสถานที่ตลอด24.ชม0895105569",
        "phone": "0895105569"
    }
]