[
    {
        "about": "นั่งสบายๆ ชิวๆ ต้อง 'สวนชา'\n*ปิดบริการทุกวันเสาร์ค้ะ",
        "id": "325252340944012",
        "location": {
            "city": "Amphoe Muang Songkhla",
            "country": "Thailand",
            "latitude": 7.1704321301841,
            "longitude": 100.61080634726,
            "street": "ซ.ชื่นอารมณ์ ถ.กาญจนวนิช11 ต.เขารูปช้าง อ.เมือง จ.สงขลา",
            "zip": "90000"
        },
        "name": "Tea Garden - สวนชา",
        "phone": "0815423180"
    },
    {
        "about": "ตัวแทนอย่างเป็นทางการของ วิทยาลัยเทคนิคสุพรรณบุรี บน Facebook (The official Page of Suphanburi Technical College)",
        "id": "201179460032648",
        "location": {
            "city": "Suphan Buri",
            "country": "Thailand",
            "latitude": 14.471718270245,
            "longitude": 100.11261660589,
            "street": "ถนนขุนช้าง ตำบลท่าพี่เลี้ยง",
            "zip": "72000"
        },
        "name": "วิทยาลัยเทคนิคสุพรรณบุรี"
    },
    {
        "id": "132755643470864",
        "location": {
            "city": "Bangkok",
            "country": "Thailand",
            "latitude": 13.78582,
            "longitude": 100.5310211,
            "street": "76 ระนอง 2",
            "zip": "10300"
        },
        "name": "โรงเรียนช่างก่อสร้างดุสิต ( ก.ส.ด. )",
        "phone": "0891174397"
    },
    {
        "id": "149378325139131",
        "name": "สมาคมช่างฉีดพลาสติกไทย"
    },
    {
        "about": "แฟนเพจอย่างเป็นทางการช่างกลสุพรรณ ติดตามข่าวสารกีฬาสีโดย ทีมงานสตาฟ ช่างกลสุพรรณ รุ่น35 ",
        "id": "971293652921956",
        "location": {
            "city": "Suphan Buri",
            "country": "Thailand",
            "latitude": 14.4667,
            "longitude": 100.117,
            "street": "วิทยาลัยเทคนิคสุพรรณบุรี",
            "zip": "72000"
        },
        "name": "สีเขียว ช่างกลสุพรรณ"
    },
    {
        "about": "บริการสักลาย แก้ลาย ออกแบบลาย นอกสถานที่",
        "description": "บริการสักลาย ออกแบบลาย แก้ไขลาย รับสักนอกสถานที่ ระยอง-กรุงเทพ อุปกรณ์สักลาย \n\nร้านอยู่ บ้านค่าย ไผ่ล้อม ตรงข้ามร้านลาบยโส\n\n082-2058827 มี่",
        "id": "828165690565692",
        "location": {
            "city": "Rayong",
            "country": "Thailand",
            "street": "111 ม.1",
            "zip": "21120"
        },
        "name": "ช่างสักภูธร ระยอง",
        "phone": "0822058827"
    },
    {
        "about": "ความสำเร็จของมหาวิทยาลัยจะสมบูรณ์ไม่ได้หากขาดการร่วมือของนักศึกษาทุกคน \n",
        "description": "เมื่อคุณได้ก้าวเข้ามาในรั้วน้ำตาลทองแล้วเคยถามตัวเองไหมว่า \"คุณทำอะไรให้มหาวิทยาลัยรึยัง?\"  ",
        "id": "671895316182297",
        "location": {
            "city": "128 ถนนห้วยแก้ว ต.ช้างเผือก อ.เมือง จ.เชียงใหม่ ",
            "street": "มหาวิทยาลัยเทคโนโลยีราชมงคลล้านนา ภาคพายัพ เชียงใหม่",
            "zip": "50300"
        },
        "name": "สโมสรนักศึกษาคณะวิศวกรรมศาสตร์ มทร.ล้านนา ภาคพายัพ - เชียงใหม่"
    },
    {
        "about": "ฝากรูปได้น้ะค้ะ.",
        "id": "480629135447571",
        "name": "หนุ่มช่างสาวช่าง."
    },
    {
        "about": "ช่างภาพ รับถ่ายภาพ งานแต่ง รับปริญญา  พร้อมรับจัดงานแต่งงาน ในและนอกสถานที่  โทร-0857468855 0836618855",
        "description": "รับบริการถ่ายภาพงานต่างๆ : งานแต่ง รับปริญญา งานบวช งานอีเว้นท์...\n(พิธีเช้า) งานหมั่น รดน้ำสังฆ์ บ่ายสีสู่ขวัญ (พิธีเย็น) งานเลี้ยงฉลองมงคลสมรส ,งานบวช งานฉลองขึ้นบ้าใหม่ รับทำวีดีโอพรีเซ็นเทชั่น ในจังหวัดสกลนคร อุดรธานี นครพนม หนองคาย มุกดาหาร กาฬสินธ์ สารคาม ร้อยเอ็ด ขอนแก่น และ จังหวัดอื่นๆ ทั่วประเทศไทย พร้อมรับจัดงานแต่งงาน ในและนอกสถานที่ ",
        "emails": [
            "j2555_@hotmail.com"
        ],
        "id": "110789585744509",
        "location": {
            "street": "162 ถนนเสรีไทย ตำบลธาตุเชิงชุม อำเภอเมือง จังหวัดสกลนคร",
            "zip": "47000"
        },
        "name": "ช่างภาพ สกลนคร for You",
        "phone": "0857468855"
    },
    {
        "about": "จำหน่ายเครื่องประดับหุ้มทองคำแท้  ทั้งปลีกและส่ง",
        "description": "จำหน่ายเครื่องประดับหุ้มทองคำ ฝีมือปราณีต ไม่คัน ไม่ดำ ไม่ลอก ออกแบบโดยช่างผู้ชำนาญ มีแบบให้เลือกหลากหลาย รับประกันคุณภาพ จำหน่าย ทั้งปลีกและส่ง สนใจสินค้า โทร. 08-9260-4884 สาขาโรบินสันกาญจนบุรี Line ID : atdressroom",
        "id": "269846059725111",
        "name": "ช่างทองสุโขทัย01.11.2013"
    },
    {
        "about": "#Offroadช่างยิ้มสุดยอดลำลูกกา",
        "id": "686559708089728",
        "location": {
            "city": "Lam Luk Ka",
            "country": "Thailand",
            "latitude": 13.99219,
            "longitude": 100.78867,
            "street": "ลำลูกกาคลอง6",
            "zip": "12150"
        },
        "name": "ช่างยิ้ม สุดยอดลำลูกกา",
        "phone": "0909719444"
    },
    {
        "about": "รับทำเครื่องหนัง...สไตส์แฮนด์เมด ศิลปหัตถกรรม\nโทร 085-0716695",
        "id": "546905762044726",
        "name": "สมคิด ช่างหนัง๕๗"
    },
    {
        "about": "www.surintech.ac.th\nแผนกวิชาช่างสำรวจ วิทยาลัยเทคนิคสุรินทร์ \n",
        "description": "เปิดสอนระดับ\nประกาศนียบัตรวิชาชีพ\nประกาศนียบัตรวิชาชีพชั้นสูง(สายตรง) 2ปี\nประกาศนียบัตรวิชาชีพชั้นสูง(สาย ม.6) 3ปี",
        "id": "294891027211398",
        "location": {
            "city": "Muang Surin",
            "country": "Thailand",
            "latitude": 14.878675423602,
            "longitude": 103.50048800278,
            "street": "วิทยาลัยเทคนิคสุรินทร์",
            "zip": "32000"
        },
        "name": "แผนกวิชาช่างสำรวจ วิทยาลัยเทคนิคสุรินทร์",
        "phone": "044-511190 ต่อ 411"
    },
    {
        "about": "\"ช่างนัน\" ช่างสักคิ้ว,ขอบตา,ปากชมพู,หัวนมชมพู,ไรผม",
        "id": "1543358412552805",
        "name": "ช่างนัน สักคิ้วตาปาก"
    },
    {
        "about": "เพจทางการเพื่ออัพเดทข้อมูล ข่าวสาร ความเคลื่อนไหวสาขาวิชาประติมากรรม วิทยาลัยเพาะช่าง ",
        "description": "เพจทางการสาขาวิชาประติมากรรม เพื่ออัพเดทข้อมูล ข่าวสาร ความเคลื่อนไหวสาขาวิชาประติมากรรม(สากล) วิทยาลัยเพาะช่าง ให้กับนักศึกษาและนักเรียนและผู้สนใจในศิลปะโดยทั่วไป",
        "id": "757791344308066",
        "location": {
            "city": "Bangkok",
            "country": "Thailand",
            "latitude": 13.744490154721,
            "located_in": "157267391143291",
            "longitude": 100.49915722466
        },
        "name": "วิทยาลัยเพาะช่าง สาขาประติมากรรม"
    },
    {
        "about": "บริการแต่งหน้าทำผมนอกสถานที่\nสนใจติดต่อจองคิวแต่งได้ทาง:\nIn box ของ page\nLine id: wan_kaa\n081-789-6446 พี่วรรณค่ะ",
        "description": "รับแต่งหน้า-ทำผมเจ้าสาว, รับปริญญา, ถ่ายพรีเวดดิ้งในและนอกสถานที่ , ไปงานเลี้ยงสังสรรค์, สมัครงาน, รับสอนแต่งหน้าเดี่ยว และเป็นกรุ๊ปใหญ่\n\nเครื่องสำอางค์แบรนด์ดีมีคุณภาพที่ใช้:  ESTEE LAUDER, M.A.C, BOBBI BROWN, OCC LIP TAR, COVERMARK , NYX , MTI ,MUA, NAKED, URBANDECAY, LAURA MACIER, BENEFIT, ETUDE HOUSE, LUNASOL, LIP TAR, SEPHORA, NYC, STILA, PRIMAVISTA, REVLON, BSC, KMA, RED EARTH, SLEEK,  ETC., \n \nMakeup Artist : Wan\nContact info : 081-789-6446\nID Line: wan_kaa",
        "emails": [
            "wan_nadi@hotmail.com"
        ],
        "id": "301503963266570",
        "name": "ช่างแต่งหน้าทำผม เจ้าสาว รับปริญญา By Wan make up",
        "phone": "66817896446"
    },
    {
        "about": "สโมสรช้างศรีฯ-สุขสวัสดิ์ \nทีมฟุตบอลแชมป์ประเทศไทย\nในการแข่งขันรายการ chang football7",
        "id": "770994036332429",
        "name": "สโมสรช้างศรีฯ-สุขสวัสดิ์sc."
    },
    {
        "id": "128644497328194",
        "name": "สมาคมนิยมช่างศิลป์ ช่างกล ช่างก่อสร้าง"
    },
    {
        "about": "รับสร้างบ้าน อาคาร และ ซ่อมแซม ออกแบบ โดยช่างที่มีประสบการณ์ ราคาไม่แพง",
        "emails": [
            "station_q@hotmail.com"
        ],
        "id": "1573183146293594",
        "location": {
            "city": "Hat Yai",
            "country": "Thailand",
            "latitude": 7.0183843894932,
            "longitude": 100.49411712782,
            "street": "9/1 ซ.สุวรรณพงษี ถ.เพชรเกษม ต.หาดใหญ่ อ.หาดใหญ่ จ.สงขลา",
            "zip": "90110"
        },
        "name": "ช่าง - ก่อสร้างและตกแต่งภายใน หาดใหญ่ สงขลา",
        "phone": "0818200580"
    },
    {
        "about": "รับออกแบบและติดตั้งงานหลังคา กันสาด ต่อเติม ฯลฯ",
        "description": "- รับออกแบบ ติดตั้ง และให้คำปรึกษางานต่อเติม\n- หลังคา กันสาด โพลี่โปร่งแสง/เมทัลชีท/ดีไลท์, รางน้ำฝน, ผ้าใบไวนิล, โครงสร้างไม้/เหล็ก/อลูมิเนียม/สแตนเลส ฯลฯ\n- ตกแต่งภายในและภายนอก พร้อมเสนองานแบบ 3D\n- รับเหมาก่อสร้างตึกและอาคารพาณิชย์",
        "id": "1543457519261271",
        "location": {
            "city": "Khon Kaen",
            "country": "Thailand",
            "latitude": 16.4333,
            "longitude": 102.833,
            "zip": "40000"
        },
        "name": "ส.สมศักดิ์การช่างขอนแก่น หลังคา กันสาด รางน้ำ ประตู รั้ว งานเหล็กทุกชนิด",
        "phone": "084-786-8345, 085-659-0203"
    },
    {
        "about": "ขายมีดพับ เหล็กดามัสกัส เหล็กโมเสส ด้ามเปลือกหอยมุก ด้ามเขากวาง และรับสั่งทำตามแบบต่างๆๆ ",
        "id": "244215869099054",
        "name": "มีดพับช่างสุชาติ แจงทนง"
    },
    {
        "about": "ต้องการสักลาย โดยงานมือ และเพ้นลาย แก้ลาย โทร 061 2266 587ช่างไผ่",
        "id": "1596172547312844",
        "name": "ช่างไผ่สักมือ นคอนศรี"
    },
    {
        "about": "สุดยอดเนื้อวากิวบ้านนายช่าง\nเป็นร้านอาหารสำหรับนักชิมผู้หลงใหลความเหนียวนุ่มของเนื้อ",
        "id": "1491869634388214",
        "location": {
            "city": "Muang Buriram",
            "country": "Thailand",
            "latitude": 14.984586356559,
            "longitude": 103.08016777039,
            "street": "BanNaiChang ตรงข้ามห้างโฮมโปรสาขาบุรีรัมย์",
            "zip": "31000"
        },
        "name": "สุดยอดเนื้อวากิว บ้านนายช่าง",
        "phone": "0818787560"
    },
    {
        "about": "ช่างภาพ ช่างภาพงานแต่ง ช่างถ่ายรูป ตากล้อง ถ่ายภาพแฟชั่น ถ่ายรูปสินค้าต่าง \n",
        "description": "บริการ รับจ้างถ่ายรูปงานแต่ง รับถ่ายรูปงานแต่ง\nรับจ้างถ่ายภาพ รับจ้างภาพงานแต่ง รับจ้างถ่ายภาพสินค้า รับจ้างถ่ายรูปสินค้า รับถ่ายภาพแฟชั่น รับถ่ายรูปแฟชั่น รับจ้างถ่ายภาพแฟชั่น รับจ้างถ่ายรูปแฟชั่น รับจ้างถ่ายรูปอาหาร รับจ้างถ่ายภาพอาหาร รับถ่ายภาพอาหาร รับถ่ายรูปอาหาร รับจ้างถ่ายรูปงานแต่ง รับถ่ายภาพงานแต่ง โทร095-950-9099",
        "emails": [
            "beverstudio@gmail.com"
        ],
        "general_info": "https://www.facebook.com/Beverstudio699/",
        "id": "433237420044460",
        "name": "ช่างภาพ สตูดิโอถ่ายภาพ  ช่างถ่ายวีดีโอ By Beverstudio",
        "phone": "095-950-9099"
    },
    {
        "id": "478037198982657",
        "location": {
            "city": "Muang Buriram",
            "country": "Thailand",
            "latitude": 15.011774323443,
            "longitude": 102.8298147961,
            "street": "ลำปลายมาศ",
            "zip": "31130"
        },
        "name": "สุพัฒน์ การช่าง",
        "phone": "081-4701141"
    }
]