[
    {
        "about": "Tell people more about your page (255 character maximum)",
        "description": "รับล้างไฟหน้ารถยนต์ทุกรุ่น  ซ่อมมองข้าง\nรับจัดอะไหล่ประเภทบอดี้  /หลอดชีนอนแท้/บาหลาดแท้",
        "id": "203092513111493",
        "name": "ไฟหน้ารถยนต์ ไม่สว่างมี ทางแก้ ปรับไฟในรถได้10 ระดับ ทวีชัยการช่าง"
    },
    {
        "about": "รับเหมาไฟฟ้า งานไฟฟ้า ติดต่อ 0869977232 (ช่างชินกฤษ)",
        "description": "ช่างไฟฟ้า รับเหมาไฟฟ้า\nรับประกันไม่มีทิ้งงาน ด้วยประสบการณ์มากกว่า 30 ปี \n\nเดินสายไฟ เดินท่อ EMT, S-LON \nระบบ LAN งานระบบไฟฟ้า ระบบโทรศัพท์ภายใน  ระบบกล้องวงจรปิด \nจานดาวเทียมทุกระบบ เสา TV ติดตั้งและเพิ่มจุดรับชม  \nรับเช็ค+ตรวจสอบระบบ(เช็คโหลด-เช็คช๊อต)  งานเกี่ยวกับ ระบบทุกชนิด งานน้อย งานมาก งานแก้ไข งานเพิ่มเติม อัฟเกรดระบบ \nเหมาตีราคา ทั้ง ค่าแรงรวม และค่าของ ติดต่องาน สอบถามราคา เรียกดูหน้างาน \n\nติดต่อสอบถาม ช่างชินกฤช โทร. 086-9977-232",
        "id": "641207529275062",
        "location": {
            "city": "Bangkok",
            "country": "Thailand",
            "latitude": 13.7522,
            "longitude": 100.494
        },
        "name": "ช่างไฟ ช่างชินกฤช ช่างไฟฟ้า รับเหมาไฟฟ้า เดินสายไฟ",
        "phone": "0869977232"
    },
    {
        "about": "ขายสินค้า ผลิตภัณฑ์จากหมู่บ้านช้างบ้านตากลาง  จังหวัดสุรินทร์",
        "id": "292755567564237",
        "location": {
            "city": "Surin",
            "country": "Thailand",
            "latitude": 15.3105,
            "longitude": 103.62849,
            "street": "180 หมู่ 9 บ้านตากลาง ตำบลกระโพ",
            "zip": "32120"
        },
        "name": "ร้านตะขอช้างบ้านตากลาง สุรินทร์",
        "phone": "0895792996"
    },
    {
        "about": "รับซ่อม ดัดแปลง แลกเปลี่ยน หม้อน้ำรถยนต์ ทุกชนิด",
        "emails": [
            "stada2800@hotmail.com"
        ],
        "id": "533819256662980",
        "location": {
            "city": "Si Racha",
            "country": "Thailand",
            "latitude": 13.158004954285,
            "longitude": 100.92091441162,
            "street": "https://www.google.co.th/maps/place/13.158004954285, 100.92091441162"
        },
        "name": "สิทธิ์การช่าง ศรีราชา - ชลบุรี หม้อน้ำ \u0026 แบตเตอรี่",
        "phone": "0812549568"
    },
    {
        "about": "ใครเรียนสายอาชีพ สนใจฝากรูปลงเพจได้เลยครับ^^ ",
        "id": "614826928635164",
        "name": "สมาคมเด็กช่างหน้าตาดีจังหวัดแพร่"
    },
    {
        "about": "เกิดมาแล้วให้รู้ว่าทุกอย่าง ไม่จีรั่ง ผ่านมาแล้วเดียวก็ผ่านไป",
        "id": "1173012272724959",
        "name": "ช้าง.สาย.บูญ"
    },
    {
        "about": "ช่างกุญแจมวกเหล็ก สระบุรีโทร092-8721178",
        "description": "ช่างกุญแจมวกเหล็ก สระบุรี โทร092-8721178",
        "id": "438302619605348",
        "location": {
            "city": "Ban Muak Lek",
            "country": "Thailand",
            "latitude": 14.655430699804,
            "longitude": 101.19861052105,
            "zip": "18180"
        },
        "name": "ช่างกุญแจสระบุรี มวกเหล็ก โทร092-8721178 เปิดรถ บ้าน เซพ ทำกุญแจฝังชิพ",
        "phone": "0928721178"
    },
    {
        "about": "รับสักลาย แกัลาย ราคาถูกๆๆๆสนใจติดต่อได้ที่0987309340",
        "id": "874961552572209",
        "name": "ช่างแนทTattooขุนช้างคลาสสิกลำปาง"
    },
    {
        "about": "Now, let me enhance your natural beauty. Because, looking gorgeous is the perfect way to start your very special day... Call:080 947 3456",
        "emails": [
            "makeupbypook@hotmail.com"
        ],
        "id": "129764523727850",
        "location": {
            "city": "Bangkok",
            "country": "Thailand",
            "latitude": 13.6994801,
            "longitude": 100.5310287,
            "street": "340/11 Thanon Sathu Pradit Yan Nawa",
            "zip": "10120"
        },
        "name": "ช่างแต่งหน้าเจ้าสาว Pook Makeup Artist",
        "phone": "0809473456"
    },
    {
        "about": "บริการรับติดตั้งแอร์ จานดาวเทียม และซ่อมเครื่องใช้ไฟฟ้าทุกชนิด ในราคามิตรภาพ ",
        "id": "1462623454044499",
        "location": {
            "city": "Lamphun",
            "country": "Thailand",
            "latitude": 18.6068192,
            "longitude": 98.9834824,
            "street": "ศรีบังวัน",
            "zip": "51000"
        },
        "name": "ช่างเอก ลำพูนสยามแอร์",
        "phone": "0899981222"
    },
    {
        "id": "260959330651925",
        "name": "ขุนช้าง สุริทร์ ฮัสกี้"
    },
    {
        "about": "รวมเด็กข่้ช่าง สาย2403 ณ..สายบางน้ำเปรี้ยว.",
        "id": "892554090803792",
        "name": "รวมช่าง สาย 2403 ณ.สายบางน้ำเปรี้ยว"
    },
    {
        "about": "\u003c3 Photographer \n",
        "id": "250905248373541",
        "name": "สมาคมนิยมหนุ่มสาวช่างภาพ"
    },
    {
        "id": "117894268260553",
        "name": "ช่างสายอากาศ"
    },
    {
        "about": "รับเหมางานสแตนเลส งานเหล็กอิตาลี ทุกชนิด ราคาถูก",
        "description": "รับเหมางานสแตนเลส ประตูรั้วสแตนเลส ประตูรั้วสแตนเลสอลูมิเนียมลายไม้ ช่องรั้วสแตนเลส ช่องรั้วสแตนเลสอลูมิเนียมลายไม้ ราวบันไดสแตนเลส ราวกันตกสแตนเลส หลังคาโพลี หลังคาดีไลท์ หลังคาไวนิล ประตูเหล็กอิตาลี ราวกันตกเหล็กอิตาลี",
        "emails": [
            "changstainless@gmail.com"
        ],
        "id": "262639053918726",
        "location": {
            "city": "Bangkok",
            "country": "Thailand",
            "latitude": 13.70426,
            "longitude": 100.40088,
            "street": "รับทำประตูสแตนเลส",
            "zip": "10160"
        },
        "name": "ประตูรั้วสแตนเลส รั้วสแตนเลส ช่างสแตนเลสรับผลิตงานสแตนเลสทุกชนิด",
        "phone": "0865195226"
    },
    {
        "id": "220851271301638",
        "name": "ช่างตั้มบีบีกันสะพานเหล็ก16"
    },
    {
        "about": "ช่างทำกุญแจ ฝีมือดี คุ้มค่า ไว้ใจได้ งานดีเกินราคา ลืม หาย เปลี่ยน ทำเพิ่ม บอกช่างเต๋า",
        "id": "170184296646018",
        "location": {
            "city": "Bangkok",
            "country": "Thailand",
            "latitude": 13.8592997,
            "longitude": 100.8601837,
            "street": "ร่มเกล้า สุวินทวงค์ หนองจอก"
        },
        "name": "ช่างกุญแจ ร่มเกล้า สุวินทวงค์ หนองจอก",
        "phone": "087-2218036"
    },
    {
        "about": "รับทำ ตะแกรงโยก โรงสีข้าว ราคากันเอง",
        "description": "เมืองการช่าง รับทำตะแกรงโยกโรงสีข้าว ทุกขนาด เป็นไม้สัก\n- จัมโบ้    หน้ากว้าง 5ฟุตครึ่ง ช่องละ 5000\n- ธรรมดา หน้ากว้าง 4ฟุตครึ่ง ช่องละ 3800\n- ธรรมดา หน้ากว้าง 3ฟุตครึ่ง ช่องละ 1800\n- ธรรมดา หน้ากว้าง 3ฟุต      ช่องละ 1500",
        "general_info": "รับทำตะแกรงโยก โรงสีข้าว และ อุปกรณ์อื่นๆ โดย ช่างเมือง โคราช ด้วยประสบการณ์ กว่า 50ปี ",
        "id": "581211392005243",
        "location": {
            "city": "Nakhon Ratchasima",
            "country": "Thailand",
            "latitude": 14.959615474096,
            "longitude": 102.06066066906,
            "street": "115",
            "zip": "30000"
        },
        "name": "ตะแกรงโยก โรงสีข้าว ช่างเมือง โคราช",
        "phone": "0844701249"
    },
    {
        "about": "ช่างกุญแจรีโมทฝังชิพ จังหวัดสุพรรณบุรีโทร092-3451148",
        "description": "ช่างกุญแจรีโมทฝังชิพจังหวัด สุพรรณบุรี โทร092-3451148",
        "id": "202790876572509",
        "location": {
            "city": "Supanburi",
            "country": "Thailand",
            "latitude": 14.513761951288,
            "located_in": "468695943145454",
            "longitude": 100.12962501243,
            "zip": "72000"
        },
        "name": "ช่างกุญแจสุพรรณบุรี ทำกุญแจรีโมท กุญแจฝังชิพ24ช.ม092-3451148",
        "phone": "0923451148"
    },
    {
        "about": "087-0376880  ช่างสอน ทำอินเตอร์ รับวางเทอร์โบ ท่อไอเสียม.เจริญ",
        "id": "1584560441784218",
        "name": "DPS  By  ช่างสอน"
    },
    {
        "description": "เพจรวมพลคนไฟฟ้าวิทยาลัยเทคนิคสุพรรณบุรีอย่างเป็นทางการ",
        "id": "502275326515520",
        "location": {
            "city": "Suphan Buri",
            "country": "Thailand",
            "latitude": 14.472186279661,
            "longitude": 100.1123666683,
            "street": "วิทยาลัยเทคนิคสุพรรณบุรี",
            "zip": "72000"
        },
        "name": "แผนกช่างยนต์ - วิทยาลัย เทคนิคสุพรรณบุรี",
        "phone": "035522101"
    },
    {
        "id": "102608889912644",
        "location": {
            "city": "Muang Yala",
            "country": "Thailand",
            "latitude": 6.5474522871974,
            "longitude": 101.2817332557,
            "street": "เมืองยะลา",
            "zip": "95000"
        },
        "name": "สนามช้าง"
    },
    {
        "id": "1510293702556117",
        "location": {
            "latitude": 13.793228813659,
            "longitude": 99.741463608537
        },
        "name": "อู่ใหม่ช่างเบล 69 Skk โรงกลึงสนเขาขลุง Boss Sixnine"
    },
    {
        "id": "230407290395932",
        "location": {
            "city": "Amphoe Chom Thong",
            "country": "Thailand",
            "latitude": 18.3358398157,
            "longitude": 98.676101704
        },
        "name": "บ้านหนองอาบช้าง ต.สบเตี้ย อ.จอมทอง จ.เชียงใหม่"
    },
    {
        "id": "251026505040423",
        "location": {
            "city": "Bangkok",
            "country": "Thailand",
            "latitude": 13.62882458873,
            "longitude": 100.58898784667
        },
        "name": "พิพิธภัณฑ์ช้างสามเศียร สมุทรปราการ"
    }
]