[
    {
        "about": "เพจนี้ยินดีตอนรับลูกพระวิษณุ\nแอดมินมีคนเดียวแล้วนะครับ\n1.แอดฟลุ๊ก เซอร์ ฟลุ๊ก",
        "emails": [
            "\u003c\u003cnot-applicable\u003e\u003e"
        ],
        "id": "414727025287689",
        "location": {
            "street": "https://www.facebook.com/Lighters.33321"
        },
        "name": "สมาคมนิยมเด็กช่างหล่อสวย แห่งประเทศไทย"
    },
    {
        "about": "#.เพจยินดีต้อนรับน้ะ ! ใม่จำเป็นต้องเรียนช่าง ไม่ต้องดัง แค่แต่งช่างก็ลงเพจนี้ได้ ",
        "id": "537751606264454",
        "name": "สมาคมหนุ่มสาว นิยมเด็กแต่งช่าง."
    },
    {
        "about": "รับถ่ายภาพ Pre-Wedding Wedding งานรับปริญญา  086-3773578",
        "emails": [
            "photoman_1987@hotmail.com"
        ],
        "id": "298280546976469",
        "name": "ช่างภาพ ตากล้อง สิทโฟโต้",
        "phone": "0863773578"
    },
    {
        "about": "รับทำสีล้อแม็ก ซ่อมแม็ก ทั้งรถยนต์และมอเตอร์ไซค์\n",
        "description": "รับทำสีล้อแม็กดัดคด ดุ้ง กลึงเงา รับประกันงานคุณภาพครับ\nถ้าสนใจเชิญแวะใช้บริการได้ครับ ขอรับรองว่าทำเองทุกขั้นตอน\nไม่ได้ส่งต่อแน่นอนครับ !!",
        "id": "547844498614858",
        "location": {
            "city": "Bang Bua Thong",
            "country": "Thailand",
            "latitude": 13.912680197222,
            "longitude": 100.43531742859,
            "zip": "11110"
        },
        "name": "ช่างสัณต์ ทำสีล้อแม็ก ซ่อมล้อแม็ก",
        "phone": " 083-4241878"
    },
    {
        "id": "103218186690778",
        "name": "ช่างกิ๊ก ร้านดัฟฟ์ สักลายนครพนม"
    },
    {
        "about": "เกือบ 1 ศตวรรษแห่งความภูมิใจ ห้างทองสารช่างทองคัดสรรสิ่งที่ดีที่สุด เพื่อคุณ\n",
        "description": "ห้างทองสารช่างทองได้ก่อตั้งโดยช่างสารหรือเจ๊กสาร ชาวจีนแผ่นดินใหญ่เดินทางเข้ามาเสื่อผืนหมอนใบ ตั้งแต่ก่อนสงครามโลกครั้งที่ 2 ช่างสารได้เรียนรู้วิธีการทำทองรูปพรรณฝีมือประณีตและได้สอนลูกศิษย์อีกมากมาย (ปัจจุบันคือบรรพบุรุษของร้านทองหลายๆ ร้าน) ช่างสารได้เริ่มเปิดร้านเล็กๆในอำเภอบ้านหมี่ จ ลพบุรี ขายทองรูปพรรณโดยการเน้นคุณภาพและบริการ ไม่เน้นการขยายสาขา \nทางร้านรับสั่งทำงานทองทุกแบบ งานทองโบราณ งานทองทันสมัย งานทองลงยา เน้นคุณภาพทองเต็มเปอร์เซ็นต์และได้มาตรฐานสมาคมค้าทองคำ \n",
        "id": "393309694100565",
        "location": {
            "city": "Ban Mi",
            "country": "Thailand",
            "latitude": 15.04187315043,
            "longitude": 100.54118501481,
            "street": "Tesaban road",
            "zip": "15110"
        },
        "name": "ห้างทองสารช่างทอง",
        "phone": "036-471202"
    },
    {
        "about": "กำลังช้างสารสมุนไพรคุณสัมฤทธิ์ ยาบำรุงร่างกายสำหรับผู้ชาย โทร.043-330584, 091-0637868,  095-6723937",
        "emails": [
            "penprapabhaesaj@hotmail.com"
        ],
        "id": "823803157638414",
        "location": {
            "city": "ขอนแก่น",
            "street": "เพ็ญประภาเภสัช 98/14 ถ.ราษฎร์คนึง ต.ในเมือง อ.เมือง จ.ขอนแก่น 40000",
            "zip": "400000"
        },
        "name": "กำลังช้างสารสมุนไพรคุณสัมฤทธิ์",
        "phone": "043-330584,091-0637868,095-6723937 (Line ID : 043330584) "
    },
    {
        "id": "479428895481235",
        "name": "สมาคมช่างตัดผมชายแห่งประเทศไทย"
    },
    {
        "about": "ขายอะไหล่รถยนต์ มือสอง ของแท้ หลายรุ่น หลายยี่ห้อ : www.manopservice.blogspot.com\nLine ID: manopservice\n",
        "id": "176532105799139",
        "name": "ช่างมานพ อะไหล่รถยนต์ มือสอง ของแท้"
    },
    {
        "about": "ฝากรูปกันได้นะ ลงให้ทุกคนเลยจ้า อยากรู้จัก แอดเฟส แอดมินได้นะ https://www.facebook.com/profile.php?id=100005867442647",
        "id": "183418398484989",
        "name": "สมาคมหนุ่มหล่อสาวสวย-ม.ปลายเด็กช่าง"
    },
    {
        "about": "โทรนัดคิวล่วงหน้าก่อนมาซ่อม ช่างตั้ม ท่าน้ำนนท์ รับซ่อมไอโฟน 0832735824 , 0895010100 , 0846726028",
        "description": "ซ่อมกับร้านช่างช่อมจริงๆ เราเรียนอิเล็กทรอนิกส์ ไดอะแกรมวงจรของมือถือมาครับ",
        "emails": [
            "iphone6.repair.shop@gmail.com"
        ],
        "id": "422008961221660",
        "location": {
            "city": "Muang Nontha Buri",
            "country": "Thailand",
            "latitude": 13.841910180747,
            "longitude": 100.48961162876,
            "street": "Bangsimueang 55",
            "zip": "11000"
        },
        "name": "รับซ่อมไอโฟน ซ่อมไอแพด มือถือสมาร์ทโฟนต่างๆ 0846726028 ช่างตั้ม",
        "phone": "0832735824"
    },
    {
        "about": "โรงเรียนช่างการไฟฟ้าส่วนภูมิภาค เลือดม่วง-ขาวเด่นประจักษ์ในศักดิ์ศรี",
        "description": "โรงเรียนช่างการไฟฟ้าส่วนภูมิภาค\nกำหนดรับสมัครนักเรียนชั้นมัธยมศึกษาปีที่ 3\nเพื่อเข้าศึกษาต่อโรงเรียนช่างการไฟฟ้าส่วนภูมิภาค\nหลักสูตร 3 ปี ประจำปีการศึกษา 2555\nผู้จบการศึกษาจะได้รับ การบรรจุ\nเป็นพนักงานการไฟฟ้าส่วนภูมิภาค\nเพื่อส่งไปปฏิบัติงานด้านไฟฟ้าแรงสูงทั่วประเทศ\nและผู้ที่มีผลการเรียนดี มีโอกาสได้รับทุนการศึกษาต่อ\nในระดับปริญญาตรี คณะวิศวกรรมศาสตร์",
        "emails": [
            "\u003c\u003cnot-applicable\u003e\u003e"
        ],
        "id": "182659991786241",
        "location": {
            "street": "การไฟฟ้าส่วนภูมิภาคสำนักงานใหญ่",
            "zip": "10900"
        },
        "name": "โรงเรียนช่างการไฟฟ้าส่วนภูมิภาค",
        "phone": "\u003c\u003cnot-applicable\u003e\u003e"
    },
    {
        "id": "968235596541578",
        "location": {
            "city": "Bangkok",
            "country": "Thailand",
            "latitude": 13.7522,
            "longitude": 100.494,
            "street": "139-141 ซ.ศูนย์บันเทิงการค้า แขวงคลองจั่น เขตบางกะปิ",
            "zip": "10240"
        },
        "name": "แฮปปี้แลนด์สแตนเลสการช่าง",
        "phone": "081-4937026"
    },
    {
        "about": "บริการรับแต่งหน้านอกสถานที่ โดยช่างแต่งหน้ามืออาชีพ 0865658745",
        "description": "บริการแต่งหน้านอกสถานที่ แต่งหน้ารับปริญญา แต่งหน้าเจ้าสาว แต่งหน้าไปงาน แต่หน้าสมัครแอร์โฮสเตส แต่งหน้าแฟชั่น แฟนซี แต่งหน้าเอฟเฟค ฯลฯ แต่งเกิดทุกแนว สวยเว่อร์ทุกลุค เครื่องสำอางค์แบรนด์เนม สวยเด้งกว่าชาวบ้าน เป๊ะเว่อร์ตลอดวัน",
        "id": "363049630422287",
        "name": "ช่างแต่งหน้า รับแต่งหน้านอกสถานที่",
        "phone": "0865658745"
    },
    {
        "emails": [
            "prateepsri@gmail.com"
        ],
        "id": "452156881531224",
        "location": {
            "city": "Bangkok",
            "country": "Thailand",
            "latitude": 13.782586455249,
            "longitude": 100.43024925613,
            "street": "63/33 หมู่ 4 ถนนทุ่งมังกร แขวงฉิมพลี เขตตลิ่งชัน",
            "zip": "10170"
        },
        "name": "ขาย อุปกรณ์ Diy เครื่องมือช่าง เลื่อย สว่าน ไฟฟ้า ประปา",
        "phone": "086 310 3830"
    },
    {
        "about": "ขายเครื่องมือช่าง อุปกรณ์ช่าง ชุดเครื่องมือช่างพื้นฐาน ช่างยนต์ ช่างไฟฟ้า สว่าน บล๊อกลม",
        "description": "ขายเครื่องมือช่าง อุปกรณ์ช่าง ชุดเครื่องมือช่างพื้นฐาน ช่างยนต์ ช่างไฟฟ้า สว่านไฟฟ้า ดอกสว่าน ประแจแหวน ปากตาย เลื่อย ชุดไขควง เจียรไฟฟ้า บล็อกลม บ๊อก คีม คู้เครื่องมือ กระเป๋าเครื่องมือ เครื่องมือก่อสร้าง bosch, makita, fion star, koche', niko",
        "emails": [
            "sale.siamdiy@gmail.com"
        ],
        "id": "812599768812524",
        "location": {
            "city": "กรุงเทพ",
            "street": "ไอที สแควร์",
            "zip": "10210"
        },
        "name": "เครื่องมือช่าง ขายชุดอุปกรณ์ช่างยนต์ ช่างไฟฟ้า สว่าน ประแจ เลื่อย ไขควง คีม"
    },
    {
        "about": "ออกแบบ ติดตั้ง บำรุงรักษา งานระบบไฟฟ้า ตู้MDB ตู้คอลโทรล โทรศัพท์ อินเตอร์เน็ต กล้องวงจรปิด",
        "description": "รับเหมาติดตั้ง ออกแบบ ระบบไฟฟ้า ช่างไฟฟ้า ซ่อมแซม แก้ไขไฟฟ้า",
        "emails": [
            "min-chumphon_7117@hotmail.com"
        ],
        "id": "1058357217524839",
        "location": {
            "city": "Nonthaburi",
            "country": "Thailand",
            "street": "ประชาราษฎ์12",
            "zip": "11000"
        },
        "name": "ช่างไฟฟ้า รับเหมาระบบไฟฟ้า ซ่อมไฟฟ้า เดินสายไฟ แก้ไขไฟฟ้า ช่างซ่อมไฟฟ้า",
        "phone": " 080-2852657 081-0787237"
    },
    {
        "about": "ต้น สมุทรสาคร",
        "id": "1575898322698737",
        "location": {
            "city": "สมุทรสาคร",
            "street": "78/1ม.4ต.บางกระเจ้าอ.เมืองจ.สมุทรสาคร",
            "zip": "74000"
        },
        "name": "ช่างต้น สมุทรสาคร 0957594574",
        "phone": "0957594574"
    },
    {
        "about": "FACEBOOK : facebook.com/aek.garage\n\n                                     ",
        "emails": [
            "aek_garage@hotmail.com"
        ],
        "id": "214762248558263",
        "location": {
            "city": "Bangkok",
            "country": "Thailand",
            "street": "196 Sutthisan rd.",
            "zip": "10400"
        },
        "name": "Aek GARAGE \u0026 สวนมะลิการช่าง",
        "phone": "085-932-5111"
    },
    {
        "about": "วิทยาลัยเทคโนโลยีสยาม รู้จักในนาม \"ช่างกลสยาม\" โรงเรียนช่างกลเอกชนแห่งแรกของประเทศไทย",
        "description": "รถประจำทางที่ผ่าน\t\nสาย 42 , 57 , 68 , 80 , 81 , 91 , 108 , 146 , 175 และ 189\nปอ.80 , ปอ.91 , ปอ.157 , ปอ.542 , ปอ.509 , ปอ.171 , ปอ.พ.10",
        "id": "226704597368804",
        "location": {
            "city": "Bangkok",
            "country": "Thailand",
            "latitude": 13.738786988415,
            "longitude": 100.47175850642,
            "street": "46/9 ถนนจรัญสนิทวงศ์ แขวงวัดท่าพระ เขตบางกอกใหญ่ กทม. 10600",
            "zip": "10600"
        },
        "name": "วิทยาลัยเทคโนโลยีสยาม(ช่างกลสยาม)",
        "phone": "028640358"
    },
    {
        "about": "ช่างสี โรยตัว รับทาสี อพาร์เม้นต์ ตึก บ้านเก่า   ราคาเป็นกันเอง โทร 0927744588  ช่างเชษฐ์ ",
        "description": "บริการ รับเหมาทาสี บ้าน อพาร์เม้นต์ ทาว์เฮ้าส์ ทาว์โฮม อาคาร สำนักงาน ตึกสูง คอนโด โรยตัว ทาสี เช็ดกระจก งานสีทุกชนิด สนใจติดต่อสอบถาม 0944508694 ช่างเชษฐ์# รับเองทำเอง#",
        "emails": [
            "kham9532@gmail.com"
        ],
        "id": "237586519770577",
        "location": {
            "city": "Bangkok",
            "country": "Thailand",
            "latitude": 13.877246199712,
            "longitude": 100.59845924377,
            "street": "สะพานใหม่ บางเขน"
        },
        "name": "ช่างสี รับทาสี โรยตัว บ้าน ตึกสูง ราคาประหยัด",
        "phone": "0927744588"
    },
    {
        "about": "เพื่อนทุกคนที่รักในสถาบัณ",
        "id": "366457400090493",
        "name": "สมาคมนิยมหนุ่มช่างกลแห่งประเทศไทย\" (สนหชก)"
    },
    {
        "about": "สมาคมนิยมช้างดาวแห่งประเทศไทย (สชดท)",
        "description": "รองเท้าแบรนด์เนมของไทย อยู่คู่กับคนไทยมานาน ใส่ได้ทุกเพศทุกวัย (แต่ไม่ทุกสถานการณ์) กระนั้นความภาคภูมิใจในเอกลักษณ์ก็ยังคงแผ่ซ่านทั่วฝ่าเท้า",
        "id": "288042051254121",
        "name": "สมาคมนิยมช้างดาวแห่งประเทศไทย (สชดท)"
    },
    {
        "about": "เครื่องกลึงมือสองราคาถูก เครื่องตัดพับม้วนเหล็กแผ่น",
        "description": "ขายเครื่องกลึงมือสองราคาถูกครับ\n\nเครื่องกลึงมือสอง ราคาถูก เครื่องตัด พับ ม้วน เหล็กแผ่น อุปกรณ์ช่าง มีดเล็บ k 20 มีดกลึง เม็ดมีด เวอร์เนีย ปั๊มลม ปั๊มน้ำ หัวจับ มอเตอร์ ไส ขัด เจาะ กัด เอ็นมิล ราคาถูกครับ สามารถสอบถามเข้ามาได้เลยครับ\n\nมีบริการส่งถึงที่นะครับ \n\nลองติดต่อสอบถามเข้ามาได้ ไม่ซื้อไม่ว่ากันครับ :]\n\n0904695966 พล\n\nID line phonkub",
        "emails": [
            "phonkub@hotmail.com"
        ],
        "general_info": "เครื่องกลึงมือสอง ราคาถูก เครื่องตัด พับ ม้วน เหล็กแผ่น อุปกรณ์ช่าง มีดเล็บ k 20 มีดกลึง เม็ดมีด เวอร์เนีย ปั๊มลม ปั๊มน้ำ หัวจับ มอเตอร์ ไส ขัด เจาะ กัด เอ็นมิล ราคาถูกครับ สามารถสอบถามเข้ามาได้เลยครับ\n\nมีบริการส่งถึงที่นะครับ ",
        "id": "658373747576759",
        "location": {
            "city": "Nakhon Pathom",
            "country": "Thailand",
            "street": "พุทธมณฑลสาย 7 ถ.ปิ่นเกล้า-นครชัยศรี",
            "zip": "73220"
        },
        "name": "เครื่องกลึงมือสอง ราคาถูก เครื่องตัดพับม้วน เหล็กแผ่น อุปกรณ์ช่าง มีดเล็บ",
        "phone": "0869789296"
    },
    {
        "about": "ช่างแต่งหน้า รับแต่งหน้า ทำผม เจ้าสาว รับปริญญา อีเว้นท์ต่างๆ นอกสถานที่ โดยช่างมืออาชีพ",
        "description": "รับ แต่งหน้า ทำผม เจ้าสาว เพื่อนเจ้าสาว รับปริญญา ถ่ายแบบ และงานอีเว้นท์ต่างๆ นอกสถานที่ ทั้งในและต่างประเทศ\n\nด้วย เครื่องสำอางแบรนด์เนมชั้นนำ+++\n\nChanel, Dior, Laura mercier, Naked, Shu uemura, Etude, Covermark,  Mac, Revlon\n\n** แป้ง รองพื้น แน่นนาน กันน้ำ\n\n** Lip ลิปสติก สีสวยหวาน \n\n/// คิ้วสวยแน่น ไม่ด่าง ใช้ ขนตาปลอม คุณภาพดี ดินสอเขียนขอบตา อายไลเนอร์ เนียนแน่น ทั้งวัน ไม่ไหลเฟิมเลย///\n\n\u003e\u003eงานผม \u003e\u003eเกล้าผม \u003e\u003eงานเปียผม \n\nโดยช่างมืออาชีพ...ราคากันเองนะจ้ะ\n☆•.¸¸.•´¯`•.¸¸.¤☆•.¸¸.•´¯`•.¸¸.¤\n\nสนใจติดต่อ...แอ้\n////// Line ID: Lady_aaa\n+++ Mobile: 086-880-4355\n@@ http://Facebook.com/messages/MakeupDelivery.co.th\n",
        "emails": [
            "makeupbyaaa@gmail.com"
        ],
        "id": "603055426478826",
        "location": {
            "city": "Bangkok",
            "country": "Thailand",
            "street": "Chatuchak",
            "zip": "10900"
        },
        "name": "ช่างแต่งหน้า ทำผม เจ้าสาว รับปริญญา นอกสถานที่ Makeup Delivery",
        "phone": "0868804355"
    }
]