[
    {
        "id": "595551370559926",
        "location": {
            "street": "250ม6ต.หนองปลิงอ.เมืองจ.มหาสารคาม",
            "zip": "44000"
        },
        "name": "ช่างโต้ง สารคาม วัชรินทร์  มอเตอร์ 043-971019",
        "phone": "0850091942"
    },
    {
        "about": "ขายของช่าง",
        "id": "242495742584464",
        "name": "ขายของช่างกลสถาบันต่างๆ"
    },
    {
        "about": "สวนมังคุดการช่าง",
        "id": "758142040864776",
        "location": {
            "city": "Ban Na Yai Am",
            "country": "Thailand",
            "latitude": 12.765177590081,
            "longitude": 101.85617428589,
            "street": "5/3 หมู่ 3 ตำบล นายายอาม อำเภอ นายายอาม จังหวัด จันทบุรี",
            "zip": "22160"
        },
        "name": "สวนมังคุดการช่าง",
        "phone": "0822087085"
    },
    {
        "about": "ขนมหวาน สลิ่ม ทับทิมกรอบ ",
        "description": "ขนมหวานแบบไทยๆหรือที่เรียกว่ารวมมิตร ใส่น้ำแข็งใส ทานกับกะทิอบเทียน นมสด น้ำลำไย หรือจะเป็นน้ำเขียว น้ำแดง นมข้นที่คุ้นเคย มีของให้เลือกใส่มากกว่า 30 รายการ\nทั้งผลไม้ตามฤดูกาล ของเชื่อม จำพวกสลิม ทับทิมกรอบ สาคู ทำเอง สดสะอาด ทุกวัน \nสำหรับเมนูสุขภาพ...\nเครื่องยาจีน ทานกับน้ำลำไย น้ำขิง \n\nเหมือนได้ย้อนวันวาน",
        "id": "461276963946256",
        "location": {
            "city": "เชียงใหม่",
            "street": "169 ถ.ช้างม่อย ต.ช้างม่อย",
            "zip": "50300"
        },
        "name": "ขนมหวานช้างม่อย  ของนายสกาแมน",
        "phone": "0896369628"
    },
    {
        "about": "รับเดินสายแลน(lan) รับเดินสายไฟฟ้า สายโทรศัพท์ สายเคเบิ้ลTV, ติดตั้งระบบ CCTV\n086-7821286",
        "description": "รับเดินสายไฟฟ้า รับเดินสายแลน(lan) สายโทรศัพท์ สายเคเบิ้ลTV, ติดตั้งระบบ CCTV , \nเพิ่มจุด และ แก้ไข ปลั๊กไฟ, ปลั๊กแลน(lan)และปลั๊กโทรศัพท์ , \n wifi ,lan สำหรับบริษัท โรงงาน นิคมอุตสาหกรรม สำนักงาน ห้างร้าน ร้านอินเตอร์เน็ท-เกมส์ หมู่บ้าน และ ตามบ้าน\nใน กทม และ ตจว.\n\nรับเดินสาย lan , รับเดินสายแลน ,ติดตั้งระบบ lan , เดินสาย lan ,บริการเดินสายแลน , เดินสายแลน , บริการรับเดินสาย lan , ติดตั้งสาย lan ,  รับเดินแลน\n\nทีมช่างเดินสายแลน,ช่างเดินสายโทรศัพท์,ช่างไฟฟ้า\nรับเดินสายโทรศัพท์,รับเดินสายไฟ,รับเดินสายแลน,รับเดินสายCCTV\n\nติดต่อ 0867821286\nดิเรก",
        "emails": [
            "bkkexpertlink@gmail.com"
        ],
        "id": "616970985075439",
        "location": {
            "city": "Bangkok",
            "country": "Thailand",
            "latitude": 13.89633,
            "longitude": 100.63934,
            "street": "สายไหม กทมฺ10220",
            "zip": "10220"
        },
        "name": "ช่างไฟฟ้า ช่างโทรศัพท์ รับเดินสายแลน ไฟฟ้าเร่งด่วน",
        "phone": "0867821286"
    },
    {
        "about": "สูตรดารา มาตราฐานCeleb ให้บริการ24ชั่วโมง line:hanhyera2  โทร .081-565-5464",
        "id": "1472600142999741",
        "name": "ช่างแต่งหน้าณเกศ สูตรดารา มาตราฐานCeleb",
        "phone": "0815655464"
    },
    {
        "about": "สมาคมคนช่างแคร์",
        "id": "503018063116756",
        "name": "สมาคมคนช่างแคร์"
    },
    {
        "about": "สนใจติดต่อ 0830201001",
        "id": "325019167570410",
        "name": "ช่างนึก สระบุรี แคมซิ่ง 0830201001"
    },
    {
        "about": "รับสักลาย",
        "id": "696443467035713",
        "location": {
            "city": "Bangkok",
            "country": "Thailand",
            "latitude": 13.69877,
            "longitude": 100.52258,
            "street": "2/112 ถ.จันทร์ ซ.30 เขตสาทร",
            "zip": "10120"
        },
        "name": "สักลายช่างหนึ่ง",
        "phone": "0811160700"
    },
    {
        "about": "เพจนี้สร้างขึ้นไม่ได้มีเจตนาแอบแฝงใดๆ\n",
        "id": "366393010228918",
        "name": "ทีมช้างศึกและสโมสร"
    },
    {
        "about": "สนับสนุน โดย ร้านเวดดิ้งพีย์ สตูดิโอแอนด์โฟโต้",
        "description": "นำทีมโดย \nพี่นัท มาเธอร์ฟักเกอร์ Happinessof Termite\nธีร์ เอ็ดกี้ S'Tee Jittipat\nเกมส์ ธาตุไฟ Khun Chaplu\nแคมป์ แท็งค์น้ำ Camp Kittipong\nไอซ์ แฟร์เขียว Pramongkhon Hongchai\nอั๋น DJหนังหรรมเรดิโอ Korrasut Hanjitt\nตั้ว รัวรีไม่ยั้ง Tuacouldy Coolboy\n\nบริการรับถ่ายภาพ ถ่ายรูป งานวิวาห์ งานแต่งงาน Wedding Pre-wedding รับปริญญา งานบวช งานพิธีต่างๆ จังหวัดแพร่ เขตภาคเหนือทุกจังหวัด และทั่วประเทศ งานพิธีต่างๆโดยช่างผู้ชำนาญงาน โทร 086-2098552 คุณนัท\n\n",
        "emails": [
            "nattaxi606@gmail.com"
        ],
        "id": "335206096663439",
        "location": {
            "city": "Phrea",
            "country": "Thailand",
            "zip": "54000"
        },
        "name": "ช่างภาพแพร่ทีมงานหนางฮาม สตูดิโอ",
        "phone": "0862098552"
    },
    {
        "about": "เพื่อความเพลิดเพลินใจ เพื่อความสนุกสนาน เพื่อความบันเทิงเท่านั้น",
        "description": "เพจนี้จัดทำขึ้นมาเพื่อแต่งฟิคเท่านั้น เพจเราไม่เจตนาร้ายใดๆในการทำร้ายชื่อเสียงของนักฟุตบอลทุกๆคน เพจนี้จัดขึ้นมาเป็นการมโนล้วน เพจนี้ไม่ได้คิดทำร้ายใครเลย คนอ่านโปรดใช้วิจารญาณในการอ่านฟิคด้วยนะค่ะ\n",
        "id": "1566273863614661",
        "name": "ฟิคจิ้นช้างศึกและสโมสร"
    },
    {
        "about": "รับแต่งหน้าทำผมเจ้าสาว รับปริญญา ออกงาน \nMakeup \u0026 Hairstylist by Nui Blissmore\nTel : 091-7046420\nwww.makeupbynuiblissmore.com\n",
        "description": "รับแต่งหน้าทำผมเจ้าสาว รับปริญญา ออกงาน \nMakeup \u0026 Hairstylist by Nui Blissmore\nTel : 091-7046420",
        "id": "548698991934796",
        "location": {
            "city": "Pathum Thani",
            "country": "Thailand",
            "street": "ลำลูกกาคลองสอง อ.ลำลูกกา",
            "zip": "12130"
        },
        "name": "Makeup by Nui Blissmore ช่างแต่งหน้าทำผมนอกสถานที่ Tel.091-7046420",
        "phone": "091-7046420"
    },
    {
        "description": "กลุ่มดาวช่างแกะสลัก เป็นกลุ่มดาวหนึ่งทางซีกโลกใต้ ตั้งชื่อโดยนิโกลา-ลุย เดอ ลากาย ในกลางคริสต์ศตวรรษที่ 18",
        "id": "947818258565969",
        "name": "Sculptor (constellation)"
    },
    {
        "description": "โรงเรียนอาชีวศึกษาเอกชน",
        "emails": [
            "ktec2010@gmail.com"
        ],
        "id": "130197097048595",
        "location": {
            "street": "702 ถนนกีฬากลาง ตำบลในเมือง อำเภอเมือง",
            "zip": "30000"
        },
        "name": "โรงเรียนเทคโนโลยี่ช่างกลพณิชยการนครราชสีมา(ช.พ.น.)",
        "phone": "044-924113"
    },
    {
        "about": "จำหน่ายอุปกรณ์การเกษตรและเครื่องมือช่างทุกชนิด",
        "description": "จำหน่าย อุปกรณ์การเกษตรทุกชนิด อาทิ เช่น เครื่องฉีดยา พ่นยา เครื่องหว่านปุ๋ย ปั้มน้ำ3สูบ ปั้มเพลาลอย ปั้มหอยโข่งซิลเหล็ก เครื่องยนต์เบนซิน ดีเซล เครื่องตัดหญ้า ปั้มชนเครื่อง ปั้มแช่ ไดโว่ ปั้มจุ่ม ปั้มเหล็กหล่อ ปั้มหอย ปั้มหอยโข่งไฟฟ้า ปั้มชัก เครื่องปั่นไฟ ปั้มลม ปั้มลมโรตารี่ ตู้ชาร์ตแบตเตอรี่ ตู้เชื่อมอินเวอเตอร์ ตู้เชื่อมคอยทองแดง มอเตอร์ เครื่องเจาะดิน เครื่องขุดหลุม เครื่องแต่งกิ่งต้นไม้ น้ำมันเครื่อง จารบี ท่อพีวีซี  สายพาน สายยาง สายดูด แบตเตอรี่ น้ำกลั่น \nเครื่องมือช่างทุกชนิด Maktec Makita Bosch และ อุปกรณ์ Hardware ทุกชนิด\n",
        "emails": [
            "peerapol_12@hotmail.com"
        ],
        "id": "294716327205184",
        "location": {
            "city": "กำแพงเพชร",
            "street": "202/13 ม.3 ต.นครชุม อ.เมือง",
            "zip": "62000"
        },
        "name": "ร้านสกุลดีเจริญพานิช จำหน่ายอุปกรณ์การเกษตรและเครื่องมือช่างทุกชนิด",
        "phone": "055-799443 091-8438812 line ID:sakuldee999"
    },
    {
        "about": "เทศบาลเมืองเขารูปช้าง จังหวัดสงขลา",
        "id": "1564377617128568",
        "location": {
            "city": "เมืองสงขลา",
            "street": "333  กาญจนวนิช",
            "zip": "90000"
        },
        "name": "เทศบาลเมืองเขารูปช้าง จังหวัดสงขลา",
        "phone": "074302555"
    },
    {
        "about": "เสื้อสายเดี่ยวสวยๆราคาไม่แพงตัดเย็บด้วยผ้าคุณะภาพสินค้ารับประกันความพอใจ",
        "id": "386339051561081",
        "name": "เสื้อสายเดี่ยวสวยๆpicha brand ตัดเย็บด้วยช่างทุกตัวใส่สบายราคาไม่แพงค่ะ"
    },
    {
        "about": "Criminal Reporter \u0026 Photographer Association of Thailand",
        "id": "359951730815569",
        "name": "สมาคมผู้สื่อข่าวและช่างภาพอาชญากรรมแห่งประเทศไทย"
    },
    {
        "about": "รับทาสี อาคาร ตึก บ้าน คอนโด โรงงาน ทุกประเภท ทั่วประเทศ ประสบการณ์กว่า 50 ปี\n0838998666",
        "description": "รับทาสี อาคาร ตึก บ้าน คอนโด โรงงาน ทุกประเภท  \nโดยผู้เชี่ยวชาญเรื่องสี ประสบการณ์กว่า 50 ปี โดยมีขั้นตอนอย่างถูกวิธี\n0838998666",
        "emails": [
            "nopthavorn@gmail.com"
        ],
        "id": "783424308355003",
        "location": {
            "city": "กรุงเทพฯ",
            "zip": "10120"
        },
        "name": "ช่างสี",
        "phone": "0838998666"
    },
    {
        "about": "ปฐมพยาบาลเบื้องต้น",
        "id": "233627226790131",
        "location": {
            "street": "ม.7 ต.ช้างกลาง อ.ช้างกลาง จ.นครศรีฯ",
            "zip": "80250"
        },
        "name": "บรรเทาสาธารณภัยช้างกลาง",
        "phone": "0895884460"
    },
    {
        "about": "Art is All Around Us",
        "id": "259963587426743",
        "name": "วิทยาลัยช่างศิลปสุพรรณบุรี"
    },
    {
        "about": "ร้านชนะชัยการช่าง ส่งจักรยานทุกชนิด (ณ อรัญ) ",
        "description": "ร้านชนะชัยการช่าง ส่งจักรยานทุกชนิด (ณ อรัญ)\nเรามีจักรยานทุกชนิดให้คุณจับจองเป็นเจ้าของ\nในราคาถูกที่คุณไม่สามารถปฎิเสธการเป็นเจ้าของได้\nรักคันไหน ชอบคันใหน รีบโทรจองด่วน ก่อนที่จะหมดสต็อก\nรับประกันความพอใจ \nสนใจสั่งซื้อ ติดต่อ คุณ ภาคภูมิ งามวิไลพันธ์(ภูมิ)\nโทร. 058-1128656\nบริการส่งสินค้าทั่วประเทศ ถูกกว่าLa shopแน่นอน และมีอะไหล่ตรงจากLA",
        "emails": [
            "thaibubu@hotmail.com"
        ],
        "id": "173283452803546",
        "location": {
            "city": "Aranyaprathet",
            "country": "Thailand",
            "street": "Aranyaprathet",
            "zip": "27120"
        },
        "name": "ร้านชนะชัยการช่าง ส่งจักรยานทุกชนิด",
        "phone": "0851128656"
    },
    {
        "id": "177716509015995",
        "location": {
            "city": "Ubon Ratchathani",
            "country": "Thailand",
            "latitude": 15.12275104925,
            "longitude": 104.898790093,
            "street": "13 ม. 9 ต. ธาตุ อ. วารินชำราบ",
            "zip": "34190"
        },
        "name": "ร้านช่างสำราญ มออุบล",
        "phone": "089-2796621, 081-1852922,086-4486734,081-7603939"
    },
    {
        "about": "เหล่าช่างภาพ ผู้แสวงหา ข้าวทานไปวันๆ",
        "description": "พวกเราอาจเป็นจุดต่ำสุดของห่วงโซ่อาหาร สำหรับเพจนี้ เรามาเล่นอะไรคลายเครียดกันนะคะ",
        "id": "333777006718099",
        "name": "สิ่งมีชีวิต ที่เรียกว่าช่างภาพ"
    }
]