[
    {
        "about": "ช่างแต่งหน้า ทำผม ราคาถูก แต่งหน้ารับปริญญา แต่งหน้าเจ้าสาว แต่งหน้างานพรีเวดดิ้ง",
        "description": "ช่างแต่งหน้า ทำผม ราคาถูก งานแต่งหน้ารับปริญญา งานแต่งหน้าเจ้าสาว \nสวยใส จัดเต็ม ในราคาถูก บริการด้วยผลงานการแต่งหน้า ทำผม ที่มีคุณภาพค่ะ \n   บริการแต่งหน้า ทำผม ราคาถูก โดย ช่างแต่งหน้า อาร์ต \n- แต่งหน้ารับปริญญา \n- แต่งหน้าเจ้าสาว \n- แต่งหน้างานพรีเวดดิ้ง\n- งานบายเนียร์ \n- แต่งหน้าพริ๊ตตี้ \n- แต่งหน้าสมัครแอร์ เชียร์ลีดเดอร์  อีเว้นท์ \n- แต่งหน้าออกงานหรือโอกาสพิเศษต่างๆ \n= = = = = = = = = = = = = = = = = = = = = = \nใช้เครื่องสำอางค์ แบรนด์เนม ที่ดีมีคุณภาพ ระดับ เคานเตอร์แบรนด์\nและใช้ของแท้เท่านั้น ซึ่งได้รับความนิยมจากช่างแต่งหน้าชั้นนำ \nเพื่อให้เหมาะสมกับสภาพผิวของลูกค้าแต่ละท่านค่ะ \n= = = = = = = = = = = = = = = = = = = = = = \n+ + + การจองคิว แต่งหน้า + + + \nติดต่อสอบถาม ช่างแต่งหน้า อาร์ต เพื่อเช็คคิวว่าง\nได้ที่เบอร์ 098-980-6499  \nLine ID : art_makeup\n= = = = = = = = = = = = = = = = = = = = = = \n  ชมผลงานและรายละเอียดต่างๆของเราได้ที่\nแฟนเพจ : http://www.facebook.com/artmakeupp \nเวบไซต์ : http://artpromakeup.blogspot.com/\n= = = = = = = = = = = = = = = = = = = = = = ",
        "emails": [
            "art.make.up@hotmail.com"
        ],
        "id": "727756403952914",
        "location": {
            "city": "Bangkok",
            "country": "Thailand",
            "latitude": 13.8138504,
            "longitude": 100.7268524,
            "street": "สีหบุรานุกิจ13 มีนบุรี",
            "zip": "10510"
        },
        "name": "ช่างแต่งหน้า รับแต่งหน้าทำผม ทั้งในและนอกสถานที่",
        "phone": "098-980-6499"
    },
    {
        "about": "รับเช่าพระเครื่องสายหลวงปู่ทวดและพระใหม่ทุกหลวงพ่อ",
        "description": "รับเช่าหลวงปู่ทวดพระใหม่ ตั้งแต่ปี 53-ปัจจุบัน\nรวมถึงพระใหม่ยอดนิยมทุกหลวงพ่อครับ\nหาค่านมลูกค่าเทอมลูกอยากใช้เงิน\nถ่ายรูปพระแบบชัดๆเสนอมาที่อินบ๊อกได้เลยครับ\nหรือโทร 0882303762 ปอนด์ครับ",
        "id": "1465392923709866",
        "location": {
            "city": "Nonthaburi",
            "country": "Thailand",
            "latitude": 13.9,
            "longitude": 100.483,
            "zip": "11000"
        },
        "name": "รับเช่าพระเครื่องสายหลวงปู่ทวดวัดช้างไห้และพระใหม่ยอดนิยมทุกหลวงพ่อ",
        "phone": "088-230-3762 ปอนด์ "
    },
    {
        "about": "Kimmie Makeup บริการแต่งหน้าเจ้าสาว รับปริญญา พรีเวดดิ้ง แต่งหน้าไปงานเลี้ยงต่าง ๆ \n",
        "description": "บริการแต่งหน้าเจ้าสาว รับปริญญา พรีเวดดิ้ง แต่งหน้าไปงานเลี้ยงต่าง ๆ \nด้วยเครื่องสำอางคุณภาพดี ติดทนตลอดวัน ในราคาที่คุณสัมผัสได้\nติดต่อสอบถาม จองคิวทาง inbox,Line,Tel ได้เลยจ้า",
        "emails": [
            "kalyanee_1@hotmail.com"
        ],
        "id": "628975220476664",
        "location": {
            "city": "Bangkok",
            "country": "Thailand",
            "latitude": 13.60378,
            "longitude": 100.86336,
            "street": "เอแบค บางนา",
            "zip": "10560"
        },
        "name": "ช่างแต่งหน้ามืออาชีพ รับแต่งหน้าทำผมนอกสถานที่ By Kimmie Makeup",
        "phone": "0814861318"
    },
    {
        "about": "ช่างชินคลองสิบสี่",
        "id": "426350610827521",
        "name": "ช่างชินคลองสิบสี่"
    },
    {
        "id": "152332911621500",
        "name": "ช่างสำรวจ"
    },
    {
        "about": "รีสอร์ทติดทะเล ณ หาดคลองพร้าว เกาะช้าง จ.ตราด",
        "description": "บริการห้องพักที่แบบโรงแรมและบังกะโล กว่า 200 ห้อง ยินดีต้อนรับท่านทั้งการักผ่อนแบบครอบครัว, แพ็คเก็จทัวร์ โดยเฉพาะกลุ่มจัดเลี้ยง-สัมมนา ทั้งชาวไทยและต่างชาติ ด้วยห้องจัดประชุม-สัมมนาที่ทันสมัย -ใหญ่ที่สุดบนเกาะช้าง ",
        "emails": [
            "rooksgroup@hotmail.com"
        ],
        "general_info": "รีสอร์ทริมทะเล ณ หาดคลองพร้าว เกาะช้าง จ.ตราด",
        "id": "441243729234069",
        "location": {
            "city": "Amphoe Ko Chang",
            "country": "Thailand",
            "latitude": 12.065712449487,
            "longitude": 102.28462225461,
            "street": "39 ม.4 ต.เกาะช้าง อ.เกาะช้าง",
            "zip": "23170"
        },
        "name": "เกาะช้างรีสอร์ท แอนด์ สปา",
        "phone": "039-619-513"
    },
    {
        "emails": [
            "nicesnack24@gmail.com"
        ],
        "id": "213476378779204",
        "location": {
            "street": "ย่านมีนบุรี",
            "zip": "10520"
        },
        "name": "กลอนช่างทุกสถาบัน"
    },
    {
        "about": "ที่พักโฮมสเตย์ อาหารทะเลสดๆ ซีฟูดส์ปิ้งย่างไม่อั้น กิจกรรมดำน้ำ ตกหมึก",
        "description": "แพ็คเกจทัวร์เกาะช้าง ที่พัก อาหาร กิจกรรมดำน้ำ ตกหมึก\n2 วัน 1 คืน ท่าน ละ1640 บาท อาหาร 4 มื้อ พร้อมกิจกรรม ดำน้ำหรือตกหมึก\n3วัน  2คืน  ท่านละ 2840 บาท อาหาร 6 มื้อ พร้อมกิจกรรม ดำน้ำและตกหมึก\nแพ็คเกจดำน้ำเกาะช้าง 4 เกาะ อาหาร อุปกรณ์ดำน้ำ เพียง 550 บาท/ท่าน\n \n",
        "emails": [
            "khaonok-homestay@hotmail.com"
        ],
        "id": "285341478249717",
        "location": {
            "city": "ตราด",
            "street": "50 หมู่ 1 ต.เกาะช้างใต้ อ.เกาะช้าง",
            "zip": "23170"
        },
        "name": "เขานอกโฮมสเตย์ เกาะช้าง",
        "phone": "0871419871"
    },
    {
        "about": "Department of fineart sculpture Thailand",
        "id": "604785186276068",
        "location": {
            "city": "นครปฐม",
            "street": "ศาลายา",
            "zip": "73170"
        },
        "name": "ประติมากรรม สำนักช่างสิบหมู่ กรมศิลปากร"
    },
    {
        "id": "168061079908888",
        "name": "ช่างสำรวจ"
    },
    {
        "about": "บริการรับถ่ายภาพ : รับถ่ายภาพปริญญาวันซ้อม |รับจริง |นอกรอบ\nเบอร์มือถือ 081-983-0015\nLine ID: maxphotostory\nแม๊ก ",
        "id": "280338292139707",
        "name": "ช่างภาพรับปริญญา หาช่างภาพ ช่างภาพแม๊กโฟโต้สตอรี่",
        "phone": "081-983-0015"
    },
    {
        "about": "ตารางคอนเสิร์ตงานช้าง  งานกาชาด  สุรินทร์  งานช้าง  Amazing Surin Elephant มหัศจรรย์งานช้างสุรินทร์",
        "description": "ตารางคอนเสิร์ต  งานช้าง งานกาชาด  สุรินทร์  คอนเสิร์ตงานช้าง  งานกาชาดสุรินทร์  Amazing Surin Elephant มหัศจรรย์งานช้างสุรินทร์",
        "id": "129455477207086",
        "location": {
            "street": "สนามกีฬาศรีณรงค์",
            "zip": "32000"
        },
        "name": "Amazing Surin Elephant มหัศจรรย์งานช้างสุรินทร์"
    },
    {
        "id": "304714653031344",
        "name": "สถาบันกวดวิชา สอบเข้า เตรียมทหาร นายร้อย 4 เหล่า ช่างการไฟฟ้า gct"
    },
    {
        "about": " ดัดแปลงเครื่องยนต์ ซ่อมเกียร์cvtมิตรซู ช่วงล่าง เบรค คลัช และงานมิตรซู โดยตรงคัฟผม ",
        "id": "1440072556285968",
        "location": {
            "city": "Bangkok",
            "country": "Thailand",
            "latitude": 13.8271704,
            "longitude": 100.5194321,
            "street": "10/39ถ.วงสว่างค์ เเขวงบางซื่อ",
            "zip": "10800"
        },
        "name": "ช่างออฟ มิตรซู อู่สมศักดิ์ พระรามเจ็ด",
        "phone": "0988805851"
    },
    {
        "about": "เปิดกุญแจบ้าน โดยไม่เจาะ ไม่รื้อ ",
        "id": "1183305471686062",
        "location": {
            "city": "Suphan Buri",
            "country": "Thailand"
        },
        "name": "ช่างกุญแจ เปิดรถยนต์ สุพรรณบุรีอู่ทอง0818525235",
        "phone": "0818525235"
    },
    {
        "emails": [
            "ladawan_tt@hotmail.com"
        ],
        "id": "1615650045319635",
        "location": {
            "city": "Bangkok",
            "country": "Thailand",
            "latitude": 13.7522,
            "longitude": 100.494,
            "street": "137 ถ.เลียบคลองภาษีเจริญฝั่งเหนือซอย6 แขวงหนองแขม เขตหนองแขม กทม",
            "zip": "10160"
        },
        "name": "ช่างมิ้ว รับทำสีมอเตอร์ไซค์ด้วยระบบ2kแท้ทั้งระบบ096-1324442",
        "phone": "096-1324442,096-1266235"
    },
    {
        "about": "ช่างกุญแจ ",
        "emails": [
            "olekey1@gmail.com"
        ],
        "id": "157145907825560",
        "location": {
            "city": "Bangkok",
            "country": "Thailand",
            "latitude": 13.677432275375,
            "longitude": 100.63858521617,
            "zip": "10260"
        },
        "name": "ช่างกุญแจ สุขุมวิท ศรีนครินทร์ 084 356 8948",
        "phone": "084-356-8948"
    },
    {
        "about": "สอนแต่งหน้า รับแต่งหน้า โดย อ.ตุ๊ก          www.ajarntook.pantown.com",
        "description": "สอนแต่งหน้าสำหรับตนเอง เรียนแต่งหน้าเพื่อการประกอบอาชีพ\nรับแต่งหน้า - ทำผม รับปริญญา เจ้าสาว ไปงาน โดย อ.ตุ๊ก ",
        "emails": [
            "ajarntook@gmail.com"
        ],
        "id": "250117815000406",
        "location": {
            "street": "ซ.ลาดพร้าว 64  กรุงเทพ"
        },
        "name": "ช่างแต่งหน้าเจ้าสาว ช่างแต่งหน้ารับปริญญา",
        "phone": "0863212624"
    },
    {
        "about": "ชอบคู่ไหนบอกได้เลยนะครับ ๆ (อย่าเอาเรื่องสถาบันมาเกี่ยวข้องในเพจ)",
        "id": "486028948086754",
        "location": {
            "city": "Nonthaburi",
            "country": "Thailand",
            "zip": "11000"
        },
        "name": "สมาคมนิยมรองเท้าเด็กช่าง",
        "phone": "เอาไว้ชอบเเล้วค่อยมาขอ"
    },
    {
        "id": "129167627111578",
        "name": "สถาบันเทคโนโลยีราชมงคล วิทยาเขตเพาะช่าง"
    },
    {
        "about": "จำหน่ายเครื่องมือช่างทุกชนิด ด้วยประสบการณ์กว่่า 10 ปี\n",
        "id": "664314966970348",
        "location": {
            "city": "Bangkok",
            "country": "Thailand",
            "street": "371/13 Sripraya Bangrak",
            "zip": "10500"
        },
        "name": "ห้าสิบดาว เครื่องมือช่าง",
        "phone": "0820433688"
    },
    {
        "about": "กางเกงผ้าพิมพ์ลายช้าง กางเกงแม้ว ฮาเร็ม ชุดเดรส สินค้าจากโรงงาน ทั้งขายปลีก-ส่ง ",
        "description": "ขายปลีก และ ขายส่ง กางเกงผ้าพิมพ์ลายช้าง กางเกงแม้ว ฮาเร็ม ชุดเดรส สินค้าจากโรงงาน จ.เชียงใหม่ รับทำตาม oder.\nเนื้อผ้า COTTON. ผ้าพริ้ว ใส่สบาย ไม่ร้อน เนื้อผ้านุ่มมากมีกระเป๋า มีหลายลาย หลากสีสัน\nฟรีไซส์ : รอบเอว 26\"- 42\" ยาว 42\"\nสนใจสั่งซื้อได้ ที่ 092-2604645\nLINE : bent0493\n",
        "id": "709244065818616",
        "name": "กางเกงผ้าพิมพ์ลายช้าง เอวสม็อค"
    },
    {
        "id": "315855398608168",
        "location": {
            "city": "ดอนเมือง  กรุงเทพฯ",
            "street": "๔๒๕ ทุ่งสีกัน"
        },
        "name": "สมาคมศิษย์เก่าวิทยาลัยเทคนิคดอนเมือง - การช่างอินทราชัย"
    },
    {
        "about": "ก่อตั้งเพจนี้เพื่อให้ทุกคนในสไตล์ นิยม แนวช่างทุกคนนะเด็กช่าง ศิลป์ พาณิช ลงได้หมดนะคับ",
        "id": "529407653783442",
        "location": {
            "city": "กรุงเทพ",
            "street": "กรุงเทพ",
            "zip": "10150"
        },
        "name": "สมาคมเด็กช่างไทย 2499",
        "phone": "0897702753"
    },
    {
        "about": "เปิดสอนเกล้าผมร่วมสมัยแบบตัวต่อตัว และรับแต่งหน้าทำผมโดยทีมช่างหน้าช่างผมมืออาชีพค่ะ",
        "id": "623284741138691",
        "location": {
            "city": "Bangkok",
            "country": "Thailand",
            "latitude": 13.779563518654,
            "longitude": 100.56345704077,
            "street": "121/2  ประชาสงเคราะห์ 45 แขวงดินแดง เขตดินแดง",
            "zip": "10400"
        },
        "name": "รับสอนเกล้าผม แบบสมัยนิยม ชมรมฟรุ้งฟริ้งคลับ - สำหรับช่างผมอินดี้",
        "phone": "0876762792"
    }
]