[
    {
        "emails": [
            "limitlhim@hotmail.com"
        ],
        "id": "434380850033654",
        "name": "สกุลช่าง",
        "phone": "0890786223"
    },
    {
        "id": "222610834609678",
        "location": {
            "city": "กรุงเทพมหานคร",
            "zip": "10300"
        },
        "name": "ช่างสำรวจ วิทยาลัยเทคนิคดุสิต",
        "phone": "0-2241-1317 ต่อ 2104"
    },
    {
        "about": "เรือนำเที่ยวเกาะช้าง ดำน้ำดูปะการัง ตกปลา ตกหมึกโดยไต๋เป็ดเกาะช้าง ใบอนุญาตเลขที่ 13/01349",
        "description": "บริการที่พักแบบโฮมสเตย์  โรงแรม รีสอร์ท หรือ บังกะโล และให้เช่าเรือเหมาลำ  ดำน้ำดูปะการัง   ตกปลา   ตกหมึก เริ่มต้นที่ท่าเรือบ้านบางเบ้า ไปที่หมู่เกาะต่าง ๆ เช่น เกาะหวายเกาะเหลายา หมู่เกาะรัง ต.เกาะช้างใต้ อ.เกาะช้าง จ.ตราด  ที่ในเรือมีห้องเหยื่อเป็น มีจอจีพีเอส(GPS) ซาวด์เดอร์   (อุปกรณ์หาตำแหน่งปลาที่ทันสมัย )  โดยไต๋เป็ด  ( ชาวประมง โดยกำเนิด ) พร้อมลูกเรือมืออาชีพ ที่มีประสบการณ์มานาน ราคาไม่แพงอย่างที่คิด  เศรษฐกิจอย่างพอเพียง ดูธรรมชาติสวยงามที่เกาะช้าง รับจัดทัวร์เป็นหมูคณะ“ความสำเร็จไม่ได้อาศัยแต่โชคชะตา  ต้องอาศัยประสบการณ์และฝีมือด้วยจึงจะนำพาสู่ความสำเร็จ”",
        "emails": [
            "nokboat@hotmail.co.th"
        ],
        "id": "243175249161299",
        "location": {
            "city": "Trad",
            "country": "Thailand",
            "latitude": 11.973811279405,
            "longitude": 102.32027053833,
            "street": "71 หมู่ 1 ต.เกาะช้างใต้ อ.เกาะช้าง",
            "zip": "23170"
        },
        "name": "สังขกุลทัวร์ เกาะช้าง",
        "phone": "081-7815497"
    },
    {
        "about": "รับสักTattoo ต่อลายสัก  แก้งานสัก  รับออกแบบลายสัก  รับปรึกษาข้อมูลก่อนจะสัก",
        "id": "1667463976820131",
        "location": {
            "city": "Amphoe Tha Yang",
            "country": "Thailand",
            "latitude": 12.9667,
            "longitude": 100.9,
            "street": "เพชรบุรี",
            "zip": "76130"
        },
        "name": "ช่างสักเดินดิน",
        "phone": "0940102547"
    },
    {
        "id": "787195621335047",
        "location": {
            "city": "Samut Songkhram",
            "country": "Thailand",
            "street": "439/7 ม.4",
            "zip": "10280"
        },
        "name": "ช่างภาพหัวสี",
        "phone": "0940273194"
    },
    {
        "about": "สักทุกแนว",
        "id": "698600863525243",
        "location": {
            "city": "เขตบางเขน",
            "street": "ใกล้กับมหาลัยราชภัฏพระนคร"
        },
        "name": "ลุงอาร์ม ช่างสักพระนคร",
        "phone": "0868677853"
    },
    {
        "id": "979403218757285",
        "location": {
            "city": "Bangkok",
            "country": "Thailand",
            "latitude": 13.6796303,
            "longitude": 100.3442307,
            "street": "เพชรเกษม81/4 หนองแขม",
            "zip": "10160"
        },
        "name": "ช่างสักลาย",
        "phone": "0963767278"
    },
    {
        "about": "รับออกแบบลายเสื้อ พร้อมสกรีน ",
        "emails": [
            "auhscreen@gmail.com"
        ],
        "id": "262185987141103",
        "location": {
            "city": "Bangkok",
            "country": "Thailand",
            "latitude": 13.60599,
            "longitude": 100.41691,
            "street": "rama2soi11 jomthong",
            "zip": "10150"
        },
        "name": "เสื้อสกรีนเด็กช่าง",
        "phone": "0954868383"
    },
    {
        "about": "บริการแต่งหน้าโดยMAKEUP GURU ชื่อดังของประเทศไทย พี่มีนนีรชา 080-3097978",
        "description": "ยินดีให้บริการทั้งในกรุงเทพและต่างจังหวัดด้วยทีมงานมืออาชีพชื่อดังกว่า10ท่านด้วยเครื่องสำอางค์แบรนด์เนม 5ดาวและยังยึดถือความซื่อตรง การบริการอย่างเอาใจใส่ และฝีมือที่เยี่ยมยอดในทุกๆครั้งสำหรับลูกค้าทุกคนค๊ะ",
        "emails": [
            "makeupsociety@hotmail.com"
        ],
        "id": "1572695839665678",
        "location": {
            "city": "นนท์บุรี",
            "street": "อ.เมือง",
            "zip": "11000"
        },
        "name": "ช่างแต่งหน้าเจ้าสาวมืออาชีพ..มีนนีรชา",
        "phone": "091-2097060"
    },
    {
        "about": "จำหน่ายปลาทองสิงห์ญี่ปุ่นครับ โทรมาสอบถามกันได้นะครับถ้าสนใจ (ร้านมุมหัวสิงห์ครับ)",
        "id": "551816654835570",
        "name": "ช้างหนองแขม (ขายปลาทองสิงห์ญี่ปุ่น)"
    },
    {
        "id": "843739452346722",
        "name": "สมาคม'เด็กช่างกันทรลักษ์"
    },
    {
        "about": "ตัวแทนอย่างเป็นทางการ ของ แผนกวิชาช่างก่อสร้าง- โยธาวิทยาลัยเทคนิคสุพรรณบุรี ",
        "id": "135615853261941",
        "location": {
            "street": "วิทยาลัยเทคนิคสุพรรณบุรี"
        },
        "name": "แผนกช่างก่อสร้าง-โยธา วิทยาลัยเทคนิคสุพรรณบุรี"
    },
    {
        "about": "กาแฟดอยช้าง สาขาริมบึงหนองโคตร ขอนแก่น",
        "description": "กาแฟดอยช้าง สาขาริมบึงหนองโคตร ขอนแก่น เปิดให้บริการแล้ว เมื่อวันที่ 12 กรกฎาคม 2555",
        "id": "270756913039630",
        "location": {
            "city": "Khon Khen",
            "country": "Thailand",
            "latitude": 16.437410064,
            "longitude": 102.79361083,
            "street": "101Moo.14 Srichan Rd. Tumbon Banped Aumphur Naimuang",
            "zip": "40000"
        },
        "name": "กาแฟสดดอยช้าง (สาขาริมบึงหนองโคตร ขอนแก่น)",
        "phone": "0846000696"
    },
    {
        "about": "*ช.ช้าง ยกครก",
        "id": "623558377679488",
        "location": {
            "city": "กำแพงเพชร",
            "street": "ต.ในเมือง",
            "zip": "62000"
        },
        "name": "ช.ช้าง ยกครก สาขากำแพงเพชร",
        "phone": "0920396289"
    },
    {
        "id": "181840491850043",
        "name": "ช่างสระไดร์"
    },
    {
        "id": "1508953446040480",
        "name": "รับสมัครช่างเสริมสวย การันตีรายได้ มีร้านหลายสาขา ทั่วประเทศ"
    },
    {
        "about": "ช.ช้าง ส้มตำยกครก สาขาบางบ่อ ",
        "id": "1587874761427987",
        "location": {
            "city": "Samut Prakan",
            "country": "Thailand",
            "latitude": 13.580076197,
            "longitude": 100.83620034133,
            "street": "ช.ช้าง ส้มตำยกครก สาขาบางบ่อ",
            "zip": "10560"
        },
        "name": "ช.ช้าง ส้มตำยกครก สาขาบางบ่อ",
        "phone": " 083-025 8343"
    },
    {
        "about": "รับทำกุญแจเปิดรถ-ตู้เซฟ จูนรีโมทฝังชิพ แปลงกรอบพับทุกรุ่น ช่างเหน่งT.043-970330",
        "description": "รับทำกุญแจ ทุกชนิด ลืมกุญแจรถไว้ในบ้าน ลืมกุญแจบ้าน ไว้ในรถ กุญแจหายหมด ดอกอิมโมบิไรเซอร์-ดอกฝังชิพ-รีโมท ทำเพิ่ม หรือหายหมด สร้างขี้นใหม่ ทั้งใน-นอกสถานที่ Tel/Line 0616264747",
        "emails": [
            "smartkey.neng@gmail.com"
        ],
        "id": "581392255205316",
        "location": {
            "city": "Maha Sarakham",
            "country": "Thailand",
            "latitude": 16.246264904845,
            "longitude": 103.24602456689,
            "street": "ร้านทำกุญแจ สมาร์ทคีย์ฯ โทร.043-970330",
            "zip": "44150"
        },
        "name": "ช่างกุญแจ มหาสารคาม 24 ชม. เหน่ง สมาร์ทคีย์ฯ โทร.081-0510333",
        "phone": "043-970330"
    },
    {
        "about": "จำหน่าย แบตเตอรี่ ซ่อมไดชาร์ท ไดสาร์ท และเดินสายไฟรถยนต์ทุกชนิด ฝีมือปราณีต ราคาย่อมเยา",
        "id": "1512207595678113",
        "location": {
            "city": "Bangkok",
            "country": "Thailand",
            "latitude": 13.8105707,
            "longitude": 100.5961075,
            "street": "233 ถนนโชคชัย4 ปากซอย 35 เขต/แขวงลาดพร้าว",
            "zip": "10230"
        },
        "name": "Sa-ngat Auto repair",
        "phone": "02-539-8072 หรือ 02-539-9311"
    },
    {
        "about": "เชียงใหม่สหช่าง รับเหมาก่อสร้าง ออกแบบ ตกแต่ง ต่อเติม รีโนเวท ปรับปรุง  บ้าน อาคาร ",
        "id": "754717251253060",
        "location": {
            "city": "Chiang Mai",
            "country": "Thailand",
            "latitude": 18.82862573,
            "longitude": 98.98822252,
            "street": "6 หัสดิเสวี ซอย 2 ต.ช้างเผือก อ.เมือง",
            "zip": "50300"
        },
        "name": "เชียงใหม่สหช่าง รับเหมาก่อสร้าง ออกแบบ รีโนเวท ปรับปรุง บ้าน อาคาร ครบวงจร",
        "phone": "084-198-9996"
    },
    {
        "id": "745154642234360",
        "location": {
            "city": "Amphoe Lam Luk Ka",
            "country": "Thailand",
            "latitude": 13.99219,
            "longitude": 100.78867,
            "street": "ลำลูกกา มีนบุรี นิมิตรใหม่ ธัญบุรี หนองเสือ คลองหลวง รังสิต นครนายก ปราจีนบุรี",
            "zip": "12150"
        },
        "name": "ช่างกุญแจ ลำลูกกา ธัญบุรี สายไหม ปทุมธานี นิมิตรใหม่",
        "phone": "0891313986"
    },
    {
        "id": "832850696797782",
        "location": {
            "city": "Amphoe Sam Phran",
            "country": "Thailand",
            "latitude": 13.7167,
            "longitude": 100.217,
            "street": "49/2",
            "zip": "73110"
        },
        "name": "จำหน่ายส่งกล้วยไม้ช้าง",
        "phone": "0870761145"
    },
    {
        "about": "ราคาย่อมเยา",
        "id": "237974573025963",
        "location": {
            "city": "Srisaket",
            "country": "Thailand",
            "latitude": 15.1305398,
            "longitude": 104.2811252,
            "street": "78/9 เพียรนาม เมือง",
            "zip": "33000"
        },
        "name": "โรงสีช่างวิทย์ รับทำสีคาดลาย-เคฟล่าฟิมล์",
        "phone": "0873777358"
    },
    {
        "about": "โย่ง ครับ รับถ่ายภาพ ราคากันเองครับผม ยินดีให้บริการครับ 085-3044960",
        "emails": [
            "\u003c\u003cnot-applicable\u003e\u003e"
        ],
        "id": "324738914235695",
        "location": {
            "city": "Bangkok",
            "country": "Thailand",
            "zip": "10250"
        },
        "name": "สัง.เคาะ.แสง (ช่างภาพ ตากล้อง รับถ่ายภาพ บริการถ่ายภาพ)",
        "phone": "0853044960/0871453378"
    },
    {
        "about": "ช่างวีดีโอ ถ่ายวีดีโอ ภูเก็ต พังงา กระบี่ ถ่ายภาพ ob ถ่ายทอดสด",
        "emails": [
            "sutee4to@hotmail.com"
        ],
        "id": "905626056143545",
        "location": {
            "city": "Phuket",
            "country": "Thailand",
            "zip": "83000"
        },
        "name": "ช่างวีดีโอ ถ่ายวีดีโอ ภูเก็ต พังงา กระบี่ ถ่ายภาพ ob ถ่ายทอดสด",
        "phone": "0887605554 กับ 0857967211"
    }
]