[
    {
        "about": "ซ่อม-ขายจอ-บอร์ด-อะไหล่แท้iphone4,4s,5,5s,5c,6,6+แกะจากเครื่องมาเปลี่ยนแท้1000%ราคาไม่แพงมากประกัน3เดือน ",
        "description": "ช่างต้นครับช่างจากศูนย์ประสบการณ์นับสิบปี สิ่งที่จะได้จากผมคือคุณภาพงานและจรรญาบรรณในอาชีพ เราซ่อมไอโฟน ไอแพด สมาร์ทโฟน ทุกรุ่นทุกยี่ห้อตามงบประมาณของลูกค้าแท้เทียมเลือกได้ประกันงานซ่อม3เดือน ",
        "id": "1564030620510662",
        "location": {
            "city": "Amphoe Bang Yai",
            "country": "Thailand",
            "latitude": 13.80157642947,
            "longitude": 100.31846746784,
            "street": "เซ็นทรัลเวสเกสต์ชั้น2 ร้านโมบายซิตี้  central westgate fl2 mobilecity",
            "zip": "11140"
        },
        "name": "ช่างต้นรับซ่อมไอโฟน-ไอแพด-ขายเมนบอร์ดiphone ขายจอแท้ไอโฟนปลีกส่ง",
        "phone": "0890123423"
    },
    {
        "emails": [
            "saltcellarservice@yahoo.co.th"
        ],
        "id": "435838113153127",
        "location": {
            "city": "Bangkok",
            "country": "Thailand",
            "latitude": 13.70283,
            "longitude": 100.67317,
            "street": "25 อ่อนนุช66 แยก19-13 สุขุมวิท77",
            "zip": "10250"
        },
        "name": "สว่าน สกัด เครื่องมือช่าง มือสอง",
        "phone": "0956391510"
    },
    {
        "about": "ขายอุปกรณ์สักลาย ครับวงจร",
        "general_info": "ขาย จำหน่ายอุปกรณ์สักลายครบวงจร",
        "id": "1600748540148413",
        "name": "ช่างเก๋ขายอุปกรณ์สักลายครบวงจร"
    },
    {
        "about": "สมาพันธ์ช่าง อปท. แห่งประเทศไทย\n",
        "id": "493001864117987",
        "name": "สมาพันธ์ช่างองค์กรปกครองส่วนท้องถิ่นแห่งประเทศไทย"
    },
    {
        "about": "ช่างสั้น\u0026ช่างต่อพยุหะ อ.พจ จัดให้ ท่อสูตรโอ เพชรบุรี เสี่ยหนึ่งไก่สด เฮียเปิ้ลสั่งลุย",
        "id": "550473051691063",
        "location": {
            "city": "-",
            "street": "35/1 ม.4",
            "zip": "60130"
        },
        "name": "ช่างสั้น\u0026ช่างต่อพยุหะ เสี่ยหนึ่งไก่สด เฮียเปิ้ลสั่งลุย",
        "phone": "0842345880"
    },
    {
        "about": "ชมรมช่างสักลายภาคตะวันออกเฉียงเหนือ (isarn northeast Thailand Tattoo Group)",
        "id": "251228638412363",
        "location": {
            "city": "Kathu",
            "country": "Thailand",
            "latitude": 7.92084,
            "longitude": 98.29098,
            "street": "ึ37สวัสดีแมนชั่น",
            "zip": "83150"
        },
        "name": "ชมรมช่างสักลายภาคตะวันออกเฉียงเหนือ",
        "phone": "+6688-711-4104"
    },
    {
        "id": "129637383747652",
        "name": "ช่างสรรพาวุธ"
    },
    {
        "about": "จำหน่ายชุดสีมอไซค์ทุกรุ่น ทุกยี่ห้อ ในราคาปลีก-ส่ง \nสนใจติอต่อ 083-1092875 ช่างเบียร์\n- ID Line beersiam",
        "id": "587433691269383",
        "location": {
            "city": "Nakhon Pathom",
            "country": "Thailand",
            "latitude": 13.8206,
            "longitude": 100.062,
            "street": "159/16-17 ม.1 ต.ยายชา อ.สาพราน จ.นครปฐม",
            "zip": "73110"
        },
        "name": "ช่างเบียร์ ขายชุดสีมอไซค์ ทุกรุ่น-ในราคาปลีกส่ง",
        "phone": "0831092875"
    },
    {
        "about": "รับปั้น-หล่อ แกะโฟม เพ้นสี ตกแต่งฉากเวที ตามออเดอร์\n",
        "id": "207078542786072",
        "location": {
            "city": "กรุงเทพฯ ",
            "street": "เคหะรามคำแหง มีนบุรี",
            "zip": "10510"
        },
        "name": "ช่างปั้น รับงานประติมากรรมพุทธศิลป์ไทยสากล",
        "phone": "0897509519"
    },
    {
        "about": "084-5239026 ซ่อม ตู้สาขาโทรศัพท์ ติดตั้ง  ย้าย โดยช่างมืออาชีพ\nถูก เร็ว ดี มีประกัน ",
        "description": "ซ่อมตู้สาขาโทรศัพท์ ติดตั้งตู้สาขาโทรศัพท์ ย้ายตู้สาขาโทรศัพท์ โดยช่างมืออาชีพ\nราคายุติธรรม มีประกัน กรุงเทพฯและปริมณฑล เขตลาดพร้าว,บางกะปิ,สุขุมวิท,วังทองหลาง,อโศก,รัชดา\n- รับเดินสายโทรศัพท์ \n- รับเดินสายแลน\n- รับเดินสายไฟ\n- รับติดตั้งตู้สาขาโทรศัพท์\nบริการซ่อมตู้สาขาโทรศัพท์ ตู้มีปัญหาปรึกษาเรา\nบริการซ่อม-ตรวจเช็ค-แก้ไข-สายโทรศัพท์ชำรุด-เพิ่มจุด\nบริการซ่อม-ตรวจเช็ค-แก้ไข-สายแลนชำรุด-เพิ่มจุด-เช็คสัญญาณอินเทอร์เน็ต\nโดยทีมช่างทีมีความสามารถ และราคาเป็นกันเอง \n**สอบถามโทร. 084-5239026  ช่างหนึ่ง\n",
        "emails": [
            "phaitoonone1@hotmail.com"
        ],
        "id": "747637118688563",
        "location": {
            "city": "Bangkok",
            "country": "Thailand",
            "latitude": 13.7522,
            "longitude": 100.494,
            "zip": "10230"
        },
        "name": "ช่างซ่อมตู้สาขาโทรศัพท์ จำหน่าย ติดตั้ง ย้าย เซ็ตโปรแกรม ราคาถูก",
        "phone": "0845239026"
    },
    {
        "about": "สมาคมศิษย์เก่าศิลปศึกษา-ช่างศิลป เพื่อช่างศิลปทุกรุ่น ทั้งวังหน้าและลาดกระบัง",
        "description": "วิทยาลัยช่างศิลป เดิมมีชื่อว่า \"โรงเรียนศิลปศึกษา\" จัดตั้งเมื่อ 4 มีนาคม พ.ศ. 2495 เพื่อเป็นโรงเรียนเตรียมมหาวิทยาลัยของมหาวิทยาลัยศิลปากร สังกัดมหาวิทยาลัยศิลปากร\n\nโรงเรียนศิลปศึกษาเปิดทำการสอนเป็นครั้งแรกเมื่อวันที่ 17 พฤษภาคม พ.ศ. 2495 มีนักเรียนรุ่นแรกจำนวน 36 คน โดยใช้สถานที่ส่วนหนึ่งของมหาวิทยาลัยศิลปากรเป็นสถานที่เรียนชั่วคราว\n\nในปี พ.ศ. 2500 มีการเปลี่ยนชื่อโรงเรียนใหม่ เรียกว่า \"โรงเรียนศิลปศึกษาเตรียมมหาวิทยาลัยศิลปากร\"\nพ.ศ. 2500 มีการเปลี่ยนแปลงเกี่ยวกับการดำเนินงานของโรงเรียนหลายประการคือ\nก. ได้มีการกำหนดฐานะของโรงเรียน ประเภทเตรียมอุดมศึกษา เรียกชื่อว่า “โรงเรียนศิลปศึกษาเตรียมมหาวิทยาลัยศิลปากร”\nข. ได้ยุบเลิกแผนกช่างสิบหมู่ คงเหลือไว้เพียง 2 แผนก และเรียกชื่อใหม่ว่า แผนกเตรียมศิลป แผนกเตรียมโบราณคดี สำหรับ การศึกษาใน 2 ปีแรก \nค. เปลี่ยนมาสังกัดอยู่ใน “กองหัตถศิลป กรมศิลปากร”\n\nพ.ศ. 2501 โรงเรียนศิลปศึกษาได้กลับไปสังกัดอยู่กับมหาวิทยาลัยศิลปากรอีกครั้ง จนถึงเดือน มกราคม พ.ศ. 2503 เมื่อ มหาวิทยาลัยศิลปากรแยกไปสังกัดสำนักนายกรัฐมนตรีพร้อมกับมหาวิทยาลัยแห่งอื่นๆ โรงเรียนศิลปศึกษาจึงกลับมาสังกัดกองหัตถศิลป กรมศิลปากรดังเดิม และพ้นฐานะจากการเป็นโรงเรียนเตรียมของมหาวิทยาลัยศิลปากร\n\nต่อมา พ.ศ. 2504 มีพระราชกฤษฎีกาแบ่งส่วนราชการกรมศิลปากรใหม่ และมีการตั้งกองศิลปศึกษาขึ้น โรงเรียนศิลปศึกษาจึงมีฐานะเป็นแผนกหนึ่งในกองศิลปศึกษา พร้อมทั้งได้เปลี่ยนชื่อใหม่เป็น \"โรงเรียนช่างศิลป\" ต่อมา กระทรวงศึกษาธิการได้ยกฐานะโรงเรียนช่างศิลป เป็น \"วิทยาลัยช่างศิลป\" เมื่อวันที่ 27 กุมภาพันธ์ พ.ศ. 2519\n\n\n\nและเริ่มขยายกิจการการเรียนการสอนไปที่ เขตลาดกระบัง กรุงเทพมหานคร โดยได้เริ่มพัฒนา ก่อสร้างอาคารเรียนในที่ดินวิทยาลัยเจ้าคุณทหาร ลาดกระบัง เนื้อที่ประมาณ 63 ไร่ ในปีพ.ศ. 2519 และเริ่มใช้เป็นสถานศึกษาของวิทยาลัยอีกแห่งหนึ่งตั้งแต่ปี พ.ศ. 2521 เป็นต้นมา \n\nพ.ศ. 2524 วิทยาลัยช่างศิลปได้ปรับปรุงหลักสูตร ประกาศนียบัตรศิลปศึกษาชั้นกลาง โครงสร้างของหลักสูตรประกอบด้วย หมวดวิชาสามัญ หมวดวิชาสัมพันธ์ หมวดวิชาชีพภาคทฤษฎี และวิชาชีพภาคปฏิบัติทั้งศิลปะ-ไทยแบบประเพณี และศิลปะร่วมสมัย มีกำหนดเวลาเรียน 3 ปี และเมื่อสำเร็จการศึกษาก็คงได้รับวุฒิประกาศนียบัตรศิลปศึกษาชั้นกลาง (ระดับ ปวช.) \n\nพ.ศ. 2527 ได้มีการปรับปรุงหลักสูตรประกาศนียบัตรศิลปศึกษาชั้นสูงซึ่งเทียบเท่าหลักสูตรประโยคครูมัธยมการช่าง (ป.ม.ช.) อีกครั้งหนึ่ง โดยให้นักศึกษาเลือกเรียนวิชาศิลปะสาขาต่างๆ ตามความถนัดและความสนใจในศิลปะเฉพาะสาขา (วิชาเอก) และวิชาศิลปะเลือก (วิชาโท) เมื่อจบการศึกษาแล้วจะได้รับประกาศนียบัตรศิลปศึกษาชั้นสูง (ระดับ ปวส.)\n\nพ.ศ. 2539 วิทยาลัยได้ดำเนินการปรับปรุงหลักสูตรศิลปศึกษาชั้นกลาง และหลักสูตรศิลปศึกษาชั้นสูง อีกครั้งหนึ่งเรียกชื่อว่า หลักสูตรศิลปกรรมระดับประกาศนียบัตรวิชาชีพพุทธศักราช 2539 (ศ.ปวช.) และหลักสูตรศิลปกรรมระดับประกาศนียบัตรวิชาชีพชั้นสูง พุทธศักราช 2539 (ศ.ปวส.) ตามลำดับ ซึ่งมีสาขาวิชาให้นักศึกษาเลือกเรียนอย่างหลากหลาย สอดคล้องกับแนวนโยบายปฏิรูปการศึกษาและสภาพการเปลี่ยนแปลงของสังคม\n\nพ.ศ. 2545 วิทยาลัยช่างศิลปเปลี่ยนหน่วยงานต้นสังกัดมาเป็นสถาบันบัณฑิตพัฒนศิลป์ กรมศิลปากร กระทรวงวัฒนธรรม ตามประกาศกรมศิลปากร เรื่องการแบ่งส่วนราชการ หน่วยงาน และสถานศึกษาของกรมศิลปากร ลงวันที่ 14 พฤศจิกายน 2545\n\nพ.ศ. 2546 ปรับหลักสูตรศิลปกรรมระดับประกาศนียบัตรวิชาชีพ พุทธศักราช 2539 มาเป็นหลักสูตรประกาศนียบัตรวิชาชีพ พุทธศักราช 2544 วิทยาลัยช่างศิลป ตามพระราชบัญญัติการศึกษาแห่งชาติ พุทธศักราช 2542\n\nพ.ศ. 2550 วิทยาลัยช่างศิลปและสถาบันบัณฑิตพัฒนศิลป์แยกตัวจากกรมศิลปากร ตามพระราชบัญญติสถาบันบัณฑิตพัฒนศิลป์ ประกาศในราชกิจจานุเบกษา เล่มที่ 124 ตอนที่ 32 ก วันที่ 9 กรกฏาคม พ.ศ. 2550\n\nพ.ศ. 2552 วิทยาลัยช่างศิลปปรับโครงสร้างการบริหารให้เป็นไปตามประกาศของสถาบันบัณฑิตพัฒนศิลป์ โดยให้มีการสรรหาผู้อำนวยการวิทยาลัย และผู้อำนวยการคนแรกที่มาจากระบบการสรรหา คือ อาจารย์สมบัติ กุลางกูร จนถึงปีพ.ศ. 2556 และผู้อำนวยการที่มารับตำแหน่งตั้งแต่ปีพ.ศ. 2556 จนถึงปัจจุบัน คือ อาจารย์ บุญพาด ฆังคะมะโน\n",
        "id": "942308272488374",
        "location": {
            "city": "Bangkok",
            "country": "Thailand",
            "latitude": 13.7522,
            "longitude": 100.494,
            "street": "เลขที่ 60 ถนนหลวงพรต แขวงลาดกระบัง เขตลาดกระบัง",
            "zip": "10520"
        },
        "name": "สมาคมศิษย์เก่าศิลปศึกษา-ช่างศิลป"
    },
    {
        "about": "ฝึกทักษะฟุตบอลที่ถูกวิธึและถูกต้อง ให้กลุ่มสนใจทั่วไปทุกวัย\nโทร 087-2564069",
        "id": "1436026430030729",
        "name": "สโมสรฟุตบอลเมืองช้าง ยูไนเต็ด",
        "phone": "087 - 2564069"
    },
    {
        "about": "Maxcolorshop 089-6068232 อู่ทำสีรถยนต์ พัทยา. Line : maxcolourshop",
        "id": "526517464043275",
        "location": {
            "city": "Amphoe Bang Lamung",
            "country": "Thailand",
            "street": "198 ม.6",
            "zip": "20150"
        },
        "name": "CluB HouseByโรงสีช่างแม็ค",
        "phone": "0896068232"
    },
    {
        "about": "ความปราณีต คือ งานผม..",
        "description": "รับตัดแต่ง..\nสายสะพายชั้นที่ 1 ประถมาภรณ์มงกุฎไทย ( ป.ม. )\nสายสะพายชั้นที่ 2 ประถมาภรณ์ช้างเผือก ( ป.ช. )\nสายสะพายชั้นที่ 3 ชั้นสูงสุด มหาวชิรมงกุฎ ( ม.ว.ม. )\nสายสะพายชั้นที่ 4 ชั้นสูงสุด มหาปรมาภรณ์ช้างเผือก ( ม.ป.ช. )\nสายยงยศ ไหมเหลือง + ดิ้นทอง (ทบ.)\nสายยงยศ ไหมขาว + ดิ้นเงิน (ตร.)\nสายเสธ. \nสายนายเวร. ฯลฯ\nรับทำตัวหนอน สำหรับติดเครื่องหมายทุกชุด\nทุกหน่วย ทุกกรม ทุกกอง ได้หมดครับ..\n\n\n",
        "id": "719175024765004",
        "location": {
            "city": "Bangkok",
            "country": "Thailand",
            "latitude": 13.7017899,
            "longitude": 100.4905319,
            "street": "ร้านไอดีล (ราชวัตร) 656/2-4 ถ.พระราม 5 แขวงถนนนครไชยศรี เขตดุสิต กทม.",
            "zip": "10300"
        },
        "name": "รับตัดแต่งสายยงยศ ฯลฯ โดยช่างชาย",
        "phone": "0818607312"
    },
    {
        "about": "ซ่อม ซื้อขาย เครื่องมือช่างระบบสื่อสาร ระบบอุตสาหกรรม ",
        "emails": [
            "phaiboons@hotmail.com"
        ],
        "id": "1435711639988918",
        "location": {
            "city": "Bangkok",
            "country": "Thailand",
            "latitude": 13.75573,
            "longitude": 100.49831,
            "street": "126 ถนนบ้านหม้อ  แขวงบูรพา  พระนคร  กทม  10200  โทร  0812330662"
        },
        "name": "ร้านช่างบูนบ้านหม้อ ฃ่อมฃื้อขายเครื่องมือวัด ออสฃิลโลสโคป",
        "phone": "0812330662"
    },
    {
        "about": "ร้านบ้านช้าง กาแฟสด บรรยากาศสบายๆ ร่มรื่น มี free wifi\nเปิดตั้งแต่เวลา 9.00 น. - 19.00น.",
        "id": "767289323316468",
        "location": {
            "city": "Krabi",
            "country": "Thailand",
            "latitude": 8.0625224419108,
            "longitude": 99.256735818646,
            "street": "ตำบลพรุดินนา อำเภอคลองท่อม",
            "zip": "81120"
        },
        "name": "บ้านช้าง กาแฟสด - Banchang Coffee",
        "phone": "089-8736727 หรือ 091-8206764"
    },
    {
        "about": "ฝากรูปมาได้น้ะ. :)\n",
        "id": "763805656997844",
        "location": {
            "city": "ประเทศไทย"
        },
        "name": "สมาคมตนแต่งช่าง สยาม"
    },
    {
        "about": "รับสั่ง ตีดาบไทย ทุกประเภท ติดต่อ ช่างตั้ม 090-1509228",
        "description": "สำนักตีดาบช่างตั้ม รับตีดาบเหล็กลาย เหล็กเกรดพิเศษ ในทุกๆรูปแบบ และดาบทุกชนิดในโลก ",
        "emails": [
            "nunutnuaom@hotmail.com"
        ],
        "general_info": "รับทำ มีดดาบไทย ดาบล้านนา ดาบทุกชนิด ด้วยการตีเหล็กดามัสกัส และ เหล็กโมเสกดามัสกัส ที่ผลิตขึ้นเอง.และรับทำตามออเดอร์.มีดทุกชนิดในโลก วัสดุทำด้ามผลิตขึ้นเอง  ประสบการณ์ทำมีดเกือบ20ปี ติดต่อ ช่างตั้ม  090 - 1509228 ",
        "id": "564653013598803",
        "location": {
            "city": "Chiang Mai",
            "country": "Thailand",
            "latitude": 18.8118534,
            "longitude": 99.0112762,
            "street": "56/1 ม.8 อ.สันกำแพง",
            "zip": "50130"
        },
        "name": "Lanna Thai Sword สำนักตีดาบช่างตั้ม ตระกูลพ่อครูเปี๊ยก ศาสตราวุธล้านนา",
        "phone": "0901509228"
    },
    {
        "id": "176675325735549",
        "name": "สถาบันเทคโนโลยีราชมงคล (ช่างกลพระนครเหนือ)"
    },
    {
        "about": "painting-art",
        "id": "1754211044804473",
        "location": {
            "city": "จ.นครปฐม",
            "street": "93 หมู่ 3 ต.ศาลายา อ.พุทธมณฑล",
            "zip": "73170"
        },
        "name": "กลุ่มจิตรกรรม สำนักช่างสิบหมู่ กรมศิลปากร"
    },
    {
        "about": "ซ่อมรถ โมเครื่อง คัดโครง ท่อสูตรท่อแต่ง  ได มัดข้าวต้ม ทำสีพาวเดอร์โค้ท",
        "id": "426509660840130",
        "location": {
            "city": "Chiang Mai",
            "country": "Thailand",
            "latitude": 18.7529512,
            "longitude": 99.0578066,
            "street": "สันกำแพง",
            "zip": "50130"
        },
        "name": "ร้าน ทวีการช่าง สันกำแพง เชียงใหม่",
        "phone": "0979205726"
    },
    {
        "about": "อาหารพื้นเมืองเชียงใหม่",
        "description": "จำหน่ายอาหารประเภท ข้าวเหนียว หมูทอดไก่ทอด น้ำพริกหนุามน้ำพริกแดง คุณภาพคุ้มราคา การันตีด้วยประสบการณ์กว่า 30 ปี",
        "id": "271537866322204",
        "location": {
            "city": "Amphoe Muang Chiang Mai",
            "country": "Thailand",
            "latitude": 18.802051928596,
            "longitude": 99.005317353787,
            "street": "379/1 Charoen Rat Road, T.Fah Haam",
            "zip": "50000"
        },
        "name": "ร้านข้าวนึ่งไก่ทอดเที่ยงคืนสาขา 2 ช้างคลาน",
        "phone": "088 251 4550"
    },
    {
        "id": "210026065703402",
        "name": "โรงเรียนช่างการไฟฟ้าส่วนภูมิภาค"
    },
    {
        "about": "ผลิตท่อสูบน้ำสแตนเลสคุณภาพสูง",
        "id": "196522587173517",
        "location": {
            "city": "Nonthaburi",
            "country": "Thailand",
            "latitude": 14.00458,
            "longitude": 100.30929,
            "street": "ไฮติ่งการช่าง 1/3 ม.4  อ.ไทรน้อย ต.หนองเพรางาย",
            "zip": "11150"
        },
        "name": "ท่อสูบน้ำ,ท่อสูบน้ำพญานาค,ท่อตั้งฉาก ไฮติ่งการช่าง",
        "phone": "0879876989"
    },
    {
        "about": "เครื่องประดับผลิตจากเหรียญ 50 สตางค์",
        "description": "จำหน่ายเครื่องประดับผลิตจากเหรียญ 50 สตางค์สมัย พ.ศ. 2493 ทุกชนิด รับงานสั่งกรอบพระ และงานสั่งเกี่ยวกับเครื่องประดับอื่น ๆ\n",
        "emails": [
            "dangchangthong@gmail.com"
        ],
        "id": "201549536543902",
        "location": {
            "city": "Bangkok",
            "country": "Thailand",
            "street": "หลังห้าง พาต้าปิ่นเกล้า"
        },
        "name": "ร้าน แดงช่างทอง แกะสลักไทย",
        "phone": "092-347-3232 ติดต่อคุณนัท,คุณก้อย"
    }
]