[
    {
        "about": "ช่างกุญแจสระบุรี โทร0863334941 กุญแจฝังชิพ เปิดรถ เปิดบ้าน",
        "description": "ช่างกุญแจสระบุรี โทร0863334941 กุญแจฝังชิพ เปิดรถ เปิดบ้าน เปิดตู้เซฟ\nช่างกุญแจสระบุรี Unlockkey Thailand 24 ชั่วโมง ทั่วไทย 0863334941\nปลดล็อคกุญแจทุกชนิด กุญแจบ้าน กุญแจรถ กุญแจตู้เซฟ ติดตั้งกุญแจทุกชนิด\nกุญแจฝังชิพ กุญแจรีโมท \nกุญแจระบบimmobilizer \nกุญแจระบบputstart\nรับสอนวิชาชีพช่างกุญแจ จำหน่ายอุปกรณ์สำหรับช่างกุญแจ\nช่างกุญแจสระบุรี โทร0863334941 กุญแจฝังชิพ เปิดรถ เปิดบ้าน เปิดตู้เซฟ",
        "emails": [
            "fk_114-2@hotmail.co.th"
        ],
        "id": "223126144503662",
        "location": {
            "city": "Saraburi",
            "country": "Thailand",
            "zip": "18120"
        },
        "name": "ช่างกุญแจสระบุรี โทร0863334941 กุญแจฝังชิพ เปิดรถ เปิดบ้าน เปิดตู้เซฟ",
        "phone": "0863334941"
    },
    {
        "about": "สำนักการช่าง เทศบาลนครนครสวรรค์",
        "id": "378507728993045",
        "location": {
            "city": "Nakhon Sawan",
            "country": "Thailand",
            "latitude": 15.71325389,
            "longitude": 100.135215995,
            "zip": "60000"
        },
        "name": "สำนักการช่าง เทศบาลนครนครสวรรค์"
    },
    {
        "id": "560680314073055",
        "location": {
            "city": "Chon Buri",
            "country": "Thailand",
            "latitude": 13.3667,
            "longitude": 100.983,
            "street": "99/177 นาป่า ชลบุรี",
            "zip": "20000"
        },
        "name": "สส.เจริญการช่าง",
        "phone": "089-5143656"
    },
    {
        "about": "บริการเกี่ยวกับกุญแจและอุปกรณ์ล็อคทุกชนิด",
        "description": "บริการเกี่ยวกับกุญแจและอุปกรณ์ล็อคทุกชนิด\nกุญแจรถ,บ้าน ทำเพิ่ม กุญแจหาย ปลดล็อครถ,บ้าน รับก๊อบปี้รีโหมดรถยนต์ เปลี่ยนกรอบ เปลี่ยนถ่าน บริการ 24 ชั่วโมง สอบถามได้ครับ 085-8643173 ",
        "id": "502890603183159",
        "location": {
            "city": "Fang",
            "country": "Thailand",
            "latitude": 19.9388414,
            "longitude": 99.231199
        },
        "name": "ช่างกุญแจเมืองฝาง ฝางคีย์สมิธ",
        "phone": "085-8643173"
    },
    {
        "about": "ข้อมูลการท่องเที่ยว สลักเพชร เกาะช้าง ตราด ",
        "description": "บริการให้ข้อมูลด้านต่างๆ เกี่ยวกับการท่องเที่ยวในพื้นที่หมู่บ้านสลักเพชร และบริเวณใกล้เคียงบนเกาะช้าง  จังหวัดตราด สอบถามข้อมูลเพิ่มเติม 081-6530886 ฟลุ๊ค",
        "id": "189476684554530",
        "location": {
            "city": "ตราด",
            "street": "สลักเพชร เกาะช้างใต้",
            "zip": "23170"
        },
        "name": "สลักเพชร เกาะช้าง",
        "phone": "0939419915"
    },
    {
        "about": "Tel.089-596-1160\nline : fotofriday",
        "id": "838334049575315",
        "name": "ช่างภาพสุไหงโก-ลก Photographer Sungaikolok"
    },
    {
        "about": ":) ",
        "id": "483979618343398",
        "name": "สมาคมพาณิชไทยใจรักช่าง"
    },
    {
        "id": "1375895222707877",
        "location": {
            "city": "Surat Thani",
            "country": "Thailand",
            "latitude": 9.09542,
            "longitude": 99.3073,
            "street": "200/2 ถ.ชนเกษม ต.ตลาด อ.เมือง จ.สุราษฎร์ธานี",
            "zip": "84000"
        },
        "name": "ช่างกุญแจสุราษฎร์ธานี - ช่างเอก 24 ชม.โทร.089-5970428",
        "phone": "0895970428"
    },
    {
        "about": "บริการทำกุญแจฉุกเฉิน24ชั่วโมง",
        "id": "722194554468274",
        "location": {
            "city": "Saraburi",
            "country": "Thailand",
            "latitude": 14.53236,
            "longitude": 100.92238,
            "street": "99",
            "zip": "18000"
        },
        "name": "ช่างกุญแจสระบุรี หินกอง หนองแค 089-9953363",
        "phone": "0899953363"
    },
    {
        "id": "119221108237485",
        "name": "สายช่าง"
    },
    {
        "about": "ช่างกุญแจสระบุรี แก่งคอย24ช.ม083-8864391",
        "description": "ช่างกุญแจสระบุรี แก่งคอย24ช.ม083-8864391",
        "id": "1456402154583202",
        "location": {
            "city": "Amphoe Kaeng Khoi",
            "country": "Thailand",
            "latitude": 14.590046104226,
            "longitude": 100.99491968245,
            "zip": "18110"
        },
        "name": "ช่างกุญแจสระบุรี แก่งคอย24ช.ม083-8864391",
        "phone": "0838864391"
    },
    {
        "id": "573769692767116",
        "location": {
            "city": "Chiang Mai",
            "country": "Thailand",
            "latitude": 18.7314,
            "longitude": 99.21688,
            "street": "หมู่1 ออนใต้ อ.สันกำแพง จ.เชียงใหม่",
            "zip": "50130"
        },
        "name": "ช่างป๊อด บริการทำสีรถ ทุกชนิด",
        "phone": "0811808030"
    },
    {
        "about": "รับแต่งหน้าทำผมทุกงานค่ะ ติดต่อ 081-922-4145 line id: yooyumakeup sadako_yu@hotmail.com ",
        "description": "Make up \u0026 Hair styling service\n- Bridal make up\n- Pre-wedding\n- Personal make up (party,event,MC)\n- Fashion shooting\n- Lookbook shooting\n-----------------------------------------\nบริการแต่งหน้าและทำผมโดยทีมงานมืออาชีพ\n- แต่งหน้าเจ้าสาว\n- ถ่ายพรีเวดดิ้ง\n- แต่งหน้าไปงาน\n- แต่งหน้าถ่ายแบบ Fashion, lookbook, โฆษณา\n- แต่งหน้าสมัครแอร์\n- แต่งหน้างาน Event ต่างๆ\nสนใจติดต่อ 0819224145 line id :yooyumakeup",
        "emails": [
            "sadako_yu@hotmail.com"
        ],
        "id": "175054955891982",
        "location": {
            "city": "Klong Toey",
            "country": "Thailand",
            "latitude": 13.719686977318,
            "longitude": 100.56202411652,
            "street": "212",
            "zip": "10110"
        },
        "name": "Yooyu Makeup ช่างแต่งหน้าเจ้าสาว แต่งหน้ารับปริญญา",
        "phone": "0819224145"
    },
    {
        "id": "1734746153419730",
        "location": {
            "city": "Amphoe Tha Yang",
            "country": "Thailand",
            "latitude": 12.9667,
            "longitude": 100.9,
            "street": "หนองขานาง",
            "zip": "76130"
        },
        "name": "ช่างโน๊ต เต็มตา - สักลาย แก้ลาย",
        "phone": "0989905314"
    },
    {
        "about": "กองช่าง เทศบาลเมืองสะเดา ยินดีต้อนรับค่ะ  ",
        "description": " แนะนำ ติชม ข้อเสนอแนะ ร้องเรียน ร้องทุกข์ เรามีเจ้าหน้าที่จากงานไฟฟ้า งานสวนสาธารณะ งานสาธารณูปโภค คอยรับเรื่องของท่านและพร้อมให้บริการเสมอค่ะ",
        "general_info": "ห้องทำงานกองช่าง ตั้งอยู่ที่ตึกหลัง ชั้น 3 เลี้ยวซ้าย ห้องหมายเลข 8 ค่ะ",
        "id": "158795084288424",
        "location": {
            "city": "จ.สงขลา",
            "street": "99 ถ.กาญจนวณิชย์ ต.สะเดา อ.สะเดา",
            "zip": "90120"
        },
        "name": "กองช่าง สารพัดเรื่องช่าง เทศบาลเมืองสะเดา",
        "phone": "074 411 400 , 074 411 600  ต่อ 106"
    },
    {
        "id": "1631140370507123",
        "location": {
            "city": "Amphoe Thalang",
            "country": "Thailand",
            "latitude": 7.95,
            "longitude": 98.2667,
            "street": "ปั้มคาร์เทค",
            "zip": "83110"
        },
        "name": "ชาช้าง ปั้มคาร์ลเทกป่าสักภูเก็ต"
    },
    {
        "about": " รับทำกุญแจฝังชิพและรีโมทเปิดบ้านเปิดรถ0818525235",
        "id": "1391509451099263",
        "location": {
            "street": "พระนคร(ศรีอยุธยา"
        },
        "name": "ช่างกุญแจ เปิดรถ อ่างทอง สิงห์บุรี ชัยนาท สุพรรณ",
        "phone": "0818525235"
    },
    {
        "about": "ชมรมสื่อมวลชนเกาะช้าง",
        "id": "338312106266623",
        "location": {
            "street": "บ้านคลองสน  ตำบลเกาะช้าง",
            "zip": "23170"
        },
        "name": "ชมรมสื่อมวลชนเกาะช้าง",
        "phone": "0818701384"
    },
    {
        "about": "138-156 ถ.ประชาราษฎร์ 24 (ประชานฤมิตร) บางซื่อ กรุงเทพฯ สายไม้\nโทร 02-5851891 , 02-5850430  ,แฟกซ์ 02-5853414 ,,ID LINE: suan_bangbo",
        "description": "โรงงานผลิต-จำหน่าย ไม้คิ้ว ไม้บัว ไม้อัด ไม้โครง ประตู หน้าต่าง ราวบันได ขั้นบันได อุปกรณ์ ฮาร์ดแวร์ มือจับ กลอน เครื่องมือช่าง กบ สว่าน เครื่องเลื่อย สีน้ำพลาสติก สีพ่น สีน้ำมัน ตัวแทนจำหน่าย HAFELE HOME YALE TOA BEGER DULUX ICI ARCH COLT TSK TKS MAKTCE MAKITA JUMBO A HI-TOP PUMA AREOPRO  　",
        "emails": [
            "skc5851891@hotmail.com"
        ],
        "id": "438814359563649",
        "location": {
            "city": "กทมฺ",
            "street": "138-156 ถนนประชานฤมิตร แขวง/เขต บางซื่อ",
            "zip": "10800"
        },
        "name": "ถนนสายไม้ บางโพ ร้านส่วนการช่าง ขายอุปกรณ์ฮาร์ดแวร์ ไม้อัด ไม้โครง สี",
        "phone": "025850430"
    },
    {
        "id": "1437418923228241",
        "name": "ช่างกุญแจสงขลา 0841276253 เปิดกุญแจรถยนต์ กุญแจอิโมบิไลเซอร์ทุกรุ่น"
    },
    {
        "about": "ร้านส้มตำที่อร่อยที่สุด รับประกันความแซ่บ รสจัดจ้าน",
        "id": "574798959324199",
        "location": {
            "city": "Lop Buri",
            "country": "Thailand",
            "latitude": 14.8026944,
            "longitude": 100.6533615,
            "street": "การไฟฟ้าส่วนภูมมิภาคจังหวัดลพบุรี",
            "zip": "15000"
        },
        "name": "ส้มตำเมืองช้าง เจ๊ฉุย",
        "phone": "0940287792"
    },
    {
        "id": "118566308292610",
        "location": {
            "city": "Chiang Mai",
            "country": "Thailand",
            "latitude": 18.77817899257,
            "longitude": 98.998114924483,
            "street": "ถนน ประชาสัมพันธ์",
            "zip": "50100"
        },
        "name": "สุสานช้างคลาน"
    },
    {
        "id": "574582675951243",
        "location": {
            "city": "Sakon Nakhon",
            "country": "Thailand",
            "latitude": 17.159766652637,
            "longitude": 104.146543583
        },
        "name": "บริษัท สยามช้างไทย จำกัด สาขาสกลนคร",
        "phone": "042972150"
    },
    {
        "about": "สอบถามข้อมูล ใน inbox หรือโพส หน้าวอล\nเรื่องซื้อ,ขาย,ซ่อมโครงหลังคาทั้งมือ1,มือ2 ได้คับ",
        "description": "รับติดตั้ง โครงกระบะมือ1 มือ 2 หลังคามิเนียมตู้ทึบ โครงโดยสาร - สองแถว โครงคอก คอก + หลังคาสแตนเลส โครงผ้าใบ ตาช่าย รับซื้อมือสอง หลังคารถ มือสอง  หลังคารถมือ2",
        "id": "370059713199618",
        "location": {
            "city": "Amphoe Khlong Luang",
            "country": "Thailand",
            "latitude": 13.9736206,
            "longitude": 100.6171122,
            "street": "ตลาดสี่มุมเมือง,รังสิต,ตลาดไท",
            "zip": "12130"
        },
        "name": "เทคนิคช่าง :ซื้อ ขาย ซ่อม โครงหลังคารถกระบะ มือ1 มือ2",
        "phone": "0924042005"
    },
    {
        "about": "ยินดีให้บริการและปรึกษาได้ 24 ชม.ครับ",
        "emails": [
            "craftsman.decor1974@yahoo.com"
        ],
        "id": "484329255054789",
        "location": {
            "city": "Chiang Mai",
            "country": "Thailand",
            "latitude": 18.7903,
            "longitude": 98.9817,
            "street": "เชียงใหม่ ลำพูน",
            "zip": "50000"
        },
        "name": "ช่างเฟอร์นิเจอร์เชียงใหม่ ตกแต่งภายในและบูธแสดงสินค้า 0960565065",
        "phone": "0960565065"
    }
]