[
    {
        "id": "154187044657758",
        "location": {
            "city": "Ubon Ratchathani",
            "country": "Thailand",
            "latitude": 15.122780642978,
            "longitude": 104.89873104542,
            "zip": "34190"
        },
        "name": "ช่างสำงราญ"
    },
    {
        "id": "218372478178599",
        "location": {
            "latitude": 14.683975758459,
            "longitude": 104.35659540852,
            "street": "บ.ฮ่อง"
        },
        "name": "ปตท สี่แยกหัวช้าง"
    },
    {
        "id": "164837003563655",
        "location": {
            "city": "Muang Yala",
            "country": "Thailand",
            "latitude": 6.5467427498523,
            "longitude": 101.28155587805,
            "street": "อำเภอเมืองยะลา   จังหวัดยะลา",
            "zip": "95000"
        },
        "name": "สวนสาธารณะ สนามโรงพิธีช้างเผือก",
        "phone": "0828274053"
    },
    {
        "id": "119183071490334",
        "location": {
            "city": "Chiang Mai",
            "country": "Thailand",
            "latitude": 18.818806455892,
            "longitude": 98.975640066495,
            "zip": "50300"
        },
        "name": "สถานีตำรวจภูธรช้างเผือก",
        "phone": "53-218445"
    },
    {
        "id": "272087922834204",
        "location": {
            "city": "Muang Surin",
            "country": "Thailand",
            "latitude": 14.8864582024,
            "longitude": 103.495699506,
            "zip": "32000"
        },
        "name": "@ งานช้าง สุรินทร์"
    },
    {
        "description": "การแสดงช้างประกอบเสียง ฟาร์มจระเข้ ห้องอาหาร",
        "id": "169901426470437",
        "location": {
            "city": "Sam Phran",
            "country": "Thailand",
            "latitude": 13.719480612503,
            "longitude": 100.25314405571,
            "street": "117 หมู่6 ถ.เพชรเกษม กม. 30 อ.สามพราน",
            "zip": "73110"
        },
        "name": "ลานแสดงช้างและฟาร์มจระเข้ สามพราน",
        "phone": "0818165257"
    },
    {
        "id": "744434835637931",
        "location": {
            "city": "Bangkok",
            "country": "Thailand",
            "latitude": 13.713727808867,
            "longitude": 100.51487483547
        },
        "name": "บ้านช่างสัก เจริญกรุง63"
    },
    {
        "id": "409348485768887",
        "location": {
            "latitude": 14.6796985834,
            "longitude": 104.586637926
        },
        "name": "สี่แยกการช่าง  อ.กันทรลักษ์"
    },
    {
        "id": "184183265014946",
        "location": {
            "city": "Songkhla",
            "country": "Thailand",
            "latitude": 7.1499772562677,
            "longitude": 100.59783550864,
            "street": "ติดปั๊มน้ำมันเซล  ปากทางเข้าวัดเขาแก้ว  ถนนกาญจนวนิช เทศบาลเมืองเขารูปช้าง เ",
            "zip": "90000"
        },
        "name": "ร้านอาหารอิสานแมวนวล",
        "phone": "098 0158731หรือ 074  801689"
    },
    {
        "id": "443494745690161",
        "location": {
            "city": "Bangkok",
            "country": "Thailand",
            "latitude": 13.707847872547,
            "longitude": 100.7606822146,
            "street": "พ",
            "zip": "10540"
        },
        "name": "ฝ่ายช่าง การบินไทย @ สุวรรณภูมิ"
    },
    {
        "id": "545525245457884",
        "location": {
            "city": "Chiang Mai",
            "country": "Thailand",
            "latitude": 18.734818641397,
            "longitude": 99.030504576157,
            "street": "ลลิษาเนเชอรัลล้านนา",
            "zip": "50140"
        },
        "name": "สเต็กลุงช้าง เรียบทางรถไฟสารภี"
    },
    {
        "about": "สงขลาคีรี รีสอร์ท (หมี สงขลาคีรีรีสอร์ท)",
        "id": "625212124173465",
        "location": {
            "city": "Songkhla",
            "country": "Thailand",
            "latitude": 7.1554274893059,
            "longitude": 100.61287544389,
            "street": "77/7 ม.4 ต.เขารูปช้าง อ.เมือง",
            "zip": "90000"
        },
        "name": "สงขลาคีรี รีสอร์ท",
        "phone": "074-336100, 074-336188, 095-0737918"
    },
    {
        "id": "561530057256534",
        "location": {
            "city": "Ban Khai",
            "country": "Thailand",
            "latitude": 12.817650283233,
            "longitude": 101.29890601323,
            "street": "ตำบลบางบุตร อำเถอบ้านค่าย",
            "zip": "21120"
        },
        "name": "อุทยานสวนดอกไม้ตกเขางวงช้าง"
    },
    {
        "id": "109008872628203",
        "location": {
            "city": "Chiang Mai",
            "country": "Thailand",
            "latitude": 18.72641382688,
            "longitude": 99.017724082805,
            "street": "เรียบรถไฟ",
            "zip": "50140"
        },
        "name": "สเต็กลุงช้าง"
    },
    {
        "about": "ให้เราพาคุณเที่ยวนะคะ Let's me take you travel",
        "description": "LADY BACKPACKER คนช่างฝัน สาวข้างบ้าน เป็นล็อกอินถือกำเนิดมาจากห้องบลูพลาเน็ต ในเว็บไซต์พันทิพ ภาพถ่ายและบทความในเพจนี้คือผลงานของคนช่างฝัน สาวข้างบ้านเอง เน้นการเดินทางท่องเที่ยวสไตล์ Backpacker... ขอบคุณสำหรับการติดตามนะคะ ",
        "id": "177436532448144",
        "name": "คนช่างฝัน สาวข้างบ้าน"
    },
    {
        "about": "เครื่องสับต้นข้าวโพด ต้นกระถิน หญ้าเนเปีย",
        "emails": [
            "maiake.pr@hotmail.com"
        ],
        "id": "314561555232788",
        "location": {
            "city": "Pak Chong",
            "country": "Thailand",
            "latitude": 14.92536,
            "longitude": 101.36825,
            "street": "83/3 หมู่ 19 ต. ปากช่อง อ. ปากช่อง จ.นครราชสีมา",
            "zip": "30130"
        },
        "name": "ช่างสำเริง เครื่องสับ ปากช่อง",
        "phone": " 089-5812111   ช่างสำเริง   088-3722520  ช่างเอก"
    },
    {
        "about": "มีรองเท้าแกะสลักลายหลากหลายลายให้คุณเลือก",
        "description": "รองเท้าแกะสลักลายเป็นงานศิลปะที่ทำด้วยมือ  ออกแบบโดยความคิดและจิตนาการของตัวเอง\nซึ่งก็มีอยู่หลากหลายลายหลายแบบไว้ให้คุณเลือก\nหรือคุณอยากได้ลายใหม่ที่คุณชอบไม่ว่าจะเป็น ตัวกาตูนร์  หรือ ภาพต่างๆ ผมก็สามารถออกแบบลายและแกะสลักให้คุณได้",
        "emails": [
            "golflovegad@hotmail.com"
        ],
        "id": "824179510957115",
        "location": {
            "city": "Krabi",
            "country": "Thailand",
            "street": "266 ม.2 ต.เขาต่อ อ.ปลายพระยา จ.กระบี่",
            "zip": "81160"
        },
        "name": "รองเท้าแกะสลักลาย \" ช้างดาว\"",
        "phone": "084-4410347"
    },
    {
        "about": "ช่างทองสุโขทัย 2011 ",
        "description": "ช่างทองสุโขทัย 2011 ทองคำหุ้ม100% ไม่ลอก ไม่ดำ ไม่คัน \n\nทันสมัย สวยงาม รับประกัน สนใจเฟรนไชน์ โทร 089-9580566",
        "id": "380043732035272",
        "name": "ช่างทองสุโขทัย 2011"
    },
    {
        "about": "ช่างแต่งหน้า รับแต่งหน้าเจ้าสาว โดยพี่บี 0851463446",
        "emails": [
            "bebemakeup@hotmail.com"
        ],
        "id": "379102962229086",
        "location": {
            "city": "Bangkok",
            "country": "Thailand",
            "street": "หัวหมาก บางกะปิ",
            "zip": "10240"
        },
        "name": "ช่างแต่งหน้า รับแต่งหน้าเจ้าสาว ทั่วไทย",
        "phone": "0851463446"
    },
    {
        "about": "แต่งหน้ารับปริญญา แต่งหน้าเจ้าสาวนอกสถานที่ แพคเกจถ่ายพรีราคาถูก รับจัดงานครบวงจร",
        "id": "209577962509890",
        "location": {
            "city": "Bangkok",
            "country": "Thailand",
            "street": "88/2583 แขวงแสมดำ เขตบางขุนเทียน",
            "zip": "10150"
        },
        "name": "ช่างแต่งหน้า แต่งหน้าเจ้าสาว แต่งหน้านอกสถานที่",
        "phone": "0824924847"
    },
    {
        "id": "485426524863384",
        "location": {
            "city": "Bangkok",
            "country": "Thailand",
            "latitude": 13.75395,
            "longitude": 100.50224,
            "street": "สะพานควาย พหลโยธิน จตุจักร ลาดพร้าว รัชโยธิน",
            "zip": "10000"
        },
        "name": "ช่างกุญแจสะพานควาย 082 473 1555",
        "phone": "0824731555"
    },
    {
        "about": "เพื่อดำรงไว้ซื้ง ภูมิปัญญาแห่งพรรพบุรุษชาวล้านช้าง",
        "id": "201626779966539",
        "location": {
            "city": "Muang Kalasin",
            "country": "Thailand",
            "located_in": "657967367590673",
            "zip": "46000"
        },
        "name": "สำนักดาบพิชัยยุทธล้านช้าง"
    },
    {
        "about": "รักกันไว้ในถิ่นเรา เทา-น้ำตาล ",
        "description": "สายรถประจำทางที่ผ่าน:22, 36ก, 40, 58, 60, 71, 92, 95, 99, 109, 113, 115, 122, 126, 137, 182, 207\n\n",
        "emails": [
            "bits@bits.ac.th"
        ],
        "general_info": "วิทยาลัยเทคโนโลยีช่างอุตสาหกรรมกรุงเทพ เป็นสถานศึกษาระดับอาชีวศึกษาเอกชน ที่เปิดสอนระดับประกาศนียบัตรวิชาชีพ ( ปวช.) และระดับประกาศนียบัตรวิชาชีพชั้นสูง (ปวส.) ก่อตั้งขึ้นเมื่อปี พ.ศ. 2512 จากเจตนารมณ์ที่ต้องการจะเห็นความก้าวหน้าของบุคลากรสายอาชีวะและการพัฒนาประเทศอย่างแท้จริง ของ ดร. สมาน กันมล อดีตอาจารย์ประจำคณะวิชาเครื่องกล วิทยาลัยเทคนิคพระนครเหนือ หรือ ปัจจุบัน คือ สถาบันเทคโนโลยีพระจอมเกล้าพระนครเหนือ\nด้วยความมุ่งมั่นที่จะพัฒนานักเรียน นักศึกษาให้มีความพร้อมทั้งทางด้านคุณธรรมและวิชาการ วิทยาลัยจึงได้จัดให้มีการเรียนการสอนที่เน้นการพัฒนาความรู้ ทักษะ ความชำนาญ ความมีวินัยและจรรยาบรรณในวิชาชีพ รวมถึงการจัดสภาพแวดล้อมภายในวิทยาลัยที่เอื้อต่อการเรียนรู้และการพัฒนาทั้งด้านร่างกายและอารมณ์ โดยนักเรียน นักศึกษาทุกคนจะได้ศึกษาเรียนรู้และฝึกปฏิบัติจริงภายในโรงฝึกงานและห้องปฏิบัติการของวิทยาลัย\nวิทยาลัยเทคโนโลยีช่างอุตสาหกรรมกรุงเทพ ได้รับการรับรองมาตรฐานการศึกษาจากกระทรวงศึกษาธิการ และ ก.พ. รับรองคุณวุฒิ ดังนั้น ผู้สำเร็จการศึกษาจากวิทยาลัยจึงมีศักดิ์และสิทธิ์เทียบเท่าผู้สำเร็จการศึกษาจากสถาบันของรัฐทุกประการ",
        "id": "250331281669719",
        "location": {
            "city": "Bangkok",
            "country": "Thailand",
            "latitude": 13.81425,
            "longitude": 100.7392578,
            "street": "เลขที่ 2 ซอยรามคำแหง 28 ถนนรามคำแหง หัวหมาก บางกะปิ 10240 กรุงเทพมหานคร",
            "zip": "10240"
        },
        "name": "สถาบันเทคโนโลยีช่างอุตสาหกรรมกรุงเทพ (AUT)"
    },
    {
        "about": "โทสอบถามราคา หรือ ติดต่องานได้ ทุกวันนะคะ\nเวลา 11.00 น.-19.00 น. ค่า",
        "id": "412985518826673",
        "location": {
            "city": "chonburi",
            "street": "sattahip",
            "zip": "20180"
        },
        "name": "ช่างแต่งหน้า ชลบุรี ระยอง พัทยา สัตหีบ Ms.Pang Make-Up",
        "phone": "0925299955"
    },
    {
        "about": "มีดพับ มีดพก มีดสั้น มีดเขาสัตว์ มีดงาช้าง ดาบ",
        "description": "ผลิตและจัดจำหน่ายมีดและสินค้าภายใต้แบรนด์ \"ทิน\" เช่น มีดพับ มีดพก มีดสั้น มีดแล่ มีดโบวี่  มีดเดินป่า ดาบ ผลิตด้วยเหล็กกล้า  ATS 34   stainless still และ เหล็กกล้า  440C stainless still วัสดุด้ามผลิตจาก งาช้าง เขาสัตว์ ไม้มะข่า ไม่มงคลต่างๆ ผลิตหัวเข็มขัด งาช้าง ฟอสซิลงาช้าง เข็มขัดหนัง และรับออกแบบมีดตามแบบที่ลูกค้าต้องการ",
        "general_info": "ร้านมีดช่างทิน มี 3 สาขา \n1. บูธ M08 OTOP THE WALKING STREET ตั้งอยู่บริเวณใต้ทางด่วนสีลม เปิดทำการทุกวัน โทร. 093 135 3554 (คุณโจ๊ก)\n2. จตุจักร โครงการ 23 ซอย 2 เปิดเสาร์-อาทิตย์ เวลา 08:00 - 17:00 น. โทร. 081 284 1812 (คุณยอด)\n3. โรงงาน ตั้งอยู่เลขที่ 2/5 หมู่ 3  ตำบล หนองไผ่แบน อำเภอเมือง จังหวัดอุทัยธานี เปิดทำการทุกวันยกเว้นวันอาทิตย์ เวลา 08:00 - 17:00 น. โทร. 081 284 1812 (คุณยอด)\n\nประวัติความเป็นมาของมีดช่างทิน\nช่างทินได้เป็นส่วนหนึ่งของช่างทำปืนเถื่อนในหมู่บ้านหนองอีเติ่ง หมู่บ้านที่มีชื่อเสียงมากในการทำปืนเถื่อนขาย กล่าวได้ว่าหมู่บ้านนี้เป็นแหล่งผลิตปืนเถื่อนที่มีชื่อเสียงมากของจังหวัดอุทัยธานี  ใครต้องการปืนสักกระบอก ต้องเดินทางมาที่หมู่บ้านหนองอีเติ่งแห่งนี้ ซึ่งช่างทินและกลุ่มเพื่อนๆ ช่างปืนด้วยกัน จะอาศัยชายป่าเป็นแหล่งหลบซ่อนตำรวจ เพื่อลักลอบทำปืนเถื่อนขายให้กับลูกค้าที่มาสั่งตามออเดอร์  ซึ่งปืนของช่างทินถือได้ว่ามีความสวยงามมากเพรา เป็นคนมีความคิดสร้างสรรค์เป็นเอกลักษณ์เฉพาะตัว เขาจึงสามารถสร้างสรรค์ผลงานปืนได้อย่างมีคุณภาพและมีความสวยงามยิ่งนัก\nปี ๒๕๒๕  ทางรัฐบาลไทยได้กวาดล้างให้ชาวบ้านเลิกอาชีพทำปืนเถื่อนอย่างจริงจัง เพราะถือว่าเป็นอาชีพที่ผิดกฎหมาย เป็นเหตุการณ์ที่สร้างความตกใจให้กับงงการช่างปืนเถื่อนแห่งเมืองอุทัยที่มีชื่อเสียงช้านาน  ช่างปืนเถื่อนในหมู่บ้านหนองอีเติ่งทุกคนต้องหันไปประกอบอาชีพอื่น  ส่วนมากจะหันไปประกอบอาชีพทำไร่ทำนา เพราะพื้นที่ชุมชนอยู่ติดแม่น้ำสะแกกรัง แต่ด้วยความที่ช่างทินมีความผูกพันกับอาชีพช่างทำปืนมาตั้งแต่จำความได้ จึงไม่สามารถเลิกอาชีพช่างได้  จึงคิดทำเครื่องมือการเกษตร ขายให้กับชาวบ้านที่เลิกทำปืนไปทำไร่ทำนา ด้วยนิสัยส่วนตัวที่เป็นคนชอบคิดค้นดัดแปลงจึงทดลองทำมีดเหล็กกล้าขาย โดยลูกค้าคนแรกคือ อดีตลูกค้าเก่าที่เคยซื้อปืน\n กลุ่มมีดบ้านช่างทิน เริ่มก่อตั้งโดยช่างทิน เมื่อปี พ.ศ. ๒๕๒๘\nจากจุดนั้นจึงทำให้ช่างทินผลิตมีดใช้งานออกมามากมาย โดยได้พัฒนาคุณภาพของงานด้วยการนำเข้าเหล็กกล้าคุณภาพดีจากประเทศเยอรมัน และทดลองนำไปขายที่สวนจตุจักร ทำให้ได้กระกระแสตอบรับจากคนซื้อมากขึ้น จึงหันกลับมาชักชวนเพื่อนที่เคยทำปืนด้วยกันกลับมาทำมีดเพื่อให้ทันต่อความต้องการของตลาด นับได้ว่าช่างทินคือช่างคนแรกในจังหวัดอุทัยธานี ที่เริ่มบุกเบิกวงการช่างมีดของเมืองอุทัยธานี  ต่อมาอดีตท่านผู้ว่าราชการจังหวัดอุทัยธานี ท่านขวัญชัย  วศุวงศ์ ได้เล็งเห็นความเป็นเอกลักษณ์ของช่างทิน จึงผลักดันให้เข้าเป็นสินค้า OTOP ประจำจังหวัด และท่านยังให้ความช่วยเหลือในการออกแบบแบรนด์สินค้า โดยใช้คำว่า “ทิน” เป็นเครื่องหมายรับรองคุณภาพอีกด้วย\n\nเอกลักษณ์ของผลงานมีด\n-              วัสดุที่ใช้เป็นทำใบมีด คือ เหล็กกล้าคุณภาพสูงนำข้าจากประเทศเยอรมัน ซึ่งมีคุณสมบัติแข็งแกร่ง ทนทาน มีความมันวาว ไม่เป็นสนิม โดยช่างทินนิยมใช้สองชนิดด้วยกัน กล่าวคือ หากเป็นการทำมีดพับ จะใช้เหล็กกล้า  ATS 34   stainless still  ซึ่งเป็นเหล็กชนิดบางแต่คุณสมบัติด้านความแข็งแกร่งไม้ได้ลดน้อยลงไปเลย  หากจะทำมีดขนาดใหญ่ เช่น มีดแล่ มีดโบวี่  มีดเดินป่าจะใช้เหล็กกล้า  440 C   stainless still  เหล็กทั้งสองชนิดนี้มีคุณภาพมากในด้านความแข็ง ซึ่งธาตุส่วนประกอบในเนื้อเหล็กส่วนใหญ่จะเป็นโครเมียมมากกว่าธาตุชนิดอื่น โดยเหล็ทั้งสองชนิดนี้เป็นเหล็กกล้าคุณภาพสูงที่ผลิตในประเทศเยอรมัน\nวัสดุอีกชนิดหนึ่งที่มีคุณภาพไม่แพ้กัน แต่เน้นเรื่องความสวยงามนั่นก็คือเหล็กดามัสกัส จากประเทศสวีเดน ซึ่งมีสองลักษณะด้วยกันคือ ดามัสกัสสีเงินทั่วไป กับดามัสกัสสีเหลืองทอง โดยที่เหล็กชนิดสีทองจะหายากมากและมีราคาสูงมาก ทำให้ลูกค้าสู้ราคาไม่ค่อยไหว\n-       วัสดุด้าม ประกอบด้วย งาช้าง เขาสัตว์ต่างๆ เช่น เขากวาง เขากระทิง เขาควาย เขาวัว และไม้เนื้อแข็งชนิดต่างๆ เช่น ไม้ชิงชัน ไม้ปุ่มมะค่า",
        "id": "841011802594698",
        "location": {
            "city": "Uthai Thani",
            "country": "Thailand",
            "latitude": 15.42507019284,
            "longitude": 100.02496962644,
            "street": "2/5 หมู่ 3  ตำบล หนองไผ่แบน อำเภอ เมืองอุทัยธานี",
            "zip": "61000"
        },
        "name": "มีดสวยงาม มีดช่างทิน",
        "phone": "0931353554"
    }
]