[
    {
        "about": "รับซ่อม สร้าง ทำสี แท้งก์ใหม่ เก่า บัททอมโหลด",
        "description": "รับซ่อมสร้างแท้งก์ ทั้งเก่า และใหม่\nบัททอมโหลด ทั้งโหลด บน และโหลดล่าง\nอุปกรณ์มาตารฐานรับประกัน 2 ปี\n",
        "emails": [
            "chang.jin.2515@hotmail.com"
        ],
        "id": "270231799670809",
        "location": {
            "street": "53/3 ม.3 ต.ดาวเรือง  อ.เมือง  จ.สระบุรี",
            "zip": "18000"
        },
        "name": "หจก.ช่างจิ้น ซ่อมสร้างแท้งก์น้ำมัน",
        "phone": "0875834102"
    },
    {
        "about": "ฝากรูปกันได้ ทั้งศิษย์ใหม่ ศิษย์เก่า ",
        "emails": [
            "dreamza155@hotmail.com"
        ],
        "id": "611164472242846",
        "name": "สมาคมนักเรียนช่างและพาณิชย์ - ศูนย์ไร่ขิง"
    },
    {
        "about": "^^ ไลค์รูป ก๊เข้ามา ไลค์เพจ กันด้วยนะคับ #ขอบคุณคับผม ^^",
        "emails": [
            "\u003c\u003cnot-applicable\u003e\u003e"
        ],
        "id": "579240508811640",
        "location": {
            "city": "ไทย",
            "street": "เพชรเกษม",
            "zip": "10160"
        },
        "name": "สมาคมหนุ่มสาว''เด็กช่าง เด็กพาณิชย์''",
        "phone": "\u003c\u003cnot-applicable\u003e\u003e"
    },
    {
        "about": "รับต่อเรือ ทุกชนิด ติดต่อ \nโทร : 086-5637685 \nFB : อู่เทพสุนทร ช่างเทียน",
        "id": "336271063245516",
        "name": "เทพสุนทร ช่างเทียน - เรือซิ่ง"
    },
    {
        "about": "ทีมงานช่างเต่าดัดทรายsaraburi",
        "id": "235026876658858",
        "name": "ทีมงานช่างเต่าดัดทราย สระบุรี"
    },
    {
        "about": "We are small Pool in small Town.",
        "id": "363359813752282",
        "location": {
            "city": "Phangnga",
            "country": "Thailand",
            "latitude": 8.43934252586,
            "longitude": 98.51597216935,
            "street": "ThumPhungChang",
            "zip": "82000"
        },
        "name": "Khao-Chang Swimming pool สระว่ายน้ำเขาช้าง",
        "phone": "0865555458"
    },
    {
        "about": "151 ม.8 ต.หนองไผ่ อ.หนองไผ่ จ.เพชรบูรณ์\nโทร : 056-562086,091-0266163\nID Line : 0910266163",
        "id": "835979149788375",
        "location": {
            "city": "Nong Phai",
            "country": "Thailand",
            "latitude": 15.969793782424,
            "longitude": 101.05390797909,
            "street": "151 ม.8 ต.หนองไผ่ อ.หนองไผ่ จ.เพชรบูรณ์",
            "zip": "67140"
        },
        "name": "หลังคารถสิทธิพลรวมช่าง เอนกการช่างเก่า",
        "phone": "056562086"
    },
    {
        "about": "เราก็เป็น ฟันเฟืองตัวนึง ที่ขับเคลื่อน \"สังคม\"\nเป็นนักรบของ \"ประชาชน\" ตุลา พฤษภา ทมิฬ (:",
        "id": "397634613768910",
        "location": {
            "city": "ระนอง",
            "street": "11/1",
            "zip": "85000"
        },
        "name": "สมาคมนิยมเด็กช่างระนอง"
    },
    {
        "about": "จำหน่าย และรับซ่อม เครื่องมือช่างทุกชนิด ทั้งปลีกและส่ง",
        "id": "778311068906802",
        "name": "เครื่องมือช่าง - ช่างแจ๊ค สว่าน ชุดบล็อค ปั๊มลม เครื่องมือไฟฟ้าและอะไหล่"
    },
    {
        "about": "//ไม่ว่าจะสถาบันไหน..ที่ไหน-เราก็เป็นเด็กอาชีวะด้วยกัน//",
        "id": "479485135522234",
        "location": {
            "city": "Thailand,",
            "street": "ประเทศไทย",
            "zip": "67130"
        },
        "name": "สมาคมนิยมเด็กช่างเฟี่ยวๆ-แห่งประเทศไทย",
        "phone": "0871972596"
    },
    {
        "about": "บริการ Xenon-Projecter บริการล้างไฟหน้าขัดไฟหน้า",
        "description": " ล้างไฟหน้ารถยนต์ ขัดคราบเหลืองออกโดยเครื่องและน้ำยาเคลือบจากอเมริกาทดลองก่อนขัดและหลังขัดทำให้เห็นถึงความแตกต่าง ขัดเสร็จจะไม่หลงเหลือคราบเหลืองและลายเส้นให้เห็น\n\n   การขัดโคมเสร็จแล้วนั้น ลายเส้นต้องหมดไป ถ้าไม่หมดความหมองจะกลับมาอย่างรวดเร็วภายในไม่กี่อาทิตย์ เหมือนกระจกครับเช็ดปุป มันก็ใสแต่แป๊ปเดียวมันก็หมอง แต่ถ้าเช็ดเสร็จและเคลือบน้ำยาตามมันก็ยิ่งทนในความใส\n\n  สาเหตุของความหมอง  สาเหตุนั้นมาจากอายุการใช้งาน  นั้นแหละครับแต่โคมที่เหลืองเร็วนั้น เกิดจากการตากแดด   บ่อยมากๆ อาการจะเริ่มเหลือง จากด้านบนสุด ของโคมไฟนั้นคือส่วนที่รับแดดมากที่สุด ตรงนี้อย่าปล่อยไว้นานครับ แต่ก็ไม่ใช่ว่าจะต้องรีบขัดนะครับ แต่ถ้าทำตั้งแต่อาการแรกๆโคมของท่านจะไม่แตกลายงา นั้นคืออาการขั้นที่สองครับ อาการแตกลายงา นั้นแก้ไม่ได้แต่สิ่งสกปรก ต่างๆนั้นจัดการได้หมด พี่ๆน้องๆลองตัดสินใจดูครับ จะได้ไม่ต้องเปลี่ยนโคมใหม่\n\n  สาเหตุของความหมองภายในโคม  นี้ก็เป็นสาเหตุที่เกิดจาก อุณถูมิในห้องเครื่อง จะค่อยๆเข้าโคมไฟจากด้านหลังของโคม ตามฝาครอบยางต่างๆตามขั้วไฟที่หมุนปิดไม่แน่น หรือไม่ก็กาวของโคมไฟเกิดการเสื่อมลง นั้นจะทำให้น้ำเข้าได้ครับ อันนี้ก็ต้องรีบแก้ครับ ถ้าช้าน้ำจะทำลายจานฉายของโคมไฟ คือโครมเมี่ยมจะร่อนหรือดำในที่สุด ความสว่างก็จะตาบอดไปเลยเวลาเปิดไฟ \n\n  ทุกอาการแก้ไขได้ถ้าไม่ช้าเกินไป เรายินดีให้คำปรึกษา คุยกันตรงๆกับอาการต่าง งานทุกชิ้น ทุกโคม ผม กล้ารับประกัน\n\nเพราะงานทุกชิ้นผมจะลงมือทำเองไม่มีการจ้างลูกน้องทำแล้วท่านจะได้รับงานแบบเช้าชามเย็นชาม เจ้าของร้านตามแก้ และทำให้ลูกค้า เสียเวลาอย่างยิ่ง ผมจึงกล้ารับประกันงานทั้งหมดที่ทำ  ยินดีให้คำปรึกษาครับ ช.ตุ้ม สมศักดิ์\n\n089-2192941  สถานที่ร้าน ถ.แฮปปี้แลนด์ บางกะปิ โทรมาล่วงหน้านะครับจะได้ไม่เสียเวลารอนาน ",
        "emails": [
            "somsak.t2524@gmail.com"
        ],
        "id": "798557113504632",
        "location": {
            "city": "Bangkok",
            "country": "Thailand",
            "latitude": 13.782259777778,
            "longitude": 100.64379429134,
            "zip": "10240"
        },
        "name": "ขัดไฟหน้า ขัดเงาพลาสติก ช่างสมศักดิ์"
    },
    {
        "id": "305204332948966",
        "location": {
            "city": "Muang Phetchabun",
            "country": "Thailand",
            "latitude": 16.39082,
            "longitude": 101.15624,
            "street": "207 ม.7  ต.บ้านโตก อ.เมือง จ.เพชบูรณ์",
            "zip": "67000"
        },
        "name": "กลุ่มช่างเสริมสวย",
        "phone": "0829485030"
    },
    {
        "about": "ประวัติ\nชื่อ : พิสิฐพงศ์ ช่างหล่อ\nชื่อเล่น : สเป็ค\nวันเกิด : 4 พ.ย. 2542\nละคร สุดแค้นแสนรัก",
        "id": "1434122273558720",
        "name": "สเป๊ค พิสิฐพงศ์ ช่างหล่อ"
    },
    {
        "about": "การไฟฟ้าส่วนภูมิภาค",
        "id": "470534389763476",
        "location": {
            "city": "Dan Chang",
            "country": "Thailand",
            "latitude": 14.4766903,
            "longitude": 100.1009369,
            "street": "1/19 ม.5 ต.หนองมะค่าโมง",
            "zip": "72180"
        },
        "name": "การไฟฟ้าส่วนภูมิภาคสาขาอ.ด่านช้าง",
        "phone": "035595390"
    }
]