[
    {
        "id": "797187506988474",
        "location": {
            "city": "Chiang Mai",
            "country": "Thailand",
            "latitude": 18.762177071071,
            "longitude": 99.000754820162,
            "zip": "50100"
        },
        "name": "ซีฟู๊ด บุฟเฟ่ต์ เชียงใหม่. สาขา 2 ช้างคลาน"
    },
    {
        "id": "197020197063115",
        "location": {
            "city": "Muang Sara Buri",
            "country": "Thailand",
            "latitude": 14.534785557466,
            "longitude": 100.91163860897,
            "zip": "18000"
        },
        "name": "แผนกช่างก่อสร้าง วิทยาลัยเทคนิคสระบุรี"
    },
    {
        "about": "ช่วงเคอร์ฟิวส์นี้...เราเปิดบริการ เวลา 12:00 ถึง24:00.น่ะครับ.",
        "id": "249396838599454",
        "location": {
            "city": "Amphoe Muang Chiang Mai",
            "country": "Thailand",
            "latitude": 18.799899294643,
            "longitude": 98.980075156874,
            "street": "34/6. ถ. หัสดิเสวี. เยื้องวัดสันติธรรม. ต. ช้างเผือก. อ. เมือง.  จ. เชียงใหม่",
            "zip": "50200"
        },
        "name": "โฮงหมู สันติธรรม เชียงใหม่",
        "phone": "053226897"
    },
    {
        "id": "553729424717805",
        "location": {
            "latitude": 14.8446741922,
            "longitude": 99.6800541453
        },
        "name": "เขื่อนกระเสียว อำเภอด่านช้าง จังหวัดสุพรรณบุรี"
    },
    {
        "id": "354020094677524",
        "location": {
            "city": "Bangkok",
            "country": "Thailand",
            "latitude": 13.773917828068,
            "longitude": 100.45356339207,
            "street": "163 คลองชักพระ ตลิ่งชัน กรุงเทพมหานคร",
            "zip": "10170"
        },
        "name": "โรงเรียนวัดช่างเหล็ก(ส.ช.ก.)",
        "phone": "024243326"
    },
    {
        "id": "664091443620126",
        "location": {
            "city": "Nakhon Ratchasima",
            "country": "Thailand",
            "latitude": 14.991515536197,
            "longitude": 102.1019500017,
            "street": "837/1 ซอย 3 ถนนช้างเผือก ต.ในเมือง อ.เมือง",
            "zip": "30000"
        },
        "name": "บ้านเกื้อ เพลส \u0026 สปา",
        "phone": "044271233"
    },
    {
        "id": "182817981764810",
        "location": {
            "city": "Songkhla",
            "country": "Thailand",
            "latitude": 7.1397531599365,
            "longitude": 100.62139417622,
            "street": "179 ม.5 ถ.สงขลา-นาทวี ต.เขารูปช้าง อ.เมือง",
            "zip": "90000"
        },
        "name": "ค่ายพระปกเกล้า ป.พัน.5 สงขลา",
        "phone": "074-336-041"
    },
    {
        "id": "342874152456435",
        "location": {
            "city": "Bangkok",
            "country": "Thailand",
            "latitude": 13.73392344985,
            "longitude": 100.69707629269,
            "street": "หน้าหมู่บ้านนักกีฬา",
            "zip": "10240"
        },
        "name": "หลังรามปลาเผา สาขา 3 ทับช้าง",
        "phone": "\u003c\u003cnot-applicable\u003e\u003e"
    },
    {
        "id": "113543022090522",
        "location": {
            "latitude": 15.266000384597,
            "longitude": 103.49652429681
        },
        "name": "ศูนย์คชศึกษา หมู่บ้านช้าง จ.สุรินทร์",
        "phone": "044145070"
    },
    {
        "about": "สแตนเลส โครงหลังคาเหล็ก ประตูม้วน ประตูยืด กันสาด เหล็กดัด ",
        "id": "273966492755039",
        "location": {
            "city": "Ranong",
            "country": "Thailand",
            "latitude": 9.9663438685185,
            "longitude": 98.628034568148,
            "street": "จ.ระนอง",
            "zip": "85000"
        },
        "name": "ร้านสุขแจ่ม รวมช่าง รับทำงานเหล็กทุกชนิด",
        "phone": "0828061677"
    },
    {
        "about": "รับสอนงานฝีมือ การแต่งบอนไซ งานกระถาง",
        "emails": [
            "banchangmai1982@gmail.com"
        ],
        "id": "280094788813791",
        "location": {
            "city": "Songkhla",
            "country": "Thailand",
            "latitude": 7.1136151150467,
            "longitude": 100.57097196579,
            "street": "1 bannamkrachai",
            "zip": "90100"
        },
        "name": "บ้านชางไม้ สงขลา",
        "phone": "0841800231"
    },
    {
        "about": "ใกล้ร้านหมี่กรอบช่างรังวัด",
        "id": "118940231784141",
        "location": {
            "city": "Krathum Baen",
            "country": "Thailand",
            "latitude": 13.644850380099,
            "longitude": 100.23770213127,
            "street": "ถนนสุคนธวิท , ตลาดกระทุ่มแบน , กระทุ่มแบน",
            "zip": "74110"
        },
        "name": "ช่างตำแซ่บ กระทุ่มแบน",
        "phone": "034446279"
    },
    {
        "about": "เด็กช่าง",
        "id": "221498181352904",
        "location": {
            "city": "Nakhon Pathom",
            "country": "Thailand",
            "latitude": 13.81103,
            "longitude": 100.01429,
            "street": "นครปฐม",
            "zip": "73000"
        },
        "name": "สมาคมเด็กช่างแห่งประเทศไทย",
        "phone": "0804811454"
    },
    {
        "about": "ขายส่งรถเกี่ยวข้าว รถตีเลน",
        "id": "155584231306471",
        "location": {
            "city": "Chacherngsao",
            "country": "Thailand",
            "latitude": 13.925952322944,
            "longitude": 101.0739881846,
            "street": "บางน้ำเปรี้ยว คลอง 20",
            "zip": "24170"
        },
        "name": "รถเกี่ยวข้าวสมคิดการช่าง",
        "phone": "0814294544"
    },
    {
        "id": "659078840889601",
        "location": {
            "city": "Tamot",
            "country": "Thailand",
            "latitude": 7.4063366666667,
            "longitude": 100.15746833333
        },
        "name": "สุขเกษมการช่าง"
    },
    {
        "id": "967334753329363",
        "location": {
            "city": "Amphoe Song Phi Nong",
            "country": "Thailand",
            "latitude": 14.15872223,
            "longitude": 100.1069403985
        },
        "name": "ร้านแสงทองการช่างสุพรรณบุรี"
    },
    {
        "id": "143633725989406",
        "location": {
            "city": "Amphoe Muang Khon Kaen",
            "country": "Thailand",
            "latitude": 16.501942821794,
            "longitude": 102.69573957669,
            "street": "บ้านสาวะถี ตำบลสาวะถี อำเภอเมือง จังหวัดขอนแก่น"
        },
        "name": "อู่สิริชัยการช่าง บ้านสาวะถี"
    },
    {
        "about": "ขายอุปกรณ์การสัก-ประมูลสินค้าสักทุกชนิด",
        "id": "806156439433822",
        "location": {
            "city": "Bangkae",
            "country": "Indonesia",
            "latitude": -3.88333,
            "longitude": 119.733,
            "street": "กทม",
            "zip": "10160"
        },
        "name": "ชมรมช่างสัก ใหม่-เก่า ขายอุปกรณ์-ประมูลสินค้าสักทุกชนิด",
        "phone": "0850587374"
    },
    {
        "about": "อู่ ช่างอาร์ท สุพรรณบุรี ติดต่อ ติดตั้งความแรง ได้ที่ 086-5312675",
        "id": "124340874330791",
        "location": {
            "city": "Supanburi",
            "country": "Thailand",
            "latitude": 14.5056896,
            "longitude": 100.1409683,
            "street": "Ruayai",
            "zip": "72000"
        },
        "name": "อู่ ช่างอาร์ท สุพรรณบุรี  086-5312675",
        "phone": "0865312675"
    },
    {
        "about": "ยินดีต้อนรับสู่ สมาคมเด็กช่างกลแห่งประเทศไทย'",
        "description": "เพจแอดมินพึงสร้างไหม่ ฝากไลค์กันด้วยนะ",
        "id": "473109402729874",
        "name": "สมาคมเด็กช่างกลแห่งประเทศไทย'"
    },
    {
        "id": "1632210360367844",
        "location": {
            "city": "Surat Thani",
            "country": "Thailand",
            "zip": "84000"
        },
        "name": "ช่างเทพ สุราษฎร์ SRC",
        "phone": "0835946497"
    },
    {
        "about": "ใครสนใจภ่ายภาพ ชอบงานถ่ายภาพเข้ามาพูดคุยกันได้นะครับ",
        "id": "1413762792240533",
        "location": {
            "city": "Bangkok",
            "country": "Thailand",
            "latitude": 13.727021054867,
            "longitude": 100.48713521481
        },
        "name": "สมาคมช่างภาพอิสระ."
    },
    {
        "about": "กิจกรรมของเยาวชน โดยเยาวชน เพื่อเยาวชน",
        "emails": [
            "patrols.93@gmail.com"
        ],
        "id": "873385712676618",
        "location": {
            "city": "สงขลา",
            "street": "239/4 ซ.55/1 ถ.กาญจนวานิช ต.เขารูปช้าง อ.เมือง",
            "zip": "90000"
        },
        "name": "สภาเด็กและเยาวชนเทศบาลเมืองเขารูปช้าง",
        "phone": "080-1375909"
    },
    {
        "id": "242295929144457",
        "name": "ช่างสถาปัตยกรรม"
    },
    {
        "about": "ช่างสมพร รับขัดพื้นไม้ ปูปาร์เก้ 089-230-9918 \nซ่อมพื้นไม่ ปาร์เก้  งานไม้จริง ราคากันเอง\n",
        "description": "รับงาน ปาร์เก้ ปู ขัด ทาสี ซ่อมแซม พื้นไม้ต่างๆ ปาร์เก้ โดยรับทำงานทั่วไป งานเล็ก งานใหญ่ทำหมดเราทำได้ครับ พื้นห้องคอนโด บ้านเรือน ที่มีปัญหา ปาร์เก้ หลุดล่อน โก่งพอง ปลวกกิน ผุก่อนและรอยถลอกขูดขีด สามารถทำให้หายได้โดย การขัดเป็นจุดๆไป หรือขัดใหม่ทั้งห้องเท่านี้ก็ทำให้พื้นปาร์เก้สวยเงางาม และใหม่อยู่เสมอ หากคุณต้องการช่างที่มีความชำนาญงานพื้นไม้ เพื่อสร้างสรรค์ให้พื้นในบ้านของคุณสวยงาม อย่างไร้ที่ติ ในราคาประหยัดช่างวัชรพงษ์ยินดีให้บริการด้วยงานคุณภาพฝีมือประณีต รับขัดซ่อมพื้นไม้เก่าให้ดูเหมือนใหม่ งานปูปาเก้ใหม่ บัวไม้พื้นผนัง ทุกชนิด ทุกขนาดโดยใช้กาวและยูนิเทนชั้นดี ในราคาที่ คุณพอใจ รับงานในกรุงเทพ และต่างจังหวัด ครับ\n\nงานปาร์เก้ ช่างปาร์เก้, ปาร์เก้ กรุงเทพ, ปาร์เก้ ราคาถูก, ช่างปาร์เก้ กรุงเทพ, ช่างปาร์เก้ ราคาถูก, ปาร์เก้ ช่างซ่อม, ปาร์เก้ ยูรีเทน, ปาร์เก้ ไม้เก่า, ปาร์เก้, ขัดพื้น ไม่เก่า \nติดต่อช่างสมพร\n089-230-9918 \n081-733-6195",
        "emails": [
            "somphon_p@hotmail.co.th"
        ],
        "general_info": "ช่างปาร์เก้ ปาร์เก้\nงานขัดเครื่องใหญ่ผมใช้กระดาษทรายสามเบอร์ มีเบอร์24-60 และเบอร์100 ปั่นสไลด์พื้นผิวให้เลียบเนียน และต้องขัดตามขั้นตอนของช่างมืออาชีพครับ\nขัดและทาด้วย ยูนีเทนยูนีเทนของเบเยอร์ ครับ\nวิธีทำ ขัดเปิดหน้าไม้ ตีแป้งเก็บโป้ เก็บโป้ร่องไม้ทารองพื้นรักษาเนื้อไม้ 2 รอบและทายุนีเทนเบเยอร์ชนิดเงา3-4รอบและถ้าเป็นชนิดกลึ่งด้าน-ด้านก็ทำได้ครับ\nช่างปาร์เก้ งานปาร์เก้ รับขัดพื้นไม้ปาร์เก้ เก่า-ใหม่ราคาเริ่มต้นที่ 40-50 บาท / ต.ร. ม \nรับขัดทาทำสีพื้นไม้ยูรีเทนเบร์เยนราคาเริ่มต้นที่ 200 บาท /ต.ร.ม \n\nติดต่อช่างสมพร",
        "id": "139297316221638",
        "location": {
            "city": "Bangkok",
            "country": "Thailand",
            "latitude": 13.733651189026,
            "longitude": 100.74348992615,
            "street": "100/59 ช่างปาร์เก้",
            "zip": "10240"
        },
        "name": "ช่างปาร์เก้ สมพร รับขัดพื้นไม้ เก่า-ใหม่ รับเหมาปูปาร์เก้ 0892309918",
        "phone": "0892309918"
    }
]