[
    {
        "description": "The Shanghai Disney Resort is an under-construction theme resort by Walt Disney Parks and Resorts. This is the first Disney park in mainland China and the second within the Greater China region, the other being the existing Hong Kong Disneyland. Phase 1 of the resort's development will feature a Disneyland-style park, Shanghai Disneyland, an entertainment district, two themed hotels, recreational facilities, a lake and associated parking and transportation hubs. Additional phases will see the development of two additional theme parks at the resort. The site will cover 963 acres in Pudong, Shanghai, or approximately 3 times the size of the Hong Kong Disneyland Park, at a cost of 24.5 billion yuan (US$3.7 billion) for the new theme park and an additional 4.5 billion yuan (US$0.7 billion) to build other aspects of the resort. 43% of the resort will be owned by The Walt Disney Company and the remaining 57% will be owned by the Shanghai Shendi Group, itself a joint venture of three companies owned by the Shanghai government. Project Application Report for the resort was approved by the Chinese government on November 4, 2009.In February 2015, Disney announced that the resort would be opening in Spring 2016, ending speculation that the resort would be ready within 2015. The exact opening date has not yet been announced, however Disney CEO Bob Iger has stated that the official date will be announced in \"early 2015\".",
        "id": "170835712977423",
        "location": {
            "latitude": 31.144,
            "longitude": 121.657
        },
        "name": "Shanghai Disney Resort"
    },
    {
        "description": "ช่างปูกระเบื้อง ปูโมเสค ลายไม้ ปูกระเบื้องสระว่ายน้ำ หินธรรมชาติ ออกแบบและตกแต่งภายใน งานดีไว้ใจได้ด้วยประสบการณ์กว่า 30 ปี \nสนใจติดต่อช่างพิสิทธิ์ 0925569459",
        "id": "220068238189228",
        "location": {
            "city": "Bangkok",
            "country": "Thailand",
            "latitude": 13.61248,
            "longitude": 100.74425,
            "street": "บางนา",
            "zip": "10540"
        },
        "name": "พิสิทธิ์ ช่างปูกระเบื้องทุกชนิด โมเสค ลายไม้ สระว่ายน้ำ",
        "phone": "0818256768"
    },
    {
        "about": "แหล่งรวมความรู้เพื่ออาชีพเสริมสวยคนเมืองเลย",
        "id": "538805986190019",
        "name": "ชมรมช่างเสริมสวย เมืองเลยก๋อ"
    },
    {
        "about": "บริการรับเหมาต่อเติมงานกันสาด..งานเหล็ก-สเตลเลสทุกชนิด",
        "id": "471833206316549",
        "location": {
            "city": "Chaiya",
            "country": "Thailand",
            "latitude": 9.38333,
            "longitude": 99.2333,
            "street": "29/39ต.เลม็ดอ.ไชยาจ.สุราษฎร์ธานี",
            "zip": "84110"
        },
        "name": "สรงชลการช่าง",
        "phone": "0836430469"
    },
    {
        "about": "รับแต่งหน้า ช่างแต่งหน้า นอกสถานที่",
        "description": "รับแต่งหน้ารับปริญญา รับแต่งหน้าเจ้าสาว แต่งหน้าทำผมออกงาน\nแต่งหน้านอกสถานที่ 0839908671 ช่างแต่งหน้าหนูนา",
        "id": "239720782870368",
        "name": "หนูนา รับแต่งหน้า ช่างแต่งหน้านอกสถานที่"
    },
    {
        "about": "บริการออกแบบ ติดตั้ง มู่ลี่ วอลล์เปเปอร์\nรับซ่อม รับทำ เก้าอี้ โซฟา  \nรับซัก รีด ผ้าม่าน ฯลฯ",
        "id": "1469122973385365",
        "location": {
            "city": "คันนายาว กทม.",
            "street": "ถนนเสรีไทย",
            "zip": "10230"
        },
        "name": "ผ้าม่าน ช่างสังวร รับออกแบบ-ติดตั้งผ้าม่าน รับซ่อมเก้าอี้ โซฟา",
        "phone": "0865146928"
    },
    {
        "emails": [
            "somjai8297@hotmail.com"
        ],
        "id": "365247653600053",
        "location": {
            "city": "อ ศรีมหาโพธิ จ ปราจีนบุรี",
            "street": "122/6หมู่2 บ้านโฮมลี่แฮ้ว ต หนองโพรง",
            "zip": "25140"
        },
        "name": "สมใจ การช่าง 0892398297 0909541574",
        "phone": "0892398297 "
    },
    {
        "about": "สมหมายโฮมสเตย์ นอนหลับกินอิ่มสบายกระเป๋าบนเกาะช้าง",
        "description": "แพ็คเกจ ท่องเที่ยวแบบประหยัด กับทริปดำน้ำดูประการัง พร้อมที่พักและอาหารอร่อย แบบคุ้มค่า\nในสไตล์การพักผ่อนแบบโฮม สเตย์อย่างแท้จริง \nพร้อมทั้งบริการที่เป็นกันเอง ที่จะดูแลให้เปรียบสเหมเมือนญาติ ที่มาร่วม พักผ่อนกับ สมหมายโฮมเสตย์  (ด้วยแพ็จเกจ 2 วัน 1 คืน  และ   3 วัน 2 คืน ) พร้อมรับจัดทริปทัวร์ เป็นหมู่คณะ  ด้วยราคาเป็นกันเอง  กับการท่องเที่ยวเชิงอนุรักษ์ แนวประการังของ เพชรเม็คงานแห่งทะเลตะวันออก ",
        "emails": [
            "sommai-homestay@hotmail.com"
        ],
        "id": "405103279648138",
        "location": {
            "city": "Trat",
            "country": "Thailand",
            "latitude": 11.987472642222,
            "longitude": 102.37300924333,
            "street": "เกาะช้างใต้  อ่าวสลักเพชร",
            "zip": "23170"
        },
        "name": "สมหมาย  โฮมสเตย์ เกาะช้าง-sommai homestay",
        "phone": "081-9825220   081-3028143"
    },
    {
        "id": "1621900074730982",
        "location": {
            "city": "Chiang Mai",
            "country": "Thailand",
            "latitude": 18.8124447,
            "longitude": 99.0113068,
            "street": "28/6หมู่6ตำบลสันกลางอำเภอสันกำแพงจังหวัดเชียงใหม่",
            "zip": "50130"
        },
        "name": "เครื่องมือช่าง-สันกลางคาร์ไบด์",
        "phone": "0819924840"
    },
    {
        "id": "483624915026129",
        "location": {
            "city": "Khlong Luang",
            "country": "Thailand",
            "latitude": 14.065819928587,
            "longitude": 100.58601499892,
            "street": "คลอง4",
            "zip": "12120"
        },
        "name": "ช่างบอลคลองสี่",
        "phone": "084-0072056"
    },
    {
        "about": "ช่างกุญแจสามพราน นครชัยศรี 0909935433 ดอนตูม เปิดเซฟ ก๊อปปี้รีโมท",
        "description": "ช่างกุญแจสามพราน นครชัยศรี  ดอนตูม รับทำกุญแจรถยนต์หาย กุญแจเสีย กุญแจพัง กุญแจไขไม่ได้ กุญแจหัก กุญแจแตก ลืมกุญแจไว้ในรถ ลืมกุญแจไว้ในบ้าน ปลดล๊อคกุญแจรถยนต์ รับเปิดตู้เซฟ รหัสตู้เซฟหาย ต้องการรหัสตู้เซฟ กุญแจตู้เซฟหาย กุญแจตู้เซฟหัก ต้องการทำกุญแจตู้เซฟใหม่ รับซ่อมรีโมททุกรุ่นทุกยี่ห้อ รีโมทกดไม่ติด กรอบรีโมทแตก รับทำกุญแจระบบอิมโม กุญแจฝังชิฟ ให้บริการถึงที่ ตลอดเวลา 0909935433    ",
        "emails": [
            "sommaisirinak@hotmail.com"
        ],
        "id": "1679402585625957",
        "location": {
            "city": "Kanchana",
            "country": "Thailand",
            "latitude": 14.0232296,
            "longitude": 99.5351944,
            "street": "354/3 ถนนอู่ทอง ต.ปากแพรก อ.เมือง",
            "zip": "71000"
        },
        "name": "ช่างกุญแจสามพราน นครชัยศรี 0909935433 ดอนตูม เปิดเซฟ ก๊อปปี้รีโมท",
        "phone": "0909935433"
    },
    {
        "about": "ชมรมพระเครื่อง ศิษย์หลวงพ่อแถม วัดช้างแทงกระจาด",
        "id": "581134011929237",
        "name": "ชมรมพระเครื่อง ศิษย์หลวงพ่อแถม สีลสังวโร  วัดช้างแทงกระจาด เพชรบุรี",
        "phone": "082-3281069"
    },
    {
        "about": "ติดต่อ 0809497203 หรือ 0817420851",
        "id": "146323858862184",
        "location": {
            "city": "Bangkok",
            "country": "Thailand",
            "latitude": 13.85238,
            "longitude": 100.4887,
            "street": "Bangkok",
            "zip": "11000"
        },
        "name": "ขายของช่างกลทุกสถาบัน",
        "phone": "0817420851"
    },
    {
        "id": "362224773954970",
        "location": {
            "street": "วืทยาลัยเทคนิคสมุทรสงคราม",
            "zip": "75000"
        },
        "name": "แผนกช่างเชื่อมโลหะวิทยาลัยเทคนิคสมุทรสงคราม"
    },
    {
        "about": "รับสร้างบ้านด้วยช่างฝีมือดี สร้างบ้านทั่วประเทศ",
        "id": "626292940804646",
        "location": {
            "city": "Ban Talat Rangsit",
            "country": "Thailand",
            "latitude": 14.0201,
            "longitude": 100.52357,
            "street": "40 หมู่ 4",
            "zip": "12120"
        },
        "name": "สร้างบ้านด้วยช่างฝีมือดี ติดต่อ 0851365551",
        "phone": "0851365551"
    },
    {
        "about": "เพจใหม่นะคะ",
        "id": "685918438175654",
        "location": {
            "city": "Bangkok",
            "country": "Thailand",
            "latitude": 13.7795696,
            "longitude": 100.5225067,
            "street": "512 ถนนพระราม2 ซอย78 แขวงแสมดำ",
            "zip": "10150"
        },
        "name": "บจก.สหตระกูลไชย ยิ่งเจริญการช่าง ตกแต่งภายในรถตู้พร้อมเบาะวีไอพี",
        "phone": "0824165353"
    },
    {
        "about": "สภาเด็กและเยาวชนองค์การบริหารส่วนตำบลแม่ท่าช้าง อำเภอหางดง จังหวัดเชียงใหม่",
        "description": "การจัดตั้งสภาเด็กและเยาวชนองค์การบริหารส่วนตำบลแม่ท่าช้าง มีวัตถุประสงค์ให้เป็นองค์กรเครือข่ายเชื่อมโยงกลุ่มเด็กและเยาวชนที่ดำเนินงานในด้านต่างๆ เข้าด้วยกันอย่างเป็นระบบและเป็นรูปธรรม เพื่อปฏิบัติภารกิจร่วมกันในการแสวงหาแนวทางในการส่งเสริมการมีส่วนร่วมของเด็กและเยาวชนในพัฒนาชุมชนและสังคม สามารถแก้ไขปัญหาของชุมชนได้ตรงตามสภาพความเป็นจริงทั้งทางด้านเศรษฐกิจ สังคมการศึกษา ศาสนา และวัฒนธรรม ตลอดจนการพัฒนาคุณภาพชีวิต โดยกลุ่มเด็กและเยาวชน ยังคงสามารถปฎิบัติภารกิจหลักได้อย่างไม่สูญเสียภาพลักษณ์และอุดมการณ์ของแต่ละกลุ่ม",
        "id": "159258367547187",
        "location": {
            "street": "๑๑๑ หมู่ที่ ๑ ตำบลหางดง อำเภอหางดง จังหวัดเชียงใหม่",
            "zip": "๕๐๒๓๐"
        },
        "name": "สภาเด็กและเยาวชนองค์การบริหารส่วนตำบลแม่ท่าช้าง"
    },
    {
        "id": "582158425134277",
        "location": {
            "city": "Sukhothai",
            "country": "Thailand",
            "latitude": 16.99196,
            "longitude": 99.82875,
            "street": "สี่แยกกระชงค์ ตรงข้ามกับสนามไดร์กอล์ฟ",
            "zip": "64000"
        },
        "name": "ช่างบ๊อบ อยากสัมผัส เดียวจัดหั้ย",
        "phone": "0859188417"
    },
    {
        "about": "ตั้งอยู่บริเวณพื้นที่หาดคลองพร้าวซึ่งเป็นชายหาดที่สวยงาม และยาวมากที่สุดอยู่บน \"",
        "description": "ภู-ธาร เกาะช้าง รีสอร์ท แอนด์ สปา ความโดดเด่นและสวยงามของ \"บ้านพักสไตล์ไทยร่วมสมัย\" (Thai Modern House) จะทำให้ท่านรู้สึกผ่อนคลาย และอบอุ่นเหมือนอยู่บ้าน ด้วยบรรยากาศที่โอบล้อมด้วยขุนเขา ส่วนอีกด้านหนึ่งตั้งอยู่ติดกับแนวป่าโกงกางอนุรักษ์ และธารน้ำซึ่งเต็มไปด้วยสัตว์น้ำน้อยใหญ่มากมาย และนกหลากหลายสายพันธุ์ ให้ความรู้สึกราวกับย้อนไปสู่เมืองชนบท และมีความเป็นธรรมชาติอย่างแท้จริง ซึ่งเหมาะกับบรรยากาศรอบข้างที่รายล้อมด้วยความสุขแห่งการพักผ่อน",
        "emails": [
            "rsvn@bhutarnkohchang.com"
        ],
        "general_info": "There are 21 rooms with full option of amenities such as internet access around the resort, safety box,TV LED 32 Inches.",
        "id": "1608681642697534",
        "location": {
            "city": "Amphoe Ko Chang",
            "country": "Thailand",
            "latitude": 12.05445,
            "longitude": 102.34803,
            "street": "104/60 หมู่ 4 หาดคลองพร้าว เกาะช้าง",
            "zip": "23170"
        },
        "name": "ภูธาร เกาะช้าง รีสอร์ท แอนด์ สปา",
        "phone": "039-510810"
    },
    {
        "about": "รับเหมาติดตั้งรั้วตาข่ายทนสนิม 80 ปี ",
        "description": "รับเหมาติดตั้งรั้วตาข่ายทนสนิม 80 ปี !!! สุดยอดนวัตกรรมจาก ประเทศนิวซีแลนด์\nด้วยความแข็งแรง ทนทาน สวยโปร่ง ไม่เป็นสนิม และราคาที่ถูก  เป็นที่นิยมในต่างประเทศและกำลังแพร่หลายในทุกพื้นที่ทั่วประเทศไทย",
        "emails": [
            "precc007@gmail.com"
        ],
        "id": "1598699037008411",
        "location": {
            "city": "Phrea",
            "country": "Thailand",
            "latitude": 18.08363,
            "longitude": 100.21475,
            "street": "หอการค้าจังหวัดแพร่",
            "zip": "54000"
        },
        "name": "รั้วตาข่ายทนสนิม ทีมช่างแพร่",
        "phone": "089-5347007"
    },
    {
        "about": "ราคาโดนๆถูกใจ\nline id. yakuza1977\n095-4930632 เหม่ง...โอนปุ๊บส่งปั๊ป..เงินมาปัญหาหมด..กลัวมาที่ร้านรับกับมือ",
        "id": "1570856779822359",
        "name": "เครื่องมือช่างราคาส่ง ท๊อปคลองถม"
    },
    {
        "id": "308913342464484",
        "name": "ช่างขัดสี"
    },
    {
        "id": "960990707301294",
        "name": "สมาคมแต่งช่างแนวบ้านๆ"
    },
    {
        "about": "สำหรับผู้ที่ต้องการซื้อเครื่องมือช่าง อุปกรณ์ช่าง เพื่อนำไปใช้งาน และนำไปขายต่อ www.hardwarefreedom.com",
        "description": "ขาย-จำหน่ายอุปกรณ์ เครื่องมือช่าง ฮาร์ดแวร์ ทั้งปลีกและส่ง \nราคาถูก ย่อมเยาว์ ประหยัดและคุ้มค่า สามารถนำไปขายต่อมีกำไร\nติดต่อได้โดยตรงที่ 0863454355 หรือที่www.hardwarefreedom.com \nสามารถออกใบกำกับภาษีได้ สำหรับร้านค้าหรือบริษัทที่ต้องการสั่งซื้อเพื่อใช้งานหรือจำหน่าย-ขายต่อ",
        "emails": [
            "hardwarefreedom@hotmail.com"
        ],
        "id": "722926641096989",
        "location": {
            "city": "Bangkok",
            "country": "Thailand",
            "latitude": 13.74641,
            "longitude": 100.50865,
            "street": "Sumputthawong",
            "zip": "10100"
        },
        "name": "จำหน่ายเครื่องมือช่างคุณภาพดี ปลีก-ส่ง ราคาคลองถม: HardwareFreedom",
        "phone": "0863454355"
    },
    {
        "about": "รับสมัคร งาน ช่างอิเล็กทรอนิกส์ ช่างไฟฟ้า ช่างเทคนิค TECHNICAL SERVICE ช่างซ่อม",
        "emails": [
            "supato_4u@hotmail.com"
        ],
        "id": "475012432575204",
        "location": {
            "city": "Bangkok",
            "country": "Thailand",
            "latitude": 13.758431837639,
            "longitude": 100.74408916855,
            "street": "127 ซอยร่มเกล้า 36 ถนนร่มเกล้า แขวงคลองสามประเวศ เขตลาดกระบัง กรุงเทพมหานคร 10520",
            "zip": "10520"
        },
        "name": "รับสมัครงาน ช่างอิเล็กทรอนิกส์ ช่างไฟฟ้า ช่างซ่อมอุตสาหกรรม",
        "phone": "02-737-9928"
    }
]