[
    {
        "about": "Line:mujeemujee,chalit.saphaphak/IG:mindmehome/Tel:085-1275990,087-7159703,097-2171779\n\n",
        "description": "Line:mujeemujee , chalit.saphaphak\nIG:mindmehome\nTel:085-1275990,087-7159703,097-2171779",
        "emails": [
            "apple_spu22@hotmail.com"
        ],
        "id": "371301452979541",
        "location": {
            "city": "Ban Yan Yao",
            "country": "Thailand",
            "latitude": 14.721677666033,
            "longitude": 100.10574817657,
            "street": "31/1 m.6",
            "zip": "72130"
        },
        "name": "บ้านช่างภาพ กาแฟสด",
        "phone": "0877159703"
    },
    {
        "about": "สื่อสังคมออนไลน์'ช่างภาพอิสระ",
        "id": "1480159788902934",
        "location": {
            "city": "สุรินทร์",
            "street": "61 ม.6 ต.โพนโก อ.สนม จ.สุรินทร์",
            "zip": "32160"
        },
        "name": "สื่อสังคมออนไลน์'ช่างภาพอิสระ",
        "phone": "0989477645"
    },
    {
        "id": "1631697233742369",
        "name": "ชาช้างสาขาป่าพะยอม"
    },
    {
        "about": "ฟากรูปได้นะ ครับ ไม่หล่อ ไม่เท่ ไม่สวย แต่ขอ ไห้มันใจในตัวเองก็ \nฝากมาเลย ครับแอด มินจัดไห้",
        "id": "553745581323450",
        "name": "รวมพลช่างกลสยาม",
        "phone": "."
    },
    {
        "about": "ขายไม้เก่า เครื่องมือช่าง ของมือสอง อื่นๆ",
        "id": "584389608252799",
        "name": "สินค้ามือสอง และเครื่องมือช่างทุกชนิดถูกๆ"
    },
    {
        "about": "บริการถ่ายภาพ : ชุดราชการ รับปริญญา พรีเวดดิ้ง งานแต่ง สถาปัตยกรรมโฆษณาสินค้า รีสอร์ท Event..",
        "description": "#ช่างภาพทุ่งสง  #ตากล้องทุ่งสง  #ถ่ายรูปรับปริญญา  #ถ่ายรูปงานแต่ง  #ดรีมสตอรี่สตูดิโอ #ช่างภาพนครศรีธรรมราช #ถ่ายพรีเวดดิ้งทุ่งสง #ถ่ายพรีเวดดิ้งแนวๆ #ถ่ายรีสอร์ท #งานโรงแรมทุ่งสง #ปาร์ตี้ทุ่งสง #ถ่ายโฆษณา #ถ่ายหนังสั้น #หนังสั้นทุ่งสง #มทร.ศรีวิชัย ไสใหญ่ #หนังสั้นไสใหญ่",
        "id": "1458497547741060",
        "location": {
            "city": "Thung Song",
            "country": "Thailand",
            "latitude": 8.1677923088449,
            "longitude": 99.69363432457,
            "street": "419/29 ถ.ทุ่งสง-นครศรีฯ ต.ปากแพรก",
            "zip": "80110"
        },
        "name": "ดรีม สตอรี่ สตูดิโอ ช่างภาพนครศรีธรรมราช"
    },
    {
        "about": "ราคาคลองถมจ้ะ",
        "description": "เครื่องมือช่าง เครื่องมือไฟฟ้า สว่าน หินเจีย ไฟเบอร์ ชุดบ็อค คีมหลายยี่ห้อ สายพ่วงแบต ปั๊มลม MAKITA MAKTEC HITACHI BOSCH ♥♥",
        "id": "574516772584185",
        "location": {
            "city": "Bangkok",
            "country": "Thailand",
            "latitude": 13.70517849,
            "longitude": 100.36091997,
            "street": "5/1 ซ.เพชรเกษม 77 ถ.เพชรเกษม แขวงหนองค้างพลู เขตหนองแขม",
            "zip": "10160"
        },
        "name": "เจริญสุข จำหน่ายเครื่องมือช่าง สว่าน หินเจีย ไฟเบอร์",
        "phone": "092-081-6861,084-317-9301"
    },
    {
        "id": "667032760064274",
        "name": "ช่างเก่ง  สุพรรณ"
    },
    {
        "id": "212996485379122",
        "name": "ช่างสีรถยนต์"
    },
    {
        "id": "163441543748480",
        "name": "วิทยาสารพัดช่างกำแพงเพชร"
    },
    {
        "about": "นักเขียนอิสระ / คำคมข้อคิดดีๆ",
        "description": "นักเขียนอิสระแนวจิตวิทยาพัฒนาตนเอง/ฮาว ทู ทั่วไป",
        "emails": [
            "mong1307@gmail.com"
        ],
        "id": "195315097337307",
        "location": {
            "city": "Sena",
            "country": "Thailand",
            "street": "Ayutthaya",
            "zip": "13110"
        },
        "name": "ช่างอักษร - ชัชฎาภรณ์ มงคลสมัย",
        "phone": "0808261647"
    },
    {
        "id": "165107840346904",
        "location": {
            "city": "Muang Kalasin",
            "country": "Thailand",
            "latitude": 16.63204,
            "longitude": 103.24449,
            "street": "อำเภอ ห้วยเม็ก  จ.กาฬสินธุ์",
            "zip": "46170"
        },
        "name": "เครื่องผสมอาหารสัตว์สัมฤทธิ์การช่าง",
        "phone": "081-7088504"
    },
    {
        "about": "รับแกะสลัก ราคาเป็นกันเอง\nสามารถเรื่องนำแบบมาให้ได้\n",
        "id": "1500977093460239",
        "location": {
            "city": "Lampang",
            "country": "Thailand",
            "latitude": 18.08017,
            "longitude": 99.59763,
            "street": "บ้านดอนไฟ",
            "zip": "52150"
        },
        "name": "ช่างยันแกะสลักบ้านดอนไฟ",
        "phone": "0837607665"
    },
    {
        "about": "รับซ่อมเครื่อง ช่วงล่าง  ดัดแปลงเครื่อง หรือ มีปัญหาต่างๆ สามารถปรึกษาได้ 0850479733 เอ๋ ครับ",
        "id": "367794553346623",
        "name": "อู่ช่างเอ๋วัดด่านสำโรง"
    },
    {
        "about": "ช่างกุญแจ 24 ชั่วโมง",
        "id": "451664951682360",
        "location": {
            "city": "Bangkok",
            "country": "Thailand",
            "latitude": 13.72103157,
            "longitude": 100.78293761667,
            "street": "ลาดกระบัง"
        },
        "name": "ช่าง กุญแจ ลาดกระบัง สุวรรณภูมิ ร่มเกล้า โทร 0860347784",
        "phone": "0860347784"
    },
    {
        "about": "ศิษย์เก่าลงทะเบียนประวัติได้ที่ เว็ปไซด์แผนกช่างยนต์ :  http://auto.sstc.ac.th",
        "id": "104552829642518",
        "location": {
            "street": "89 หมู่ 12 ถ.เอกชัย ต.ลาดใหญ่ อ.เมือง ฯ",
            "zip": "75000"
        },
        "name": "แผนกช่างยนต์ วิทยาลัยเทคนิคสมุทรสงคราม"
    },
    {
        "id": "440999069348923",
        "location": {
            "city": "Kalasin",
            "country": "Thailand",
            "latitude": 16.259594775654,
            "longitude": 103.67824646451,
            "street": "บ้านสีถาน ถนนขอนแก่น-โพนทอง ต.ดงลิง อ.กมลาไสย",
            "zip": "46130"
        },
        "name": "บ้านปลื้ม กาแฟสดดอยช้าง",
        "phone": "084-5614422, 094-0503642"
    },
    {
        "about": "รับแต่งหน้า ทำผมเจ้าสาว ฯลฯ สวยหวาน ใสๆ\n",
        "description": "บริการ BG makeup \u0026 hairdo รับแต่งหน้า ทำผม เจ้าสาว งานรับปริญญา แฟชั่น \nออกงาน การแสดงต่างๆ เพื่อนเจ้าสาว ราคาไม่แพง ลองติดต่อเข้ามาก่อนได้ค่ะ\n0853905064 ยินดีให้บริการ",
        "emails": [
            "warisa_b84@hotmail.com"
        ],
        "id": "129874960535921",
        "location": {
            "city": "Bangkok",
            "country": "Thailand",
            "latitude": 13.753867397407,
            "longitude": 100.50532965088,
            "street": "วงเวียนใหญ่"
        },
        "name": "ช่างแต่งหน้า ทำผม รับปริญญา แต่งหน้าเจ้าสาว 0853905064 ราคาไม่แพง",
        "phone": "0835905064"
    },
    {
        "id": "260006104026003",
        "location": {
            "city": "Bangkok",
            "country": "Thailand",
            "latitude": 13.798185795892,
            "longitude": 100.30189737069,
            "zip": "73170"
        },
        "name": "ช่างสิบหมู่ กรมศิลปากร"
    },
    {
        "id": "477229692290069",
        "location": {
            "city": "Muang Surin",
            "country": "Thailand",
            "latitude": 14.877108870922,
            "longitude": 103.49554274087,
            "street": "THANASAN",
            "zip": "32000"
        },
        "name": "เมืองสุรินทร์ถิ่นช้างใหญ่"
    },
    {
        "id": "1424491567771171",
        "location": {
            "city": "Bangkok",
            "country": "Thailand",
            "latitude": 13.74960397224,
            "longitude": 100.53132114245
        },
        "name": "สะพานหัวช้าง",
        "phone": "\u003c\u003cnot-applicable\u003e\u003e"
    },
    {
        "id": "153712091362011",
        "location": {
            "city": "Chiang Mai",
            "country": "Thailand",
            "latitude": 18.773167127514,
            "longitude": 98.994706885803,
            "street": "ช้างคลาน",
            "zip": "50100"
        },
        "name": "โรงพยาบาลแม่และเด็กเชียงใหม่ กรมส่งเสริมสุขภาพที่ 10",
        "phone": "053275367"
    },
    {
        "id": "302983886434421",
        "location": {
            "latitude": 15.265983716154,
            "longitude": 103.49661131445
        },
        "name": "หมู่บ้านช้าง บ้านตากลาง อ.ท่าตูม จ.สุรินทร์",
        "phone": "\u003c\u003cnot-applicable\u003e\u003e"
    },
    {
        "id": "113092728790027",
        "location": {
            "city": "Bangkok",
            "country": "Thailand",
            "latitude": 14.13315471232,
            "longitude": 100.61265552155,
            "street": "ต.เขารูปช้าง",
            "zip": "13180"
        },
        "name": "คณะมนุษยศาสตร์และสังคมศาสตร์ มหาวิทยาลัยราชภัฏวไลอลงกรณ์"
    },
    {
        "about": "สมพงษ์เจริญยนต์ 172-174 ถ.ช้างม่อย ต.ช้างม่อย อ.เมือง จ.เชียงใหม่ 50300 \nโทร 081-9410642",
        "description": "สำหรับ ชำระเงินค่าสินค้า \nธนาคาร กรงเทพ  สาขา ศรีนครพิงค์\nชื่อ บงกช  สมพงษ์\nเลขที่ 2524254766",
        "id": "187435398079813",
        "location": {
            "city": "Chiang Mai",
            "country": "Thailand",
            "latitude": 18.790100832992,
            "longitude": 98.997471040048,
            "street": "172-174 ถ.ช้างม่อย ต.ช้างม่อย อ.เมือง",
            "zip": "50300"
        },
        "name": "สมพงษ์เจริญยนต์",
        "phone": "081-9410642 , 053-232192"
    }
]