[
    {
        "about": "รับทำกุญแจทุกชนิด กรอบพับ ฝังชิพ อิมโมบิไลเซอร์ รีโมท หายหมด-ทำเพิ่ม รอรับได้เลยครับ",
        "description": "ช่างเหน่ง รับทำกุญแจทุกชนิด เปิดบ้าน-รถ-เซฟ เปิดรถแบบปราณีต โดยไม่งัดรถ ไม่รื้อขอบยาง ไม่ถ่างประตู รับประกันไร้ริ้วรอย 100% รับทำกุญแจฝังชิพ-อิมโมบิไลเซอร์-รีโมท หายหมด-สร้างขี้นใหม่ มีอยู่ต้องการทำเพิ่ม รอรับได้เลยทุกงาน",
        "emails": [
            "smartkey.neng@gmail.com"
        ],
        "id": "514316422006877",
        "location": {
            "city": "Maha Sarakham",
            "country": "Thailand",
            "latitude": 16.240732217578,
            "longitude": 103.25450034738,
            "street": "202/2 (เยื้องธนาคารไทยพาณิชย์-มมส.ใหม่)",
            "zip": "44150"
        },
        "name": "ร้านทำกุญแจสมาร์ทคีย์ฯ กุญแจพับ ฝังชิพอิมโม รีโมท ช่างเหน่ง โทร.081-0510333",
        "phone": "043970330"
    },
    {
        "about": "*พื้้นพิมลายลพบรี  *เหล็กแหลมกันขโมยลพบุรี *หลังคาเหล็กลพบุรี *หลังคาโพลี่คาบอเนต *ไม้ใหญ่",
        "id": "1455442731426342",
        "location": {
            "city": "Lop Buri",
            "country": "Thailand",
            "latitude": 14.89531295846,
            "longitude": 100.6131362915,
            "street": "เขาพระงาม",
            "zip": "15000"
        },
        "name": "สายช่างลพบุรี",
        "phone": "0820678901"
    },
    {
        "about": "ซ่อม วางเครื่อง ช่วงล่าง ยุโรป ญี่ปุ่น 087-35-53-9-53 นอร์ธ",
        "description": "สนใจโทรสอบถามข้อมูลก่อนได้ครับ หรือ จะโทรปรึกษาก่อนก็ได้ครับ...\nยินดีให้ บริการ... คร้าบ...\n\n087-355-3953 นอร์ธ ครับ ",
        "emails": [
            "economy_bizkit@hotmail.com"
        ],
        "id": "275332225857100",
        "location": {
            "city": "Non Buri",
            "country": "Thailand",
            "latitude": 13.86226,
            "longitude": 100.37279,
            "street": "58/11 หมู่ 5 ต.บางแม่นาง อ. บางใหญ่",
            "zip": "11140"
        },
        "name": "ช่างสุเทพ Midnight MotorSport",
        "phone": "087-355-3953 "
    },
    {
        "about": "รับแกะสลักไม้ ทำป้ายไม้(ทุกชนิด) ติดต่อเบอร์ 084-9217128 ครับ",
        "id": "168430833314403",
        "name": "ช่างโมทย์ แกะสลักไม้"
    },
    {
        "about": "ศูนย์ฝึกหัดขับรถยนต์ประตูช้างเผือก สอนขับรถยนต์ รถเก๋ง,ปิกอัพทั้งเกียร์ธรรมดาและออโต้",
        "id": "309807775787406",
        "name": "สอนขับรถยนต์ประตูช้างเผือก"
    },
    {
        "about": "ช่างโจ้ ชลาชล Joe Chalachol - Central Rama III",
        "id": "454572044635745",
        "name": "ช่างโจ้ เซนทรัลพระรามสาม",
        "phone": "0890097916"
    },
    {
        "about": "รับเหมา, ให้คำแนะนำ, งานสีทุกชนิด ติดต่อ คุณก้อง 086-5050700\nคุณดาว 081-1703750 (ID: Lady_dao)",
        "id": "921515211205974",
        "location": {
            "city": "Bangkok",
            "country": "Thailand",
            "latitude": 13.89633,
            "longitude": 100.63934,
            "street": "9/337 Phahonyothin 54/1 Saimai",
            "zip": "10220"
        },
        "name": "บ้านช่างสี",
        "phone": "0963433162"
    },
    {
        "about": "ประตู+รั้ว+ราวบันได+ระเบียง+บันไดเวียน+กันสาด+แผ่นโพลี่คาบอเนต+อลูซิ้ง",
        "description": "มอเตอร์รีโมท  รับปรึกษาประเมินราคาฟรี",
        "emails": [
            "chongpoo_stanless@hotmail.com"
        ],
        "id": "1413571888861326",
        "location": {
            "city": "Nakhon Si Thammarat",
            "country": "Thailand",
            "latitude": 8.4453189,
            "longitude": 99.9664976,
            "street": "162/25 หมู่ 9 ต.โพธ์เสด็จ ถ.สพานยาว+วงเวียนนอกไร่ อ.เมือง ..จ.นครศรีธรรมราช",
            "zip": "80000"
        },
        "name": "ช่างปูสแตนเลส",
        "phone": "081-0829607"
    },
    {
        "id": "278552318973678",
        "location": {
            "city": "Bangkok",
            "country": "Thailand",
            "latitude": 13.75395,
            "longitude": 100.50224,
            "street": "สนามหลวง",
            "zip": "10000"
        },
        "name": "ช่างกุญแจสนามหลวง 087 488 4333",
        "phone": "087 488 4333"
    },
    {
        "id": "895802353835949",
        "name": "หนุ่มสาวช่างโยธา เทคนิคสุรินทร์"
    },
    {
        "id": "160721683970018",
        "name": "ช่างไฟฟ้ากำลัง  วิทยาลัยเทคนิคสกลนคร"
    },
    {
        "about": "เราคือช่างที่ชำนาญการเรื่องสีรถยนตร์ระบบ/2k",
        "id": "170837103040679",
        "name": "ช่างผสมสีรถยนตร์ระบบ-2k"
    },
    {
        "about": "ทำงานในสิ่งที่เรารักนอกจากมีความสุขแล้วผลงานย่อมออกมาดีตามไปด้วย #กำพลรับเหมาก่อสร้าง",
        "description": "กำพลรับเหมาก่อสร้าง สร้างบ้าน ต่อเติม ซ่อมแซม ปรับปรุงที่อยู่อาศัยราคาคุยกันได้ครับ รับงานเอง ไม่ต้องผ่านไคร ซื่อสัตย์ ใส่ใจทุกรายละเอียด ผลงานออกมาเนี๊ยบครับ ทำงานด้วยใจรัก ไม่ทิ้งงาน งานเล็กงานน้อยเรารับทำหมดครับ ปรึกษากันก่อนได้นะครับยินดีรับใช้ครับผม กำพลรับเหมาก่อสร้าง 085-9608860 ปล.ต่างจังหวัดก็รับนะครับ",
        "emails": [
            "kompol.n1610@gmail.com"
        ],
        "id": "1418334795130421",
        "location": {
            "city": "Bangkok",
            "country": "Thailand",
            "latitude": 13.8468103,
            "longitude": 100.5980988,
            "street": "รามอินทรา ลาดปลาเค้า กม2",
            "zip": "10220"
        },
        "name": "ช่างกำพล รับเหมาก่อสร้าง สร้างบ้าน ต่อเติม ซ่อมแซม  ซื่อสัตย์ ไม่ทิิ้งงาน",
        "phone": "085 960 8860"
    },
    {
        "id": "972624782799510",
        "name": "สมาคมแต่งช่างขุนหาญ"
    },
    {
        "about": "ศูนย์รับเหมาก่อสร้างครบวงจรเขตอำเภอ ปราณบุรี\n",
        "id": "703711806354587",
        "location": {
            "city": "จ.ประจวบคีรีขันธ์",
            "latitude": 12.278496742249,
            "longitude": 99.911674499512,
            "street": "63/5 หมู่7 ต.ปราณบุรี อ.ปราณบุรี",
            "zip": "77120"
        },
        "name": "ช่างตั๋น:บริษัทรับเหมาสร้างบ้านครบวงจร-ปราณบุรี",
        "phone": "0854070912"
    },
    {
        "about": "ช่างสักกระรอกเขียวรีสอทแอนสปา",
        "id": "1630046277272320",
        "location": {
            "city": "Kong Krailat",
            "country": "Thailand",
            "street": "ท่าฉนวน",
            "zip": "64170"
        },
        "name": "ช่างสักเล้าไก่รีสอทแอนสปา"
    },
    {
        "about": "อยากเรียนขับรถ ต้องมาเรียนที่โรงเรียนนะคะ ติดต่อ 089-7597030",
        "description": "เป็นโรงเรียนสอนขับรถ \"แห่งแรก\"และ \"แห่งเดียว\" ในจังหวัดลำปาง ที่ได้รับการรับรองโดย\"กระทรวงศึกษาธิการ\" เปิดสอนมาแล้วกว่า 50 ปี จบแล้วพาไปสอบใบขับขี่ให้ด้วย",
        "id": "437605553022171",
        "location": {
            "city": "Lampang",
            "country": "Thailand",
            "latitude": 18.291430182276,
            "located_in": "623349727689811",
            "longitude": 99.500417688463,
            "zip": "52000"
        },
        "name": "สอนขับรถยนต์ รร.สากลการช่าง ลำปาง",
        "phone": "0897597030"
    },
    {
        "id": "896428220445349",
        "location": {
            "city": "Bangkok",
            "country": "Thailand",
            "latitude": 13.88551983,
            "longitude": 100.58086925
        },
        "name": "ช่างอ้วน เซอร์วิส-ไอทีสแควร์ หลักสี่"
    },
    {
        "id": "261177790660049",
        "name": "สมาคมนิยมหนุ่มช่างกล-อาชีวแห่งประเทศไทย (สนชท)"
    },
    {
        "about": "ช่างภาพรับจ้าง รับปริญญา - งานแต่งงาน - โปรไฟล์ เรียกหาได้ ช่างภาพสายสี่",
        "emails": [
            "mamitokoza@hotmail.com"
        ],
        "id": "238715796323302",
        "location": {
            "city": " อ้อมน้อย  กระทุ่มแบน  สมุทรสาคร",
            "street": "219/707",
            "zip": "74130"
        },
        "name": "ช่างภาพสายสี่",
        "phone": "0891313006"
    },
    {
        "id": "1413594858913361",
        "location": {
            "city": "ตราด",
            "street": "เลขที่ 99 หมู่ 1 ตำบลช้างทูน อำเภอบ่อไร่",
            "zip": "23140"
        },
        "name": "อบต.ช้างทูน - องค์การบริหารส่วนตำบลช้างทูน",
        "phone": "039-545282"
    },
    {
        "about": "โครงการ CSR (Corporate Social Responsibility)  ภายใต้การดำเนินงานของสถาบันไทย-เยอรมัน (TGI)",
        "description": "เริ่มดำเนินโครงการฯตั้งแต่ปี 2549 โดยจะเปิดอบรมปีละ 1 รุ่น  (12 เดือน)\nในปี 2557 รุ่นที่ 9 นี้จะเปิดฝึกอบรม 4 ช่างๆละ 12 คน คือ\n1.สาขาช่างควบคุมเครื่องกัด ซีเอ็นซี\n2.สาขาช่างเขียนแบบด้วยคอมพิวเตอร์\n3.สาขาช่างเชื่อม\n4.สาขาช่างซ่อมบำรุงเครื่องมือกล",
        "emails": [
            "nawaphat.l@tgi.mail.go.th"
        ],
        "general_info": "โครงการ CSR ตั้งขึ้นมาเพื่อส่งเสริมและพัฒนาอาชีพให้กับผู้ที่ขาดโอกาสทางสังคมที่มีความมุ่งมั่นที่จะประกอบอาชีพในสาขาช่างเทคนิคได้มีโอกาสในการฝึกอบรมวิชาชีพเพื่อเป็นที่ยอมรับของภาคอุตสาหกรรม",
        "id": "317162401728638",
        "location": {
            "street": "สถาบันไทย-เยอรมัน 700/1 นิคมอุตสาหกรรมอมตะนคร ต.คลองตำหรุ อ.เมือง จ.ชลบุรี",
            "zip": "20000"
        },
        "name": "สถาบันไทย-เยอรมัน:โครงการผลิตช่างเทคนิคแก่ผู้พิการและผู้ด้อยโอกาส",
        "phone": "038-930100 , 038-215033 Ext 1007"
    },
    {
        "about": "Garage",
        "id": "185362664990611",
        "location": {
            "city": "Bang Khen",
            "country": "Thailand",
            "street": "อู่ช่างป๋อน สะพานใหม่",
            "zip": "10220"
        },
        "name": "ช่างป๋อน สะพานใหม่",
        "phone": "081-562-6398"
    },
    {
        "about": "ช่างแต่งหน้าเจ้าสาว แต่งหน้ารับปริญญา แต่งหน้าออกงาน แต่งหน้าทุกประเภท ช่างทำผม",
        "id": "347231462126661",
        "location": {
            "city": "Bangkok",
            "country": "Thailand",
            "latitude": 13.72139,
            "longitude": 100.48717,
            "street": "ซอยสมเด็จพระเจ้าตากสิน19",
            "zip": "10600"
        },
        "name": "ช่างแต่งหน้าเจ้าสาว แต่งหน้ารับปริญญา",
        "phone": "0853431587"
    },
    {
        "about": "จำหน่ายตู้จ่ายน้ำมัน หัวจ่ายน้ำมัน สายจ่ายน้ำมัน มือจ่ายน้ำมัน เเละอุปกรณ์น้ำมันทุกชนิด",
        "description": "ห้างหุ้นส่วนจำกัด ศรีฟ้าโปรเกรส \"Srifah Progress Ltd., Part. \"\nPump Progress Equipment's, ตัวแทนนำเข้า.จัดจำหน่าย.ตู้จ่ายน้ำมัน.อุปกรณ์อะไหล่น้ำมันพร้อมบริการซ่อมบำรุงครบวงจร. โดยช่างซ่อมมืออาชีพ.กับประสบการณ์ด้านงานขาย – ซ่อมบำรุงตู้จ่ายน้ำมัน และอุปกรณ์น้ำมัน\n          “เราเปิดให้บริการลูกค้าอย่างเป็นทางการซึ่งในช่วงเวลาที่ผ่านมาย่อมเป็นสิ่งที่พิสูจน์ว่าผลงานของเรานั้นเป็นที่ประจักษ์กับผู้ใช้บริการหรือลูกค้าของเราได้เป็นอย่างดี มากกว่า 10 ปี” \n(จำหน่าย ตู้จ่ายน้ำมัน อุปกรณ์น้ำมัน พร้อมงานซ่อมบำรุง ติดตั้งอุปกรณ์ ครบวงจร) อาทิเช่น.. ตู้จ่ายน้ำมันมือเก่า-ใหม่, ติดตั้ง-แลกเปลี่ยนอุปกรณ์น้ำมัน, รับซื้อตู้จ่ายน้ำมันมือสอง.ที่ใช้ในสถานีบริการน้ำมันเชื้อเพลิง ซึ่งมีสินค้าที่นำเข้ามาจากต่างประเทศ โดยสินค้าได้รับมาตรฐาน เช่น ตู้จ่ายน้ำม้น มือจ่าย อะไหล่ต่างๆ อุปกรณ์สำหรับรถบรรทุกน้ำม้นเชื้อเพลิง เป็นต้น สถานีบริการน้ำมันเชื้อเพลิง ทั้งขนาดใหญ่ ขนาดกลาง และสถานีบริการน้ำมันชุมชนขนาดเล็ก ด้วยทีมงานที่มีคุณภาพ หน้าร้านเราอยู่ที่ บางใหญ่ นนทบุรี\nต้องการทราบรายเอียดเพิ่มเติมที่\nฝ่ายขาย.โทร. 089 014 3910 | 02 926 7121 | E-mail : srifahshop@gmail.com\nฝ่ายช่าง.โทร. 089 773 6882 | E-mail : anekspl@gmail.com\nWeb Site : http://www.pumpprogress.com/\nSocial Media :\nFacebook : https://www.facebook.com/srifah.pumpprogress\nTwitter : https://twitter.com/Pump_Srifah\nLine ID : srifahshop\nAddress : 2/45 หมู่ที่ 6 หมู่บ้านจิตตกาญจน์ ถนนตลิ่งชัน - สุพรรณบุรี ตำบลเสาธงหิน อำเภอบางใหญ่ จังหวัดนนทบุรี 11140\n________________________________________\nTagged : จำหน่ายตู้จ่ายน้ำมันมือเก่า-ใหม่, ติดตั้ง-แลกเปลี่ยนอุปกรณ์, รับซื้อตู้จ่ายน้ำมันมือสอง, จำหน่ายอะไหล่ตู้จ่ายน้ำมัน, บริการติดตั้ง-ซ่อมบำรุงหัวจ่ายน้ำมัน, เช็คราคาอะไหล่ตู้จ่ายน้ำมัน, ช่างซ่อมอุปกรณ์น้ำมัน, จำหน่ายหัวจ่ายน้ำมัน, จำหน่ายปั้มมือหมุนหลอดแก้ว, ตู้จ่ายน้ำมันอัจฉริยะ, ซ่อม-ขาย-แลกเปลี่ยนอุปกรณ์น้ำมัน, ซ่อม-ขาย-แลกเปลี่ยนอุปกรณ์ในสถานีบริการน้ำมัน, ซ่อม-ขาย-แลกเปลี่ยนหัวจ่ายน้ำมัน, ซ่อม-ขาย-แลกเปลี่ยนปั้มเติมน้ำมัน, ซ่อม-ขาย-แลกเปลี่ยนหัวฉีดน้ำมัน, จำหน่ายอะไหล่ตู้จ่ายน้ำมัน, จำหน่ายอะไหล่อุปกรณ์น้ำมัน, จำหน่าย-ซ่อมชุดมิเตอร์ติดรถน้ำมัน, จำหน่ายปั้มมือหมุน, ขายปั้มมือหมุนหลอดแก้ว, ขายปั้มมือหมุนหลอดแก้ว5ลิตร, ขาย-ซ่อมปั้มมือหมุน, ขาย-ซ่อมปั้มหลอดแก้ว, ขาย-ซ่อมปั้มหลอดแก้ว5ลิตร, จำหน่าย-ซ่อมปั้มน้ำมันหยอดเหรียญ, จำหน่าย-ซ่อมตู้จ่ายน้ำมันหยอดเหรียญ, บริการติดตั้งอุปกรณ์น้ำมัน, บริการติดตั้ง-ซ่อมบำรุงตู้จ่ายน้ำมัน, บริการติดตั้ง-ซ่อมบำรุงหัวจ่ายน้ำมัน, บริการ-ติดตั้งหัวปั้มเติมน้ำมัน, ขาย-ซ่อมFill-Rite meter, Fill-Rite-USA, Meter-Fill-Rite-USA, บริการปรึกษาปัญหาตู้จ่ายน้ำมัน, เช็คราคาอะไหล่ตู้จ่ายน้ำมัน, เช็คราคาอุปกรณ์น้ำมัน, ราคาตู้จ่ายน้ำมัน, ราคาหัวจ่ายน้ำมัน, ราคาปั้มจ่ายน้ำมัน, ราคาหัวปั้มเติมน้ำมัน, ราคาปั้มจ่ายน้ำมัน, ราคาตู้น้ำมันหยอดเหรียญ, ช่างซ่อมอุปกรณ์น้ำมัน, ช่างซ่อมปั้มน้ำมัน, ช่างซ่อมหัวจ่ายน้ำมัน, ช่างซ่อมตู้จ่ายน้ำมัน, บริการซ่อมบำรุงตู้จ่ายน้ำมัน, บริการซ่อมบำรุงอุปกรณ์น้ำมัน, pumpprogress, srifahprogress, srifah, pumpdispensing, petropump, oilpump, dresserpump, pumpdispensingoil, oilequipments, oilequips, Fill-Rite-USA, Pump-Fill-Rite-Meter, Meter-Fill-Rite",
        "emails": [
            "srifahshop@gmail.com"
        ],
        "general_info": "ห้างหุ้นส่วนจำกัด ศรีฟ้าโปรเกรส \"Srifah Progress Ltd., Part. \"\nPump Progress Equipment's, ตัวแทนนำเข้า.จัดจำหน่าย.ตู้จ่ายน้ำมัน.อุปกรณ์อะไหล่น้ำมันพร้อมบริการซ่อมบำรุงครบวงจร. โดยช่างซ่อมมืออาชีพ.กับประสบการณ์ด้านงานขาย – ซ่อมบำรุงตู้จ่ายน้ำมัน และอุปกรณ์น้ำมัน\n          “เราเปิดให้บริการลูกค้าอย่างเป็นทางการซึ่งในช่วงเวลาที่ผ่านมาย่อมเป็นสิ่งที่พิสูจน์ว่าผลงานของเรานั้นเป็นที่ประจักษ์กับผู้ใช้บริการหรือลูกค้าของเราได้เป็นอย่างดี มากกว่า 10 ปี” \n(จำหน่าย ตู้จ่ายน้ำมัน อุปกรณ์น้ำมัน พร้อมงานซ่อมบำรุง ติดตั้งอุปกรณ์ ครบวงจร) อาทิเช่น.. ตู้จ่ายน้ำมันมือเก่า-ใหม่, ติดตั้ง-แลกเปลี่ยนอุปกรณ์น้ำมัน, รับซื้อตู้จ่ายน้ำมันมือสอง.ที่ใช้ในสถานีบริการน้ำมันเชื้อเพลิง ซึ่งมีสินค้าที่นำเข้ามาจากต่างประเทศ โดยสินค้าได้รับมาตรฐาน เช่น ตู้จ่ายน้ำม้น มือจ่าย อะไหล่ต่างๆ อุปกรณ์สำหรับรถบรรทุกน้ำม้นเชื้อเพลิง เป็นต้น สถานีบริการน้ำมันเชื้อเพลิง ทั้งขนาดใหญ่ ขนาดกลาง และสถานีบริการน้ำมันชุมชนขนาดเล็ก ด้วยทีมงานที่มีคุณภาพ หน้าร้านเราอยู่ที่ บางใหญ่ นนทบุรี",
        "id": "129862367102424",
        "location": {
            "city": "Nonthaburi",
            "country": "Thailand",
            "latitude": 13.858594369159,
            "longitude": 100.53752223131,
            "street": "2/45 หมู่ที่ 6 หมู่บ้านจิตตกาญจน์ ถนนตลิ่งชัน - สุพรรณบุรี ตำบลเสาธงหิน อำเภอบางใหญ่",
            "zip": "11140"
        },
        "name": "ตู้จ่ายน้ำมันสภาพดี พร้อมช่างซ่อมฝีมือเยี่ยม",
        "phone": "0890143910"
    }
]