[
    {
        "id": "756184814479744",
        "location": {
            "city": "Amphoe Si Racha",
            "country": "Thailand",
            "latitude": 13.07057,
            "longitude": 101.01935,
            "street": "ชลบุรี",
            "zip": "20230"
        },
        "name": "ศิลวัตร์เจริญ การช่าง ต่อเติม หลังคา งานไฟฟ้า ปูกระเบื้อง ฯลฯ",
        "phone": "0918859938"
    },
    {
        "id": "1648319235454622",
        "location": {
            "city": "Sakol",
            "country": "Thailand",
            "latitude": 17.1667,
            "longitude": 104.15,
            "street": "55 m14 Sakol-Nakae Rd",
            "zip": "470000"
        },
        "name": "เอดี รับปูกระเบื้อง ต่อเติมบ้าน",
        "phone": "0831142111"
    },
    {
        "id": "112208622282989",
        "location": {
            "city": "Chum Phae",
            "country": "Thailand",
            "latitude": 16.557271,
            "longitude": 102.0904551,
            "zip": "40130"
        },
        "name": "ตลาดนัดกระเบื้องไดนาสตี้ไทล์ท้อป สาขาชุมแพ"
    },
    {
        "id": "374984742535042",
        "location": {
            "city": "Phetchaburi",
            "country": "Thailand",
            "latitude": 13.402765040142,
            "longitude": 100.01031949118,
            "zip": "75000"
        },
        "name": "ไดนาสตี้ ไทล์ท้อป ตลาดนัดกระเบื้อง (แม่กลอง)"
    },
    {
        "id": "211819312348197",
        "location": {
            "latitude": 18.1257487,
            "longitude": 100.1668195
        },
        "name": "ตลาดนัดกระเบื้องไดนาสตี้ไทล์ท้อป สาขาแพร่"
    },
    {
        "id": "948008901916794",
        "location": {
            "city": "Rayong",
            "country": "Thailand",
            "latitude": 12.6742,
            "longitude": 101.279,
            "street": "ต.เชิงเนิน  อ.เมือง",
            "zip": "21000"
        },
        "name": "งานพื้น ผนัง ปูกระเบื้อง งานเหล็ก",
        "phone": "0827156538"
    },
    {
        "id": "1645698398992910",
        "location": {
            "city": "Samut Prakan",
            "country": "Thailand",
            "latitude": 13.6,
            "longitude": 100.6,
            "street": "858 ม.4 ต.สำโรง",
            "zip": "10270"
        },
        "name": "รับเหมาต่อเติม บ้าน อาคาร ปูกระเบื้อง งานสี ไฟฟ้า ประปา งานภายนอก-ใน",
        "phone": "092-396-3480"
    },
    {
        "id": "862286100519262",
        "location": {
            "city": "Bangkok",
            "country": "Thailand",
            "latitude": 13.8649454,
            "longitude": 100.6922607,
            "street": "763 ถ.พระยาสุเรนทร์ แขวง คลองสามวาเขต มีนบุรี",
            "zip": "10510"
        },
        "name": "รับเหมาต่อเติม ต่อมุกหน้าบ้าน ปูกระเบื้อง ปูทางเท้า ซ่อมหลังคา โรงจอดรถ",
        "phone": "0896974586"
    },
    {
        "id": "414400201993112",
        "location": {
            "city": "Amphoe Chiang Rai",
            "country": "Thailand",
            "latitude": 19.818376293424,
            "longitude": 99.760440252814,
            "street": "Phahon Yothin Road"
        },
        "name": "ไดนาสตี้ ไทล์ท้อป ตลาดนัดกระเบื้อง ปูพื้น"
    },
    {
        "id": "1004283112957533",
        "location": {
            "city": "Samut Prakan",
            "country": "Thailand",
            "latitude": 13.6,
            "longitude": 100.6,
            "street": "แบริ่ง ตำบลสำโรงเหนือ",
            "zip": "10270"
        },
        "name": "ลามิเนตกฤษฏิ์ชัย ปูกระเบื้อง ทาสี บานประตู ฝ้าเพดาน",
        "phone": "0617742936"
    },
    {
        "id": "477218112390364",
        "location": {
            "city": "Lat Krabang",
            "country": "Thailand",
            "latitude": 13.7222548,
            "longitude": 100.7361526,
            "street": "1224/10",
            "zip": "10520"
        },
        "name": "รับเหมาต่อเติม,ซ่อมแซม,ปูกระเบื้อง",
        "phone": "086-4144711"
    },
    {
        "about": "  รับเหมาปูกระเบื้องห้องน้ำ ภายในภายนอก งานโครงสร้าก่อฉาบ.     ฝ้าเพดาน",
        "id": "1623302144610360",
        "location": {
            "city": "Krabi",
            "country": "Thailand",
            "latitude": 8.07302,
            "longitude": 98.906311,
            "street": "484",
            "zip": "81000"
        },
        "name": "รับเหมา งานโครงสร้าง  ก่อฉาบ   ปูกระเบื้อง  หัองน้ำ   ภายนอก  ภายใน",
        "phone": "0987921408"
    },
    {
        "id": "604568983007264",
        "location": {
            "city": "Chon Buri",
            "country": "Thailand",
            "latitude": 13.36899,
            "longitude": 100.9957,
            "street": "ชลบุรี",
            "zip": "20000"
        },
        "name": "รับต่อเติมบ้าน_สร้างบ้าน_ปูกระเบื้อง_งานไฟฟ้า_ประปา",
        "phone": "0894576091"
    },
    {
        "id": "262659340523709",
        "location": {
            "city": "Pattaya",
            "country": "Thailand",
            "latitude": 12.847668517317,
            "longitude": 100.90922942224,
            "zip": "20250"
        },
        "name": "ไดนาสตี้ ไทล์ท้อป ตลาดนัดกระเบื้อง"
    }
]