[
    {
        "about": "ศูนย์รวมกระเบื้องแกรนิตโต้ราคาย่อมเยาว์ ปูพื้น-ผนัง จำหน่ายปลีก-ส่ง",
        "id": "569053599771982",
        "location": {
            "city": "Bangkok",
            "country": "Thailand",
            "latitude": 12.656456832784,
            "longitude": 102.05438930659,
            "street": "69 ถ.ราษฎร์นิมิตร แขวงสามวาตะวันตก เขตคลองสามวา",
            "zip": "10510"
        },
        "name": "ป.เซรามิค ศูนย์รวมกระเบื้องแกรนิตโต้ จำหน่ายปลีก-ส่ง",
        "phone": "0835945695"
    },
    {
        "id": "915737011817744",
        "location": {
            "city": "Nakhon Ratchasima",
            "country": "Thailand",
            "latitude": 14.975,
            "longitude": 102.1,
            "street": "122 ม.5 ต.ละหานปลาค้าว อ.เมืองยาง จ.นครราชสีมา",
            "zip": "30270"
        },
        "name": "รับงาน ปูกระเบื้อง งานปูน -ช่างสมัย",
        "phone": "0924203394"
    },
    {
        "about": "รับงานทุกจังหวัด ต่อเติม โครงหลังคา ไฟฟ้า ปูกระเบื้องติดต่อ 0870803098 ช่างต้น",
        "id": "742962625815913",
        "location": {
            "city": "เมือง",
            "street": "กาญจนบุรี",
            "zip": "71000"
        },
        "name": "ช่างต้น ง่านปูกระเบื้อง ต่อเติม ไฟฟ้าฯ",
        "phone": "0870803098"
    },
    {
        "about": "รับเหมาต่อเติม และเหมาตัดช่วง ทาสี ฝ้า ไฟฟ้า ปะปา ปูกระเบื้อง โครงหลังคาเหล็ก และอื่นๆ",
        "id": "1442830349355811",
        "location": {
            "city": "Bangkok",
            "country": "Thailand",
            "latitude": 13.7871504,
            "longitude": 100.5475082,
            "street": "492/1แขวง/เขตบางซื่อ",
            "zip": "10800"
        },
        "name": "รับเหมาต่อเติม ปูกระเบื้อง ฝ้า ไฟฟ้า ปะปา ทาสี",
        "phone": "0906450600"
    },
    {
        "id": "1622496827975305",
        "name": "กระเบื้องยางลายไม้ พรมปูพื้น หญ้าเทียม"
    },
    {
        "about": "รับซ่อม ต่อเติม ทาสี ปูกระเบื้อง และระบบไฟฟ้า บ้าน ติดต่อ คุณกุ้ย 0833208872  คุณบิ๊ก 0970279738",
        "id": "775453879207448",
        "location": {
            "city": "Chiang Mai",
            "country": "Thailand",
            "latitude": 18.7622604,
            "longitude": 98.9929581,
            "street": "เชียงใหม่",
            "zip": "50300"
        },
        "name": "รับซ่อมบ้าน ต่อเติมบ้าน ทาสีบ้าน ปูกระเบื้องภายในห้องต่าง ๆ  ระบบไฟฟ้าบ้าน",
        "phone": "0833208872"
    },
    {
        "id": "187919748207510",
        "name": "ช่างโอ่ง   รับเหมาทาสี  ปูกระเบื้อง"
    },
    {
        "emails": [
            "nomnakum@hotmail.com"
        ],
        "id": "783040791811430",
        "name": "ช่างต่อเติมปูกระเบื้อง",
        "phone": "0954915393"
    },
    {
        "about": "ก่อสร้าง",
        "id": "428305927372919",
        "name": "ช่างตรู่งานก่อสร้างต่อเติมไฟฟ้าปูกระเบื้องตีฝ้าหลังคาทุกรูปแบบ"
    },
    {
        "id": "598723163606064",
        "location": {
            "city": "Bangkok",
            "country": "Thailand",
            "latitude": 13.70426,
            "longitude": 100.40088,
            "street": "71/88 ม1 บางแค บางแค",
            "zip": "10160"
        },
        "name": "รับติดตั้งฝ้าเพดานทุกชนิด และ ปูกระเบื้องพื้น ฝาผนัง โดยช่างมืออาชีพ",
        "phone": "0925198938"
    },
    {
        "about": "รับเหมาปูกระเบื้อง",
        "id": "1620428194841160",
        "location": {
            "city": "Nakhon Sawan",
            "country": "Thailand",
            "latitude": 15.7133,
            "longitude": 100.135,
            "street": "นครสวรรค์",
            "zip": "60240"
        },
        "name": "ช่างน้อย รับเหมาปูกระเบื้อง",
        "phone": "0862170933"
    },
    {
        "about": "รับเหมาไฟฟ้า ทาสี ปูกระเบื้อง โดยช่างมืออาชีพ ราคากันเอง",
        "description": "รับเหมาไฟฟ้า รับซ่อมไฟฟ้า ติดสวิส-ปลั๊ค ติดหลอดไฟ โคมไฟ ดาวไลท์ น้ำร้อน น้ำอุ่น ไฟกิ่ง เครื้องใช้ไฟฟ้าทุกชนิด เดินสายแอร์ เดินสายดิน ทาสี ซ่อมสี ปูกระเบื้องแกรนิต ซ่อมกระเบื้องแกรนิต รับปูและซ่อมกระเบื้องยาง บ้าน อาคารทั่วไป คอนโด ออฟฟิต โรงงาน รับงานทุกประเภท พื้นที่รับงาน กทม.และ ปริมณฑล (สะดวก ทุ่งครุ พุทธบูชา พระประแดง พระราม2 พระราม3 ท่าพระ บางแค มหาชัย) \n◇◆ติดต่อ ช่างฤทธิ์ 0830349376 \n◆◇ig : p.kanchang \n◇◆ดูรีวิวงานได้ในแท็ค\n #reviewpkanchang #รับเหมา #ไฟฟ้า #ทาสี #ปูกระเบื้อง #ราคากันเอง #กทม. #pkanchang #reviewpkanchang",
        "id": "600180719996101",
        "location": {
            "city": "Bangkok",
            "country": "Thailand",
            "street": "ทุ่งครุ",
            "zip": "10140"
        },
        "name": "รับเหมาไฟฟ้า ทาสี ปูกระเบื้อง โดยช่างผู้ชำนาญ ราคากันเอง",
        "phone": "0830349376"
    },
    {
        "id": "913959501961947",
        "name": "รับต่อเติมบ้าน ห้องน้ำ ห้องครัว ปูพื้นกระเบื้อง งานเทพื้นต่อเติม"
    },
    {
        "id": "1649668545307791",
        "location": {
            "city": "Nonthaburi",
            "country": "Thailand",
            "latitude": 13.8700933,
            "longitude": 100.5095749,
            "street": "นนทบุรี",
            "zip": "11000"
        },
        "name": "รับเหมาทั่วไปงานต่อเติมงานโครงสร้างงานปูกระเบื้องและงานต่างๆ.",
        "phone": "0964576196"
    },
    {
        "about": "รับเหมาปูกระเบื้อง.ต่อเติมบ้าน",
        "id": "735137973260998",
        "location": {
            "city": "Bangkok",
            "country": "Thailand"
        },
        "name": "ช่างเพชรรับเหมาปูกระเบื้อง"
    },
    {
        "id": "110727975934047",
        "name": "รับเหมา ก่ออิฐ ฉาบปูน ปูกระเบื้อง โดยทีม ส นายช่าง. ติดต่อ โทร 099 4409899"
    },
    {
        "about": "\n",
        "id": "1628644560699146",
        "name": "รับติดตั้งสุขภัณฑ์ทุกยี่ห้อและปูกระเบื้องพื้น/ผนัง",
        "phone": "0899688278"
    },
    {
        "about": "บริการ ซ่อมแซม ต่อเติมบ้าน/ที่พักอาศัย งานปูน งานเหล็ก ปูกระเบื้อง ทาสี",
        "id": "1596848323898484",
        "location": {
            "city": "Changwat Rayong",
            "country": "Thailand",
            "street": "rayong",
            "zip": "21000"
        },
        "name": "บริการ ซ่อมแซม ต่อเติม บ้าน/ที่พักอาศัย งานปูน งานเหล็ก ปูกระเบื้อง ทาสี",
        "phone": "0972359389"
    },
    {
        "id": "988914724494033",
        "location": {
            "city": "Chantaburi",
            "country": "Thailand",
            "latitude": 12.6,
            "longitude": 102.15
        },
        "name": "ตลาดนัดกระเบื้องไดนาสตี้ ไทล์ท้อป สาขาจันทบุรี"
    },
    {
        "id": "514067398633564",
        "location": {
            "city": "Chonburi",
            "country": "Thailand",
            "latitude": 13.311840833333,
            "longitude": 101.11175583333
        },
        "name": "ไดนาสตี้ ไทล์ท้อป ตลาดนัดกระเบื้อง"
    },
    {
        "id": "633617049985347",
        "location": {
            "city": "Bangkok",
            "country": "Thailand",
            "latitude": 13.760266,
            "longitude": 100.51087
        },
        "name": "พิพิธภัณฑ์กระเบื้องจาร พระคุณหลวงปู่อ่ำ วัดโสมนัส"
    },
    {
        "id": "632728273420169",
        "location": {
            "city": "Bangkok",
            "country": "Thailand",
            "latitude": 13.853539237765,
            "longitude": 100.6346233842
        },
        "name": "BN รับเหมาปูกระเบื้องยาง"
    },
    {
        "id": "629237857107220",
        "location": {
            "city": "WANG KRACHAE",
            "latitude": 12.280806158681,
            "longitude": 102.48885232965
        },
        "name": "ไดนาสตี้ ไทล์ท้อป - ตลาดนัดกระเบื้อง ตราด"
    },
    {
        "id": "806840539363193",
        "location": {
            "city": "Ban Bang Yai",
            "country": "Thailand",
            "latitude": 13.86226,
            "longitude": 100.37279,
            "street": "9/263",
            "zip": "11140"
        },
        "name": "รับต่อเติม ทาสี ปูกระเบื้อง",
        "phone": "0897696360"
    },
    {
        "id": "741163225939616",
        "location": {
            "latitude": 18.439157915903,
            "longitude": 98.688939671668
        },
        "name": "ร้านกระเบื้องไดนาสตี้ ไทล์ท้อป สาขาจอมทอง"
    }
]