[
    {
        "description": "ช่างปูกระเบื้อง ปูโมเสค ลายไม้ ปูกระเบื้องสระว่ายน้ำ หินธรรมชาติ ออกแบบและตกแต่งภายใน งานดีไว้ใจได้ด้วยประสบการณ์กว่า 30 ปี \nสนใจติดต่อช่างพิสิทธิ์ 0925569459",
        "id": "220068238189228",
        "location": {
            "city": "Bangkok",
            "country": "Thailand",
            "latitude": 13.61248,
            "longitude": 100.74425,
            "street": "บางนา",
            "zip": "10540"
        },
        "name": "พิสิทธิ์ ช่างปูกระเบื้องทุกชนิด โมเสค ลายไม้ สระว่ายน้ำ",
        "phone": "0818256768"
    },
    {
        "about": "รับเหมาปูพื้นลามิเนต, กระเบื้องยาง ติดต่อ 099-2502704  (ช่างปอ)",
        "description": "รับเหมาปูพื้นลามิเนต, กระเบื้องยาง \nติดต่อ 099-2502704 (ช่างปอ)\nhttp://www.ลามิเนต.com/\n",
        "id": "336541463211825",
        "name": "รับเหมาปูพื้นลามิเนต, กระเบื้องยาง  / ลามิเนต.com"
    },
    {
        "about": "ตลาดนัดกระเบื้อง ไดนาสตี้เซรามิค (สาขาขอนแก่น)",
        "description": "จำหน่ายกระเบื้องเซรามิค ชนิด ปูพื้น และ บุผนัง จากโรงงาน ไดนาสตี้ ไทล์ท้อป จ.สระบุรี  สินค้ามีใหเลือกมากกว่า 1,000 ลาย\n\nชนิดปูพื้น ขนาด 8*8 นิ้ว ขนาด 12*12 นิ้ว ขนาด 16*16 นิ้ว ขนาด 24*24 นิ้ว \nชนิดบุผนัง ขนาด 8*8 นิ้ว ขนาด 8*10  ขนาด 8*12  ขนาด 10*16  นิ้ว\nจำหน่ายกาวยาแนว  และบัวกาบกล้วย มีสีให้เลือกตามลวดลายของกระเบื้อง\nและกาวซิเมนต์ ชนิดสำเร็จรูป ถุงละ 20 กิโล จำหน่ายพร้อมกันด้วย\n\nและมีบริการส่งสินค้าให้ลูกค้าเมื่อลูกค้าสั่งซื้อสินค้าตั้งแต่ 50 กล่องขึ้นไป  (ในอำเภอเมือง)\nและมีบริการส่งสินค้าให้ลูกค้าเมื่อลูกค้าสั่งซื้อสินค้าตั้งแต่ 70 กล่องขึ้นไป (ในต่างอำเภอ) \n\n** บริการจัดส่งฟรีไม่คิดค่าบริการ**\n\nเปิดบริการทุกวัน  ตั้งแต่ 8.00 - 17.30 น. \n043-379-411-2  และ  081-768-2586\n\nสนใจติดต่อ สอบถามข้อมูลและรายละเอียดของสินค้า\nคุณแคทรียา  โอชา (ผู้จัดการสาขา ขอนแก่น)\n271 หมู่ 1 ถ.มิตรภาพ ต.สำราญ อ.เมือง จ.ขอนแก่น 40000\nโทรสำนักงาน 043-379-411-2 โทรสาร 043-379-412\nมือถือ 081-768-2586\n\n**สอบถามข้อมูลเพิ่มเติมหน้าร้านค่ะ",
        "id": "233055486743204",
        "name": "ตลาดนัดกระเบื้องไดนาสตี้ไทล์ท้อปสาขาขอนแก่นตำบลสำราญ"
    },
    {
        "about": "รับงานปรับปรุงห้องน้ำห้องครัว ปูกระเบื้อง ปรับปรุงต่อเติม",
        "emails": [
            "darksilver7979@gmail.com"
        ],
        "id": "214814071913201",
        "location": {
            "city": "Nakhon Ratchasima",
            "country": "Thailand",
            "latitude": 14.959615474096,
            "longitude": 102.06066066906
        },
        "name": "Pronto renovate ปูกระเบื้อง หินอ่อน แกรนนิต",
        "phone": "08-1750-0375"
    },
    {
        "id": "966403996735980",
        "name": "กระเบื้องปูพื้น"
    },
    {
        "id": "646544308797588",
        "location": {
            "city": "Nonthaburi",
            "country": "Thailand",
            "latitude": 13.8665152,
            "longitude": 100.4799805,
            "street": "บางใหญ่",
            "zip": "11140"
        },
        "name": "ช่างกัญจน์ ช่างปูกระเบื้อง",
        "phone": "0894911414"
    },
    {
        "description": "รับงานปูกระเบื้องยางทุกแบบ\nทุกสถานที่  สนใจโทร 098-5216086\n  ",
        "id": "1406286233003288",
        "name": "รับปูกระเบื้องยางทุกสถานที่",
        "phone": "0985216086"
    },
    {
        "about": "โต๊ะหินรินทร์วดี \nฝีมือปรานีต ดูดีดุจธรรมชาติ",
        "description": "สถานที่การผลิต  73 ม.6 ต.นาตาล่วง อ.เมือง จ.ตรัง 92000\n",
        "emails": [
            "siriluck_meadsai@icloud.com"
        ],
        "id": "129228910609327",
        "location": {
            "city": "ไทย",
            "street": "73 หมู่6 ตำบลนาตาล่วง อำเภอเมือง จังหวัดตรัง",
            "zip": "92000"
        },
        "name": "โต๊ะหินปูกระเบื้องรูปแบบเหมือนไม้กลึง",
        "phone": "087-3510635"
    },
    {
        "about": "รับปูกระเบื้องทุกชนิด ต่อเติมบ้านเล็กๆน้อย แบบเป็นกันเอง ในจังหวัดขอนแก่น",
        "id": "1515946558638236",
        "location": {
            "city": "Bangkok",
            "country": "Thailand",
            "latitude": 16.47889,
            "longitude": 102.82676,
            "street": "บ้านหนองกุง  ตำบลศิลา  อำเภอเมือง  จังหวัดขอนแก่น",
            "zip": "40000"
        },
        "name": "รับปูกระเบื้องทุกชนิด",
        "phone": "0862366395"
    },
    {
        "id": "934428946619142",
        "location": {
            "city": "Kanchanaburi",
            "country": "Thailand",
            "latitude": 14.0192,
            "longitude": 99.5297,
            "street": "9/2 ม.3 ต.ลุ่มสุ่ม อ.ไทรโยค",
            "zip": "71150"
        },
        "name": "รับเหมาปูกระเบื้องและทาสีภายใน",
        "phone": "0945655375"
    },
    {
        "about": "ช่างอดิศร \n-ค่าแรงตามหน้างาน\n-งานเฉพาะกระเบื้องและโมเสค\n",
        "id": "776676659144205",
        "name": "รับเหมางานปูกระเบื้อง-โมเสค"
    },
    {
        "id": "469320493196115",
        "location": {
            "city": "Bangkok",
            "country": "Thailand",
            "latitude": 13.6183,
            "longitude": 100.61105,
            "street": "9/1ม.4",
            "zip": "10270"
        },
        "name": "รับเหมาปูกระเบื้อง หินอ่อน หินแกรนิต แกรนิตโต้",
        "phone": "0846634579"
    },
    {
        "about": "หาช่างปูกระเบื้อง ช่างรับเหมา ช่างไฟฟ้า น้ำประปา โทร0869126463,line:beau9791",
        "id": "370515503136748",
        "name": "หาช่างปูกระเบื้อง ช่างรับเหมา ช่างรื้อถอน ไฟฟ้า น้ำประปาเชียงใหม่"
    },
    {
        "about": "128 หมู่ 13 ต.บ้านตึก อ.ศรีสัชนาลัย จ.สุโขทัย 64130",
        "id": "209917885838612",
        "location": {
            "city": "Amphoe Si Satchanalai",
            "country": "Thailand",
            "latitude": 17.58849,
            "longitude": 99.69534,
            "street": "128 หมู่ 13 ต.บ้านตึก อ.ศรีสัชนาลัย จ.สุโขทัย",
            "zip": "64130"
        },
        "name": "ช่างพันพื้นสวย-หินอ่อน หินขัด ทรายล้าง ปูกระเบื้อง งานปูนทุกประเภท",
        "phone": "0862086761+0992906960"
    },
    {
        "about": "สนใจติดต่อสอบถามรายละเอียดเพิ่มเติมได้ที่ ID Line:vasinee88 หรือสายด่วน 092-8548110 , 087-7563100",
        "emails": [
            "vasinee88@hotmail.com"
        ],
        "id": "1069112823129372",
        "name": "ขายกระเบื้องดินเผา อิฐปูพื้นดินเผา จากโรงงาน",
        "phone": "092-8548110 , 087-7563100"
    },
    {
        "about": "หินขัด ทรายล้าง ปูกระเบื้อง ต่อเติมบ้าน  อุบล ยโส ศรีษเกษ อำนาจ ติดต่อ 090-6087489 cotomza@gmail.com",
        "description": "หินขัด ทรายล้าง ปูกระเบื้อง ต่อเติมบ้าน อาคาร อุบล ยโส ศรีษเกษ อำนาจ ติดต่อ 090-6087489 E-Mail cotomza@gmail.com",
        "emails": [
            "cotomza@gmail.com"
        ],
        "id": "425430294160825",
        "location": {
            "city": "Ubon Ratchathani",
            "country": "Thailand",
            "zip": "34000"
        },
        "name": "รุ่งสจริตหินขัด หินขัด ทรายล้าง ปูกระเบื้อง ต่อเติมบ้าน",
        "phone": "0906087489"
    },
    {
        "id": "393031374230469",
        "location": {
            "city": "Bangkok",
            "country": "Thailand",
            "latitude": 13.7579803,
            "longitude": 100.6287994,
            "street": "รามคำแหง24/3",
            "zip": "10240"
        },
        "name": "รับงานปูกระเบื้อง งานไฟฟ้า ประปา ทาสี",
        "phone": "0870872392"
    },
    {
        "about": "รับงานเหล็ก งานปูกระเบื่อง งานฝ้าเพดาน ตกแต่งภายในเฟอร์นิเจอร์ โดยช่างมืออาชีพ",
        "id": "543617652406454",
        "name": "รับงานปูกระเบื้อง ต่อเติม ผนังเบา ฝ้าเพดาน เฟอร์นิเจอร์ ตกแต่งภายใน เอนกทีม"
    },
    {
        "id": "856482984429119",
        "name": "ช่างปูกระเบื้อง"
    },
    {
        "about": "จำหน่ายหินอ่อน หินแกรนิต หินอ่อนสังเคราะห์ กระเบื้อง โมเสค และพื้นไม้สำเร็จรูป 02-320-1084",
        "description": "จำหน่ายหินธรรมชาติ หินอ่อน หินแกรนิต หินอ่อนสังเคราะห์ กระเบื้อง โมเสค พื้นไม้สำเร็จรูป ประตูไม่้สำเร็จ บันได และเค้าน์เตอร์แบบติดตั้ง พร้อมบริการส่งและติดตั้ง",
        "emails": [
            "sales@bmchomemart.com"
        ],
        "id": "127662217423679",
        "location": {
            "city": "Bangkok",
            "country": "Thailand",
            "latitude": 13.73985567809,
            "longitude": 100.64786223793,
            "street": "2296",
            "zip": "10250"
        },
        "name": "BMC Homemart : จำหน่ายหินอ่อน หินแกรนิต กระเบื้อง และไม้ปูพื้น",
        "phone": "02-320-1084-6"
    },
    {
        "about": "กระเบื้องปูพื้น ปูผนัง นำเข้าจากต่างประเทศ",
        "id": "850149648387299",
        "location": {
            "city": "Bangkok",
            "country": "Thailand",
            "zip": "10250"
        },
        "name": "คนขายกระเบื้องปูพื้น",
        "phone": "099-002-2518 "
    },
    {
        "about": "ปูกระเบื้อง รับเหมาต่อเติมครบวงจร",
        "id": "983675551661864",
        "name": "ช่างปูกระเบื้อง ช่างสันติ แดงนวล โทร. 089 827 6497 เหมาครบวงจร"
    },
    {
        "id": "247475648782363",
        "location": {
            "city": "Bangkok",
            "country": "Thailand",
            "latitude": 13.46235,
            "longitude": 99.35374,
            "street": "3 Moo 13, Tambon Tha Khoei, Suan Phung Chung Marine Regiment.",
            "zip": "70180"
        },
        "name": "รับเหมาปูกระเบื้องวางระบบไฟ+น้ำ",
        "phone": "0985435101"
    },
    {
        "about": "รับเหมาปูกระเบื้องผนัง  กระเบื้องพื้น สระว่ายน้ำ  ห้องครัว  บันได",
        "description": "รับเหมาปูกระเบื้องพื้น  ผนัง  สระว่ายน้ำ ห้องน้ำ  ห้องครัว",
        "emails": [
            "champ6699mail_3@hotmail.com"
        ],
        "id": "423287327872057",
        "location": {
            "city": "Bangkok",
            "country": "Thailand",
            "latitude": 13.8715496,
            "longitude": 100.6199493,
            "street": "30 หมู่ 9 ซอยรามอินทรา 14 แขวงท่าแร้ง เขตบางเขน",
            "zip": "10230"
        },
        "name": "เจ๊อิ๊ด รับเหมาปูกระเบื้อง  ฝีมือระดับมาตรฐาน 0870672581",
        "phone": "0870672581"
    },
    {
        "about": "สนใจติดต่อ:0833905012\nหรือ:0854730916line:id:kom 2527",
        "id": "887809344576309",
        "name": "คมศักดิ์งานปูกระเบื้อง"
    }
]