[
    {
        "id": "987959524568169",
        "location": {
            "city": "Khlung",
            "country": "Thailand",
            "latitude": 12.45,
            "longitude": 102.233
        },
        "name": "ตลาดนัดกระเบื้องไดนาสตี้ ไทล์ท้อป สาขาขลุง"
    },
    {
        "about": "ต่อเติมบ้าน ปูกระเบื้อง",
        "id": "1538741159735668",
        "location": {
            "city": "Bangkok",
            "country": "Thailand",
            "latitude": 13.75395,
            "longitude": 100.50224,
            "street": "ลาดพร้าว"
        },
        "name": "รับเหมางานก่อสร้าง  ต่อเติม  ปูกระเบื้อง",
        "phone": "0946722359"
    },
    {
        "id": "1553472034916028",
        "location": {
            "city": "Bangkok",
            "country": "Thailand",
            "latitude": 13.7522,
            "longitude": 100.494,
            "street": "บางเขน"
        },
        "name": "รับเหมาปูกระเบื้องทุกชนิด",
        "phone": "0948757746"
    },
    {
        "about": "รับเหมาก่อสร้าง ต่อเติมบ้าน รับปูกระเบื้อง ครบวงจร ติดต่อ 0814837027",
        "description": "รับเหมาก่อสร้าง ต่อเติมบ้าน รับปูกระเบื้อง ครบวงจร โดยช่างผู้ชำนาญ ติดต่อ ช่างธงชัย 081-4837027",
        "id": "1567321073537253",
        "location": {
            "city": "Nonthaburi",
            "country": "Thailand",
            "latitude": 13.93621,
            "longitude": 100.47408,
            "street": "ปากเกร็ด",
            "zip": "11120"
        },
        "name": "รับเหมาก่อสร้าง ต่อเติมบ้าน รับปูกระเบื้อง ครบวงจร",
        "phone": "0814837027"
    },
    {
        "id": "1570257056564073",
        "location": {
            "city": "Kumphawapi",
            "country": "Thailand",
            "latitude": 17.1114854,
            "longitude": 103.00962486
        },
        "name": "ร้านกระเบื้องไดนาสตี้ไทล์ท้อป"
    },
    {
        "id": "1599361203620093",
        "location": {
            "city": "Bangkok",
            "country": "Thailand",
            "latitude": 13.7319004,
            "longitude": 100.4874645
        },
        "name": "มหาลัยชื่อดังย่านฝั่งธนตึกสอนว่าที่ครูกู้กยศ.ผ่อนไอโฟนปูกระเบื้องใหม่ทุกวัน"
    },
    {
        "id": "1600250766859646",
        "location": {
            "city": "Ban Sam Roi Yot",
            "country": "Thailand",
            "latitude": 12.21633929863,
            "longitude": 99.880399703979
        },
        "name": "ขายกระเบื้อง งานประจำปีวัดสามร้อยยอด"
    },
    {
        "id": "1465559957086931",
        "location": {
            "city": "Changwat Chanthaburi",
            "country": "Thailand",
            "latitude": 12.6,
            "longitude": 102.15
        },
        "name": "ตลาดนัดกระเบื้อง ไดนาสตี้ไทล์ท้อป สาขาตากสิน-จันทบุรี"
    },
    {
        "id": "1608932776062938",
        "location": {
            "city": "Bangkok",
            "country": "Thailand",
            "latitude": 13.7051623,
            "longitude": 100.4671976
        },
        "name": "บ้านปู ปูกระเบื้อง ทาสีบ้าน ติดต่อได้เลย"
    },
    {
        "id": "1617089795247293",
        "location": {
            "city": "Bangkok",
            "country": "Thailand",
            "latitude": 13.69878,
            "longitude": 100.42106,
            "street": "บางแค",
            "zip": "10160"
        },
        "name": "รับปูกระเบื้องยาง ทาสี ทำฝ้า ภายในติดต่อได้นะครับ",
        "phone": "0972740857"
    },
    {
        "id": "1623216714557278",
        "location": {
            "city": "Bangkok",
            "country": "Thailand",
            "latitude": 13.7522,
            "longitude": 100.494
        },
        "name": "แผนกกระเบื้องปูพื้น. ไทวัสดุเชียงราย"
    },
    {
        "id": "1657104864518352",
        "location": {
            "latitude": 15.59832835,
            "longitude": 102.45666686
        },
        "name": "รูหนูปูกระเบื้อง"
    },
    {
        "about": "ชุดปรับระดับพื้นกระเบื้องขายปลีก / ส่ง (รับสมัครตัวแทน)\n\nโทร 089-123-2683\nLine: one122683\nWeb: http://กระเบื้องปูพื้น.net",
        "description": "ชุดปรับระดับพื้นกระเบื้อง ทั้งปลีก / ส่ง ใช้งานง่าย ป้องกันการแก้งานภายหลัง (รับสมัครตัวแทนจำหน่ายทั่วประเทศ)\n\nโทร: 089-123-2683\nLine: one122683\nWebsite: http://กระเบื้องปูพื้น.net/\nFacebook: www.fb.com/tile.leveling.system\nEmail: tls_sale@symbolet.com",
        "emails": [
            "tls_sale@symbolet.com"
        ],
        "id": "1659005937669983",
        "location": {
            "city": "Bangkok",
            "country": "Thailand",
            "latitude": 13.70399,
            "longitude": 100.4016113,
            "street": "150/119",
            "zip": "10160"
        },
        "name": "กระเบื้องปูพื้น",
        "phone": "0891232683"
    },
    {
        "id": "1666452763569537",
        "location": {
            "city": "Chiang Mai",
            "country": "Thailand",
            "latitude": 18.78899,
            "longitude": 98.9960175,
            "street": "รับเหมาต่อเติม เชียงใหม่",
            "zip": "50300"
        },
        "name": "รับเหมาต่อเติมบ้าน ก่ออิฐ,ฉาบ,ปูกระเบื้อง,โครงหลังคา",
        "phone": "0980034906"
    },
    {
        "id": "1694962340723292",
        "location": {
            "city": "Amphoe Muang Chainat",
            "country": "Thailand",
            "latitude": 15.1833,
            "longitude": 100.133
        },
        "name": "ห้องสี่เหลี่ยมที่มีแอร์ปูกระเบื้องสีฟ้าบนโรงยิม"
    },
    {
        "id": "1396172067365224",
        "location": {
            "city": "Ban Bang Yai",
            "country": "Thailand",
            "latitude": 13.86226,
            "longitude": 100.37279,
            "street": "9/263",
            "zip": "11140"
        },
        "name": "รับต่อเติม ทาสี ปูกระเบื้อง",
        "phone": "0897696360"
    },
    {
        "about": "รับทำพื้น หินขัด พื้นทรายล้าง กรวดล้าง ปูกระเบื้อง หินอ่อน ราคาบ้านๆ",
        "id": "990087311010195",
        "location": {
            "city": "Chumporn",
            "country": "Thailand",
            "latitude": 10.5,
            "longitude": 99.1667,
            "street": "337 ม.4 วังตะกอ หลังสวน",
            "zip": "86110"
        },
        "name": "รับทำ หินขัด ทรายล้าง ปูกระเบื้อง-ช่างตั๊ก",
        "phone": "0896482157"
    },
    {
        "id": "993561930659788",
        "location": {
            "city": "Surat Thani",
            "country": "Thailand",
            "latitude": 9.10249857,
            "longitude": 99.31458159
        },
        "name": "ตลาดนัดกระเบื้อง ไดนาสตี้ ท้อป แถวโลตัสสุราษฎร์"
    },
    {
        "id": "994835720550902",
        "location": {
            "city": "U Thong",
            "country": "Thailand",
            "latitude": 14.37202636,
            "longitude": 99.89957608,
            "zip": "72160"
        },
        "name": "โรงเรียนมัธยมชื่อดังย่านอู่ทอง ที่มีฟุตบาทปูกระเบื้องไม่เท่า"
    },
    {
        "id": "1015590208463246",
        "location": {
            "city": "Chon Buri",
            "country": "Thailand",
            "latitude": 13.3667,
            "longitude": 100.983
        },
        "name": "ตลาดนัดกระเบื้องไดนาสตี้ไทล์ท้อป สาขาบางพระ"
    },
    {
        "id": "1085876744772574",
        "location": {
            "city": "Ayutthaya",
            "country": "Thailand",
            "latitude": 14.35,
            "longitude": 100.55,
            "street": "13/3 ม.7 ต.พระนอร อ.นครหลวง จ.พระนครศรีอยุธยา",
            "zip": "13260"
        },
        "name": "รับเหมาปูกระเบื้อง ต่อเติมบ้านในราคากันเอง",
        "phone": "0930353229"
    },
    {
        "id": "1120565957973065",
        "location": {
            "city": "Uthai Thani",
            "country": "Thailand",
            "latitude": 15.40071761,
            "longitude": 100.03266424
        },
        "name": "ห้องน้ำชายโรงเรียนไฮโซโรงเรียนชื่อดังปูกระเบื้องทองคำ"
    },
    {
        "id": "1377225939023664",
        "location": {
            "latitude": 14.62077167,
            "longitude": 101.00888333
        },
        "name": "ห้องนอนใหญ่เท่าดาวพลูโตมีกระเบื้องลายกาแล็คซี่และมีเจ้าของบ้านเป็นพี่จำปี"
    },
    {
        "id": "1388004941429634",
        "location": {
            "city": "Bangkok",
            "country": "Thailand",
            "latitude": 13.700868,
            "longitude": 100.646461
        },
        "name": "ตลาดนัดกระเบื้อง ไดนาสตี้ ไทล์ท้อป"
    },
    {
        "id": "1421836378052512",
        "location": {
            "city": "Bangkok",
            "country": "Thailand",
            "latitude": 13.7288076,
            "longitude": 100.7785731
        },
        "name": "กระเบื้องปูพื้นแผ่นที่ 53 ชั้น 3 หอพักfbt"
    }
]