[
    {
        "id": "558731907588219",
        "location": {
            "city": "Chiang Mai",
            "country": "Thailand",
            "latitude": 18.5540493,
            "longitude": 99.04812346
        },
        "name": "ร้านขายกระเบื้องปูพื้น ก่อนถึงแยกดอยติ"
    },
    {
        "id": "423571897825013",
        "location": {
            "city": "Bangkok",
            "country": "Thailand",
            "latitude": 13.78104,
            "longitude": 100.71227,
            "street": "49/74 คอนโดไดมอนด์ปาร์ค ถนน ประดิพัทธ์ ซอย ประดิพัทธ์ 21 แขวง สามเสนใน เขต พญาไท กทม.",
            "zip": "10400"
        },
        "name": "รับงานต่อเติมบ้าน และอาคารทั่วไป งานปูกระเบื้องทาสี และปะปา",
        "phone": "0853595801 "
    },
    {
        "id": "288070108022310",
        "location": {
            "city": "Cha-am",
            "country": "Thailand",
            "latitude": 12.64746295755,
            "longitude": 99.949828349147
        },
        "name": "Grand Tile - กระเบื้องปูพื้น"
    },
    {
        "id": "306640986015026",
        "location": {
            "city": "Muang Nan",
            "country": "Thailand",
            "latitude": 18.731708332031,
            "longitude": 100.75484862906
        },
        "name": "ไดนาสตี้ กระเบื้องปูพื้น"
    },
    {
        "id": "323654254460570",
        "location": {
            "city": "Lampang",
            "country": "Thailand",
            "latitude": 18.31440735608,
            "longitude": 99.527238257642
        },
        "name": "ตลาดนัดกระเบื้อง ไดนาสตี้ ไทล์ท้อป ลำปาง"
    },
    {
        "id": "323860487694214",
        "location": {
            "city": "Tha Muang",
            "country": "Thailand",
            "latitude": 13.981138,
            "longitude": 99.580625
        },
        "name": "ไดนาสตี้ กระเบื้องปูพื้น-ผนัง"
    },
    {
        "id": "334394213412073",
        "location": {
            "city": "Phetchabun",
            "country": "Thailand",
            "latitude": 16.39082,
            "longitude": 101.15624,
            "street": "หมู่5บ้านพี้ ต.บ้านโตก .อ.เมือง",
            "zip": "67000"
        },
        "name": "รับเหมาปูกระเบื้อง งานกระเบื้องทั่วไป",
        "phone": "0809983589"
    },
    {
        "id": "336205179812670",
        "location": {
            "city": "Bangkok",
            "country": "Thailand",
            "latitude": 13.829283749232,
            "longitude": 100.48802251471,
            "zip": "11000"
        },
        "name": "ไดนาสตี้ ไทล์ท้อป - ตลาดนัดกระเบื้อง"
    },
    {
        "id": "358168467633206",
        "location": {
            "city": "Bangkok",
            "country": "Thailand",
            "latitude": 14.039675910039,
            "longitude": 100.41802553469,
            "zip": "12140"
        },
        "name": "ตลาดนัดกระเบื้อง ไดนาสตี้ ไทล์ท้อป - ลาดหลุมแก้ว"
    },
    {
        "id": "366808883386588",
        "location": {
            "latitude": 14.38122,
            "longitude": 100.9014
        },
        "name": "กระเบื้องดังของไทย ไดนาสตี้ ไทล์ท้อป @ หินกอง"
    },
    {
        "id": "375870389277532",
        "location": {
            "city": "Phetchaburi",
            "country": "Thailand",
            "latitude": 13.1,
            "longitude": 99.95,
            "street": "หนองขนาน",
            "zip": "76000"
        },
        "name": "รับปูกระเบื้อง",
        "phone": "0910259937"
    },
    {
        "id": "399023433550259",
        "location": {
            "latitude": 14.185451,
            "longitude": 100.613764
        },
        "name": "ร้านกระเบื้องไดนาสตี้ไทล์ท้อป"
    },
    {
        "id": "400584480082432",
        "location": {
            "city": "Amphoe Chiang Saen",
            "country": "Thailand",
            "latitude": 20.24912300594,
            "longitude": 99.855556620268,
            "street": "ร้านแต่งดี"
        },
        "name": "ร้านแต่งดี กระเบื้องดินเผาปั้นมือ ปูพื้น มุงหลังคา อิฐโบราณ"
    },
    {
        "id": "401973396631141",
        "location": {
            "latitude": 15.7369731885,
            "longitude": 101.7711240665
        },
        "name": "โรงเรียนดังประจำอำเภอเยื้องโรงพยาบาลมีตึกคู่ฟ้าเขียวปูกระเบื้องสีรุ้ง"
    },
    {
        "id": "420978704754260",
        "location": {
            "city": "Mahachai",
            "country": "Thailand",
            "latitude": 13.564119285716,
            "longitude": 100.27177394832
        },
        "name": "ตลาดนัดกระเบื้อง ไดนาสตี้ไทล์ท้อป สาขา มหาชัย"
    },
    {
        "about": "ปูกระเบื้อง ทาสี",
        "id": "500391773460152",
        "location": {
            "city": "Khon Kaen",
            "country": "Thailand",
            "latitude": 16.4333,
            "longitude": 102.833,
            "street": "1/113",
            "zip": "40000"
        },
        "name": "ปูกระเบื้อง ทาสีบ้าน",
        "phone": "0850017388"
    },
    {
        "id": "647649955283969",
        "location": {
            "city": "Amphoe Nakhon Chai Si",
            "country": "Thailand",
            "latitude": 13.792,
            "longitude": 100.197725,
            "street": "91/9ม.3 ต.ศรีษะทอง อ.นครชัยศรี จ.นครปฐม",
            "zip": "73120"
        },
        "name": "ไดนาสตี้/ไทล์ท้อป - ตลาดนัดกระเบื้อง สาขานครปฐม",
        "phone": "034978398"
    },
    {
        "id": "1407718066155070",
        "location": {
            "city": "Pak Nam Pho",
            "country": "Thailand",
            "latitude": 15.681426098825,
            "longitude": 100.12950165963,
            "street": "ตรงข้ามแม๊คโคร นครสวรรค์",
            "zip": "60000"
        },
        "name": "ตลาดนัดกระเบื้อง ไดนาสตี้ไทล์ท้อป สาขาหน้า แมคโคล",
        "phone": "056256900"
    },
    {
        "id": "460767060621049",
        "location": {
            "city": "Bang Lamung",
            "country": "Thailand",
            "latitude": 13.00957082132,
            "longitude": 100.93108135297
        },
        "name": "ตลาดนัดกระเบื้อง ไดนาสตี้ ไทล์ท้อป"
    },
    {
        "about": "รับเหมางานต่อเติม ทุกชนิด",
        "description": "รับเหมางานก่อสร้าง\nงานต่อเติมบ้าน ต่าง ๆ (เช่นทำห้องครัว / ทำระเบียง ทำโรงรถ เป็นต้น)\nงานเทปูน ปรับระดับพื้น งานปูกระเบื้อง \nงานระบบไฟฟ้า /ประปา \n",
        "emails": [
            "hirunpanich1@hotmail.com"
        ],
        "id": "232899046821949",
        "location": {
            "city": "Non Buri",
            "country": "Thailand",
            "latitude": 16.71266,
            "longitude": 103.52041,
            "street": "ม.คุณาภัทร5  ถ.บ้านกล้วยไทรน้อย ต.พิมลราช  อ.บางบัวทอง",
            "zip": "11100"
        },
        "name": "รับเหมางานก่อสร้าง ต่อเติมบ้าน ปูกระเบื้อง  ห้องครัวปูน  หลังคาโรงรถ",
        "phone": "0897889979"
    },
    {
        "id": "372386012870797",
        "location": {
            "latitude": 17.274855004638,
            "longitude": 99.842651956272,
            "street": "101"
        },
        "name": "กระเบื้องไดนาสตี้ไทล์ท้อป",
        "phone": "055911030"
    },
    {
        "id": "270159013063872",
        "location": {
            "city": "Bang Phutsa",
            "country": "Thailand",
            "latitude": 14.887451972971,
            "longitude": 100.39191758098,
            "street": "3030",
            "zip": "16000"
        },
        "name": "ไดนาสตี้ ไทล์ท๊อป(สิงห์บุรี) กระเบื้องปูพื้น"
    },
    {
        "id": "452214531533283",
        "location": {
            "city": "Bangkok",
            "country": "Thailand",
            "latitude": 13.901628114664,
            "longitude": 100.53530685772,
            "zip": "11120"
        },
        "name": "ตลาดกระเบื้องไดนาสตี้ไทล้ท้อป"
    },
    {
        "description": "รับสร้างบ้าน ต่อเติม ห้องน้ำ งานปูนทั่วไป ปูกระเบื้อง ราคาย่อมเยา ไม่ผ่านบริษัท คุยกับช่างผู้ทำโดยตรง เล็กๆ น้อยๆ ก็ทำได้ สนใจติดต่อ 0881392271 ช่างศักดิ์",
        "emails": [
            "bird.it12@gmail.com"
        ],
        "id": "872248906168322",
        "location": {
            "city": "Samut Prakan",
            "country": "Thailand",
            "latitude": 13.673749570812,
            "longitude": 100.55937409401,
            "street": "พระประแดง",
            "zip": "10130"
        },
        "name": "ช่างศักดิ์ ต่อเติม ปูกระเบื้อง",
        "phone": "0881392271"
    },
    {
        "about": "รับปูกระเบื้อง กรุงเทพ ปริมณฑล เพชรบูรณ์ และจังหวัดใกล้เคียง",
        "id": "537666369713579",
        "location": {
            "city": "Amphoe Muang Phetchabun",
            "country": "Thailand",
            "latitude": 16.39082,
            "longitude": 101.15624,
            "street": "118/2 ม.1 ต.ชอนไพร",
            "zip": "67000"
        },
        "name": "รับปูกระเบื้อง",
        "phone": "0816054250"
    }
]