[
    {
        "description": "ยินดีต้อนรับเข้าสู่เพจของเรานะค่ะ  ^_____________________________^\n\nเพจของเรามีน้องแมวสายพันธ์ดีมีทั้งหน้าบี้และหน้าตุ๊กตาสนใจสอบถามราคาได้ค่ะน้องแมวทุกตัวที่บ้านเลี้ยงด้วยอาหารเกรดพรีเมี่ยมและเลี้ยงด้วยห้องส่วนตัวแบบระบบปิดสะอาดปลอดภัยจากเชื้อโรคแน่นอนค่ะ",
        "id": "243922309105818",
        "location": {
            "city": "Ratchaburi",
            "country": "Thailand",
            "latitude": 13.70107,
            "longitude": 99.74072,
            "street": "186 หมู่.2 ตำบล.ดอนกระเบื้อง อำเภอ.โพธาราม จังหวัด.ราชบุรี",
            "zip": "70120"
        },
        "name": "ปีโป้ บ้านแมวเปอร์เซียหนองโพ",
        "phone": "084"
    },
    {
        "id": "370281386485190",
        "location": {
            "city": "Samran",
            "country": "Thailand",
            "latitude": 16.4635598,
            "longitude": 102.8448438,
            "street": "271 ม.1 ต.สำราญ อ.เมือง จ.ขอนแก่น 40000 โทร.043379411-2"
        },
        "name": "ตลาดนัดกระเบื้องไดนาสตี้ไทล์ท้อป สาขาขอนแก่น - บ้านสำราญ",
        "phone": "043379411"
    },
    {
        "id": "749249275198559",
        "location": {
            "city": "Nonthaburi",
            "country": "Thailand",
            "latitude": 13.8895903,
            "longitude": 100.5121918,
            "street": "ประเสริฐอิสลามซอย6"
        },
        "name": "รับเหมาฉาบปูนปูกระเบื้อง งานปูหิน",
        "phone": "0844371172"
    },
    {
        "id": "1415420092045458",
        "location": {
            "city": "Muang Nan",
            "country": "Thailand",
            "latitude": 18.7319502,
            "longitude": 100.7548613
        },
        "name": "ตลาดนัดกระเบื้องไดนาสตี้ไทล์ท้อป สาขาน่าน"
    },
    {
        "id": "1503983869889061",
        "location": {
            "city": "Muang Yasothon",
            "country": "Thailand",
            "latitude": 15.789933911651,
            "longitude": 104.14826195687
        },
        "name": "ร้านกระเบื้องไดนาสตี้ ไทล์ท้อป สาขายโสธร"
    },
    {
        "id": "115197481967893",
        "location": {
            "city": "Lampang",
            "country": "Thailand",
            "latitude": 18.265284,
            "longitude": 99.464612
        },
        "name": "ตลอดนัดกระเบื้อง ปูพื้น-บุผหนัง"
    },
    {
        "id": "126557871018888",
        "location": {
            "city": "Sawang Daen Din",
            "country": "Thailand",
            "latitude": 17.4739403,
            "longitude": 103.4479648
        },
        "name": "ดี โอเค กระเบื้องปูพื้น-บุผนัง"
    },
    {
        "id": "134129296739872",
        "location": {
            "latitude": 12.280864,
            "longitude": 102.488769
        },
        "name": "ไดนาสตี้ ไทล์ท้อป กระเบื้องดังของไทย"
    },
    {
        "id": "173897019468408",
        "location": {
            "city": "Nakhon Phanom",
            "country": "Thailand",
            "latitude": 17.388365,
            "longitude": 104.769005
        },
        "name": "ตลาดนัดกระเบื้องไดนาสตี้ ไทล์ท้อปสาขานครพนม"
    },
    {
        "about": "ซ่อมแซม ตกแต่งภายใน",
        "id": "180676992263838",
        "location": {
            "city": "Nonthaburi",
            "country": "Thailand",
            "latitude": 13.8700933,
            "longitude": 100.5095749,
            "street": "คอนโด",
            "zip": "11120"
        },
        "name": "ช่างปูกระเบื้อง",
        "phone": "0879594474"
    },
    {
        "id": "181133085397263",
        "location": {
            "latitude": 14.932620769231,
            "longitude": 100.28135
        },
        "name": "สะพานไม้ 100 ปี ดอนกระเบื้อง"
    },
    {
        "id": "190023171084476",
        "location": {
            "city": "Phitsanulok",
            "country": "Thailand",
            "latitude": 16.816003,
            "longitude": 100.300882,
            "zip": "65000"
        },
        "name": "เสาเอก ศูนย์รวมกระเบื้องปูพื้น"
    },
    {
        "id": "486572981434223",
        "location": {
            "city": "KHLONG KHACHEN",
            "latitude": 16.454729866252,
            "longitude": 100.2990440839
        },
        "name": "ตลาดนัดกระเบื้อง ไดนาสตี้ ไทล์ท้อป"
    },
    {
        "about": "รับเหมางานปูหินแกรนิต ปูกระเบื้้อง หินอ่อน  โมเสท ",
        "id": "285687801578175",
        "location": {
            "city": "Suphan Buri",
            "country": "Thailand",
            "latitude": 14.4667,
            "longitude": 100.117,
            "street": "ต.บ่อสุพรรณ  อ.สองพี่น้อง  จ.สุพรรณบุรี",
            "zip": "72190"
        },
        "name": "รับเหมาปูกระเบื้อง หินแกรนิต หินอ่อน โมเสท  ช่างวิทย์ โทร.089-0118916"
    },
    {
        "id": "446904295472889",
        "location": {
            "city": "Changwat Trat",
            "country": "Thailand",
            "latitude": 12.24247,
            "longitude": 102.51769,
            "street": "168/2 ม.5 ต.วังกระแจะ อ.เมือง จ.ตราด"
        },
        "name": "ตลาดนัดกระเบื้องไดนาสตี้ ไทล์ท้อป สาขาตราด",
        "phone": "0819964045"
    },
    {
        "id": "454906037927737",
        "location": {
            "city": "Kaeng Khro",
            "country": "Thailand",
            "latitude": 16.123622114768,
            "longitude": 102.25214513937,
            "street": "55 ม.9 ต.ช่องสามหมอ อ.แก้งคร้อ จ.ชัยภูมิ 36150",
            "zip": "36150"
        },
        "name": "ตลาดนัดกระเบื้องไดนาสตี้ไทล์ท้อป สาขาแก้งคร้อ - ชัยภูมิ"
    },
    {
        "id": "460781214048105",
        "location": {
            "latitude": 15.344685,
            "longitude": 103.281605
        },
        "name": "ปั้มนํ้ามันบ้านกระเบื้อง"
    },
    {
        "id": "461881883990658",
        "location": {
            "city": "Uthai Thani",
            "country": "Thailand",
            "latitude": 15.381443977564,
            "longitude": 100.01848141286
        },
        "name": "โรงเรียนหรู ปูกระเบื้อง ห้องน้ำบนเขาหญิงบนเขา เดินขึ้น 20 ขั้น"
    },
    {
        "id": "476780015688271",
        "location": {
            "city": "Bangkok",
            "country": "Thailand",
            "latitude": 14.001358,
            "longitude": 100.516211,
            "zip": "12000"
        },
        "name": "@บ้านป้า\\ต่อเติมบ้านปูกระเบื้องเทปูนเหนื่อยสาดด"
    },
    {
        "id": "481969885206012",
        "location": {
            "city": "Nakhon Phanom",
            "country": "Thailand",
            "latitude": 17.393946,
            "longitude": 104.773769,
            "zip": "48000"
        },
        "name": "ตลาดนัดกระเบื้องไดนาสตี้ไทล์ท้อป สาขานครพนม"
    },
    {
        "id": "439254566191662",
        "location": {
            "city": "Ban Mai Nong Sai",
            "country": "Thailand",
            "latitude": 13.72202,
            "longitude": 102.5124,
            "zip": "27120"
        },
        "name": "ตลาดนัดกระเบื้องไดนาสตี้ไทล์ท้อป อรัญประเทศ"
    },
    {
        "id": "492416044157145",
        "location": {
            "latitude": 14.831086901583,
            "longitude": 101.17248715509
        },
        "name": "พื้นห้องนอนปูกระเบื้อง"
    },
    {
        "id": "507102912729167",
        "location": {
            "city": "Muang Chaiyapum",
            "country": "Thailand",
            "latitude": 15.819656025385,
            "longitude": 102.04369464987,
            "street": "69/30 ม.5 ต.ในเมือง อ.เมืองจ.ชัยภูมิ"
        },
        "name": "ตลาดนัดกระเบื้องไดนาสตี้ไทล์ท้อป สาขาชัยภูมิ",
        "phone": "044833985"
    },
    {
        "id": "508713825836232",
        "location": {
            "city": "Phetchaburi",
            "country": "Thailand",
            "latitude": 13.40286777356,
            "longitude": 100.0105282479
        },
        "name": "กระเบื้องปูพื้น-บุผนัง Dynasty Tiletop"
    },
    {
        "id": "520098334675296",
        "location": {
            "city": "Lampang",
            "country": "Thailand",
            "latitude": 18.267968322581,
            "longitude": 99.469517548387
        },
        "name": "ไดนาสตี้/ไทล์ท้อป ตลาดนัดกระเบื้อง"
    }
]