[
    {
        "id": "1425950984316836",
        "location": {
            "city": "Ubon Ratchathani",
            "country": "Thailand",
            "latitude": 15.29552733,
            "longitude": 104.83749099
        },
        "name": "ร้านกระเบื้องไดนาสตี้ ไทล์ท้อป"
    },
    {
        "id": "1429451340602023",
        "location": {
            "city": "Chonburi",
            "country": "Thailand",
            "latitude": 13.276802062988,
            "longitude": 100.9592666626
        },
        "name": "เอ..รับเหมาก่อสร้าง รื้อ ถอน ปลูกใหม่ ปูกระเบื้อง ปาเก้"
    },
    {
        "id": "1434591516848039",
        "location": {
            "city": "Chonburi",
            "country": "Thailand",
            "latitude": 13.39636,
            "longitude": 101.02069
        },
        "name": "ตลาดกระเบื้องปูบ้าน"
    },
    {
        "id": "1453802608187286",
        "location": {
            "city": "Hua Hin",
            "country": "Thailand",
            "latitude": 12.551538436789,
            "longitude": 99.94307943134
        },
        "name": "ไดนาสตี้ ไทด์ท้อป หัวหิน - กระเบื้อง"
    },
    {
        "id": "1463021103921732",
        "location": {
            "city": "YANG TAN",
            "latitude": 15.609435546088,
            "longitude": 100.12219217705
        },
        "name": "ตลาดนัดกระเบื้อง ไดนาสตี่ ไทล์ท้อป สาขา โกรกพระ"
    },
    {
        "id": "234680376724704",
        "location": {
            "latitude": 14.18543,
            "longitude": 100.61297,
            "street": "เอเอช 1"
        },
        "name": "ตลาดนัดกระเบื้อง ไดนาสตี้ ไทล์ท้อป"
    },
    {
        "id": "203217086495206",
        "location": {
            "city": "Loeng Nok Tha",
            "country": "Thailand",
            "latitude": 16.208905577675,
            "longitude": 104.55235216776
        },
        "name": "Dynasty. Tile Top (ไดนาสตี้ ไทล์ท้อป) ตลาดนัดกระเบื้อง"
    },
    {
        "about": "รับบริการและดูหน้างานเองตลอด แค่คุณติดต่อและใช้บริการ",
        "id": "213674675460436",
        "location": {
            "city": "Udon Thani",
            "country": "Thailand",
            "latitude": 17.39122,
            "longitude": 102.77796,
            "street": "313 ม.10 บ้านกลิ้งคำ ต.บ้านจั่น อ.เมือง จ.อุดรธานี 41000",
            "zip": "41000"
        },
        "name": "รับปูกระเบื้องทุกชนิด \u0026 งานฝ้าทุกชนิด",
        "phone": "085-6467883 "
    },
    {
        "id": "216708988456996",
        "location": {
            "city": "Tha Sen",
            "country": "Thailand",
            "latitude": 13.04391,
            "longitude": 99.936628,
            "zip": "76150"
        },
        "name": "ไดนาสตี้ ไทล์ท้อป ตลาดกระเบื้องดังของไท"
    },
    {
        "id": "224123031025904",
        "location": {
            "city": "Bangkok",
            "country": "Thailand",
            "latitude": 13.906265731061,
            "longitude": 100.67046368327,
            "zip": "10220"
        },
        "name": "ตลาดนัดกระเบื้องไทท้อป สุขาภิบาล5"
    },
    {
        "id": "225871150900506",
        "location": {
            "city": "Loeng Nok Tha",
            "country": "Thailand",
            "latitude": 16.20617,
            "longitude": 104.54902
        },
        "name": "ตลาดนัดกระเบื้องไดนาสตี้้ ไทล์ท้อปสาขาเลิงนกทา"
    },
    {
        "id": "226976420798277",
        "location": {
            "city": "Pattani",
            "country": "Thailand",
            "latitude": 6.8669091103966,
            "longitude": 101.26255444562
        },
        "name": "ตลาดนัดกระเบื้องปูพื้น บุผนัง ปัตตานี"
    },
    {
        "id": "234074430080092",
        "location": {
            "city": "Chiang Mai",
            "country": "Thailand",
            "latitude": 18.94150489,
            "longitude": 98.94341796
        },
        "name": "ตลาดนัดกระเบื้อง ไดนาสตี้ ไทล์ท้อป"
    },
    {
        "id": "234082263416330",
        "location": {
            "city": "Nai Mueang",
            "latitude": 18.647641,
            "longitude": 99.083951
        },
        "name": "ไดนาสตี้ ไทล์ท้อป - ตลาดนัดกระเบื้อง ลำพูน"
    },
    {
        "id": "196119513855585",
        "location": {
            "city": "Amphoe Koh Sa-mui",
            "country": "Thailand",
            "latitude": 9.5777135063052,
            "longitude": 99.976313570607
        },
        "name": "ตลาดนัด กระเบื้อง ไดนาสตี้ ไทล์ท้อป"
    },
    {
        "id": "245096632357496",
        "location": {
            "city": "Bangkok",
            "country": "Thailand",
            "latitude": 13.739592759983,
            "longitude": 100.32977190993
        },
        "name": "สายสี่สุขภัณฑ์ กระเบื้องปูพื้นและบุผนัง"
    },
    {
        "id": "250654718390579",
        "location": {
            "city": "Wangsabhung",
            "country": "Thailand",
            "latitude": 17.297268,
            "longitude": 101.778849
        },
        "name": "ไดนาสตี้ กระเบื้องปูพื้น อ.วังสะพุง"
    },
    {
        "id": "254177891418870",
        "location": {
            "latitude": 14.0471164,
            "longitude": 100.7866293
        },
        "name": "โรงงานผลิตกระเบื้องยางปูพื้น Dynoflex"
    },
    {
        "id": "256162731249751",
        "location": {
            "city": "Pak Nam Pho",
            "country": "Thailand",
            "latitude": 15.69065,
            "longitude": 100.11414,
            "street": "สลกบาตร"
        },
        "name": "ตลาดนัดกระเบื้อง ไดนาสตี้ไทล์ท้อป สาขาสลกบาตร",
        "phone": "055772063"
    },
    {
        "id": "257065434410164",
        "location": {
            "latitude": 13.530768654184,
            "longitude": 99.638587676543
        },
        "name": "ตลาดนัดกระเบื้องไดนาสตี้ไทล์ท้อป สาขาถนนพระราม 2 กม. 18"
    },
    {
        "id": "261295204009050",
        "location": {
            "city": "Saraburi",
            "country": "Thailand",
            "latitude": 14.53137,
            "longitude": 100.91184,
            "street": "สระบุรี โคกแย้"
        },
        "name": "ตลาดนัดกระเบื้องไดยาสตี้ ไทล์ท้อป",
        "phone": "0817017445"
    },
    {
        "id": "275664745844658",
        "location": {
            "latitude": 14.100247287286,
            "longitude": 101.37146230439
        },
        "name": "ร้านกระเบื้องไดนาสตี้ไทล์ท้อป"
    },
    {
        "id": "281103711989299",
        "location": {
            "city": "Bangkok",
            "country": "Thailand",
            "latitude": 13.714715493425,
            "longitude": 100.81097916251,
            "zip": "10520"
        },
        "name": "ตลาดนัด กระเบื้องปูพื้น - บุผนัง"
    },
    {
        "id": "108976879442281",
        "location": {
            "city": "Khon Kaen",
            "country": "Thailand",
            "latitude": 16.4113407,
            "longitude": 102.8298035,
            "street": "99/182ถ.เหล่านาดี ต.ในเมือง อ.เมือง จ.ขอนแก่น",
            "zip": "40000"
        },
        "name": "ช่างตุ้ยต่อเติม ปูกระเบื้อง",
        "phone": "0843594590"
    },
    {
        "id": "257993617716079",
        "location": {
            "city": "Amphoe Muang Prachin Buri",
            "country": "Thailand",
            "latitude": 14.099640550154,
            "longitude": 101.37026127171,
            "street": "หน้าโรงแรมวรรณิดา การ์เด้น รีสอร์ท(ตรงข้ามโรงกระเบื้อง ไดนาสตี้ ไทล์ท้อป)ไฟแดงถนนต่ำ"
        },
        "name": "ครัวทวีทรัพย์",
        "phone": "0817709348"
    }
]