[
    {
        "id": "754447957937117",
        "location": {
            "city": "สุรินทร์",
            "latitude": 15.3374418,
            "longitude": 103.2808823,
            "street": "155/9 หมู่ 1 ต.กระเบื้อง อ.ชุมพลบุรี จ.สุรินทร์ 32190"
        },
        "name": "ร้าน ช่างปื๊ดมอเตอร์แอร์",
        "phone": "0934503178"
    },
    {
        "id": "764108616955873",
        "location": {
            "latitude": 17.2430179,
            "longitude": 101.6885358
        },
        "name": "ตลาดนัดกระเบื้อง ไดนาสตี้ ไทล์ท้อป วังสะพุง"
    },
    {
        "id": "768274626616525",
        "location": {
            "city": "Ban Saen Chai Mai",
            "country": "Thailand",
            "latitude": 20.263833608102,
            "longitude": 99.850413290348
        },
        "name": "ร้านแต่งดี กระเบื้องปูพื้น มุงหลังคาดินเผาปั้นมือ อิฐโบราณ"
    },
    {
        "id": "774818219223272",
        "location": {
            "city": "Rayong",
            "country": "Thailand",
            "latitude": 12.76532848,
            "longitude": 101.2914351
        },
        "name": "ไดนาสตี้ ไทล์ท้อป ตลาดนัดกระเบื้อง ระยอง",
        "phone": "038642636"
    },
    {
        "id": "795899467171418",
        "location": {
            "latitude": 10.698525,
            "longitude": 99.083312
        },
        "name": "คฤหาสน์ใจกลางเมืองนิคมซ.11 ที่พื้นบ้านปูกระเบื้องเป็นย่อมๆ"
    },
    {
        "id": "799022076806609",
        "location": {
            "city": "Na Klang",
            "country": "Thailand",
            "latitude": 17.328570051829,
            "longitude": 102.06682886928
        },
        "name": "ห้อง 323 โรงเรียนมัธยมไฮโซชื่อดังที่ปูกระเบื้องบริเวณทางเดิน"
    },
    {
        "id": "679616288802388",
        "location": {
            "city": "Bua Khao",
            "country": "Thailand",
            "latitude": 16.530676966575,
            "longitude": 104.04185403138
        },
        "name": "ร้านกาแฟ ติด รพ. สุดหรู ที่ปูกระเบื้องด้วย เพชรพลอย"
    },
    {
        "id": "815900828461519",
        "location": {
            "city": "Muang Uthai Thani",
            "country": "Thailand",
            "latitude": 15.400735195379,
            "longitude": 100.03271191411,
            "zip": "61000"
        },
        "name": "โรงเรียนมัธยมไฮโซชื่อดังย่านสะแกกรัง ปูกระเบื้องทองคำตามทางเดิน"
    },
    {
        "id": "832058730198330",
        "location": {
            "city": "สุรินทร์",
            "latitude": 15.337441225,
            "longitude": 103.280823425,
            "street": "155/10 ม.1 ต.กระเบื้อง อ.ชุมพลบุรี จ.สุรินทร์"
        },
        "name": "ร้าน ปื๊ดมอเตอร์แอร์",
        "phone": "0934503178"
    },
    {
        "about": "รับปูกระเบื้อง ทุกรูปแบบ รับทำผนังหิน งานตกแต่งทุกรูปแบบ ",
        "description": "งานปูกระเบื้องต่อเติมตกแต่งบ้าน อาคาร บริการ พื้นที่ จังหวัดเชียงใหม่ และพะเยา สามารถติดต่อเราได้ทางโทรศัพท์ 06-2039-0053 ไม่รับเงินล่วงหน้า ค่าแรงตกลงกันหน้างาน เพียงติดต่อเรามาทางทีมงาน จะเข้าไปประเมินที่หน้างาน (การจ่ายเงินที่หน้างาน) ",
        "id": "853285851418193",
        "location": {
            "city": "Chun",
            "country": "Thailand",
            "latitude": 19.3,
            "longitude": 100.167,
            "street": "Phayao",
            "zip": "56150"
        },
        "name": "รับปูกระเบื้อง เชียงใหม่, พะเยา",
        "phone": "06-1313-9661"
    },
    {
        "id": "871278926259795",
        "location": {
            "city": "Nam Aum",
            "country": "Thailand",
            "latitude": 14.665460665225,
            "longitude": 104.65315219856,
            "street": "กันทรลักษ์"
        },
        "name": "ไดนาสตี้ ไทล์ท้อป กระเบื้องดังของไทย"
    },
    {
        "id": "875124192502076",
        "location": {
            "city": "Phetchaburi",
            "country": "Thailand",
            "latitude": 13.05878589494,
            "longitude": 99.944533345745,
            "zip": "76150"
        },
        "name": "ตลาดนัดกระเบื้องดังของไทย \"ไดนาสตี้ ไทล์ท้อป\""
    },
    {
        "id": "898591790153111",
        "location": {
            "city": "Nakhon Pathom",
            "country": "Thailand",
            "latitude": 13.80087219,
            "longitude": 100.01654833
        },
        "name": "ฐานทัพหรูที่พื้นปูด้วยกระเบื้องทองคำ"
    },
    {
        "id": "919597428103744",
        "location": {
            "latitude": 17.620409606025,
            "longitude": 100.12465054169
        },
        "name": "ไดนาตี้ ไทล์ท้อป กระเบื้องดังของไทย"
    },
    {
        "id": "563395333769294",
        "location": {
            "city": "Don Krabueang",
            "latitude": 13.753036499023,
            "longitude": 99.923812866211,
            "street": "ดอนกระเบื้องโพธาราม"
        },
        "name": "บ้านคุณปู่คุณย่า\""
    },
    {
        "id": "570483759720804",
        "location": {
            "latitude": 13.788197858265,
            "longitude": 99.968987032771
        },
        "name": "ไดนาสตี้ ไทล์ท้อป - ตลาดนัดกระเบื้อง สาขาสระกะเทียม"
    },
    {
        "id": "574018465956492",
        "location": {
            "city": "Thang Kwian",
            "country": "Thailand",
            "latitude": 12.781800180686,
            "longitude": 101.69573930102,
            "zip": "21110"
        },
        "name": "ร้านขายกระเบื้องปูพื้น."
    },
    {
        "id": "597028757061734",
        "location": {
            "city": "Huai Khamin",
            "latitude": 14.4158558,
            "longitude": 100.892538
        },
        "name": "ตลาดนัดกระเบื้องไดนาสตี้ ไทล์ท้อป สาขาหินกอง"
    },
    {
        "id": "611329332225545",
        "location": {
            "city": "Saraburi",
            "country": "Thailand",
            "latitude": 14.53137,
            "longitude": 100.91184,
            "street": "สระบุรี"
        },
        "name": "ตลาดนัดกระเบื้องไดนาสตี้ ไทล์ท้อป",
        "phone": "036263633"
    },
    {
        "id": "620191364792410",
        "location": {
            "city": "BAN NGIO",
            "latitude": 14.07339076,
            "longitude": 100.53636797
        },
        "name": "บ้านหลังหนึ่งที่ปูกระเบื้องสีไข่รอบบ้านมีลูกสาว2คนสวยมาก"
    },
    {
        "id": "935310409815916",
        "location": {
            "city": "Bangkok",
            "country": "Thailand",
            "latitude": 13.714705,
            "longitude": 100.81092833333
        },
        "name": "ตลาดนัดกระเบื้องไดนาสตี้ไทล์ท้อปสาขาลาดกระบัง"
    },
    {
        "id": "660453017354958",
        "location": {
            "city": "Ban Chang",
            "country": "Thailand",
            "latitude": 12.735554062896,
            "longitude": 101.07616785138,
            "zip": "21130"
        },
        "name": "ตลาดนัดกระเบื้อง ไดนาสตี้ ไทล์ท้อป"
    },
    {
        "id": "665610310234410",
        "location": {
            "latitude": 14.9355144,
            "longitude": 103.7810556
        },
        "name": "ไดนาสตี้ ไทล์ท้อป ตลาดนัดกระเบื้อง ศรีขรภูมิ"
    },
    {
        "id": "674887895940114",
        "location": {
            "city": "Ratchaburi",
            "country": "Thailand",
            "latitude": 13.545454025269,
            "longitude": 99.837913513184
        },
        "name": "กระท่อมปูกระเบื้อง"
    },
    {
        "about": "ต่อเติม-ซ่อมแซม งานเหล็ก ปูกระเบื้อง ทาสี งานไฟฟ้าอื่นๆ",
        "id": "951058904941959",
        "location": {
            "city": "Bangkok",
            "country": "Thailand",
            "latitude": 13.78088,
            "longitude": 100.5226212,
            "street": "131 ซอยฉลองกรุง ถนนพระราม4มหาพฤฒาราม เขตบางรัก",
            "zip": "10500"
        },
        "name": "ปูกระเบื้อง  ทาสี ต่อเติมบ้าน",
        "phone": "0804076960"
    }
]