[
    {
        "id": "595503687144983",
        "location": {
            "city": "Udon Thani",
            "country": "Thailand",
            "latitude": 17.353706672272,
            "longitude": 102.82238261045,
            "zip": "41000"
        },
        "name": "ตลาดนัดกระเบื้อง ไดนาสตี้ไทล์ท้อป สาขาอุดรฯขอนแก่น"
    },
    {
        "id": "114549085348632",
        "location": {
            "city": "Bangkok",
            "country": "Thailand",
            "latitude": 13.646718327698,
            "longitude": 100.63828230046
        },
        "name": "ไดนาสตี้ ไทล์ท็อป กระเบื้องปูพื้น"
    },
    {
        "id": "684443921624619",
        "location": {
            "city": "PHROMMANI",
            "latitude": 14.2168325,
            "longitude": 101.19623407
        },
        "name": "โรงกระเบื้องไดนาสตี้ ไทล์ท้อป สาขานครนายก"
    },
    {
        "id": "505159129552543",
        "location": {
            "city": "Wangsabhung",
            "country": "Thailand",
            "latitude": 17.305992007746,
            "longitude": 101.77755040163,
            "zip": "42130"
        },
        "name": "ไดนาสตี้ ไทล์ท้อป ตลาดนัด กระเบื้อง ปูพื้นบุผนัง วังสะพุง"
    },
    {
        "about": "ช่างกอล์ฟ งานปูกระเบื้องพื้น ผนัง เคาน์เตอร์คร้ัว ",
        "id": "620082694737268",
        "location": {
            "city": "Chonburi",
            "country": "Thailand",
            "latitude": 13.3068399,
            "longitude": 100.9616089,
            "street": "สัตหีบ",
            "zip": "20182"
        },
        "name": "ช่างกอล์ฟรับเหมา ปูกระเบื้อง หินอ่อนหินแกรนิต เคาน์เตอร์  รับประกันคุณภาพ",
        "phone": "0911719058"
    },
    {
        "id": "651511154909159",
        "location": {
            "city": "Sawang Daen Din",
            "country": "Thailand",
            "latitude": 17.469942,
            "longitude": 103.483741,
            "zip": "47110"
        },
        "name": "ร้านกระเบื้องไดนาสตี้ไทล์ท้อปสาขาสว่าง"
    },
    {
        "id": "117771965098053",
        "location": {
            "city": "Bangkok",
            "country": "Thailand",
            "latitude": 13.81362,
            "longitude": 100.18295,
            "street": "ถนนเชียงใหม่ - ลำปาง",
            "zip": "73120"
        },
        "name": "ไดนาสตี้ ไทล์ท้อป (ตลาดนัดกระเบื้อง) นครปฐม"
    },
    {
        "description": "ร้อน",
        "id": "521674971275813",
        "location": {
            "city": "Kalasin",
            "country": "Thailand",
            "latitude": 16.43926349,
            "longitude": 103.51843813,
            "zip": "46000"
        },
        "name": "ไดนาสตี้กระเบื้องปูพื้นกาฬสิน"
    },
    {
        "id": "287942704640518",
        "location": {
            "city": "Chantaburi",
            "country": "Thailand",
            "latitude": 12.623159626115,
            "longitude": 102.07858795777
        },
        "name": "ตลาดนัดกระเบื้อง ไดนาสตี้ ไทล์ท้อป"
    },
    {
        "about": "รับงานต่อเติมบ้าน สร้างบ้าน ปูกระเบื้อง ทำหลังคาโรงรถ ราคาถูกที่สุด",
        "id": "1569084083334869",
        "location": {
            "city": "Bangkok",
            "country": "Thailand",
            "latitude": 13.82676,
            "longitude": 100.56398,
            "street": "จตุจักร",
            "zip": "10900"
        },
        "name": "ต่อเติมบ้าน หลังคาโรงรถ หลังคาเมทัลชีท ต่อเติมครัว ปูกระเบื้อง",
        "phone": "0830469502"
    },
    {
        "id": "1442586709295877",
        "location": {
            "city": "Sa Kaeo",
            "country": "Thailand",
            "latitude": 13.848067993128,
            "longitude": 102.03660699852,
            "zip": "27000"
        },
        "name": "กระเบื้อง ไดนาสตี้ ไทล์ท้อป สระแก้ว"
    },
    {
        "id": "326797260798388",
        "location": {
            "city": "Amnat Charoen",
            "country": "Thailand",
            "latitude": 15.877325744043,
            "longitude": 104.62509627692,
            "zip": "37000"
        },
        "name": "ตลาดนัดกระเบื้องไดนาสตี้ ไทล์ท้อปสาขาอำนาจเจริญ"
    },
    {
        "id": "202216346606628",
        "location": {
            "city": "Chonburi",
            "country": "Thailand",
            "latitude": 13.417677061074,
            "longitude": 101.0777740705,
            "zip": "20160"
        },
        "name": "ตลาดนัดกระเบื้องไดนาสตี้ไทล์ท้อป พนัสนิคม"
    },
    {
        "id": "309341182552824",
        "location": {
            "city": "Muang Lopburi",
            "country": "Thailand",
            "latitude": 14.7858177141,
            "longitude": 100.68050621691,
            "zip": "15000"
        },
        "name": "ไดนาสตี้  ไทล์ท้อป ตลาดนัดกระเบื้อง สาขาลพบุรี"
    },
    {
        "id": "232658780155155",
        "location": {
            "city": "Muang Lopburi",
            "country": "Thailand",
            "latitude": 14.785664520336,
            "longitude": 100.68064052432
        },
        "name": "ไดนาสตี้ ไทล์ท้อป กระเบื้องปูพื้น-บุผนัง"
    },
    {
        "id": "679981378775713",
        "location": {
            "city": "Bangkok",
            "country": "Thailand",
            "latitude": 15.03944,
            "longitude": 104.5797,
            "street": "ram2",
            "zip": "33130"
        },
        "name": "รับงาน ปูกระเบื้อง ต่อเติมบ้าน",
        "phone": "0877783354"
    },
    {
        "description": "30ถ.พหลโยธิน ต.ระแหง อเมือง จ.ตาก",
        "id": "211677942376551",
        "location": {
            "city": "Muang Tak",
            "country": "Thailand",
            "latitude": 16.86273097,
            "longitude": 99.13678518,
            "street": "(ไกล้อยู๋ติดกับjjธุระกิจ)",
            "zip": "63000"
        },
        "name": "ตลาดนัดกระเบื้องดัง ไดนาสตี้ ไทล์ท้อป"
    },
    {
        "about": "รับเหมาก่อสร้างทั่วไป",
        "id": "1376176842689398",
        "location": {
            "city": "Chachoengsao",
            "country": "Thailand",
            "latitude": 13.7,
            "longitude": 101.083
        },
        "name": "สิริวิมล  พูลสวัสดิ์  รับเหมาก่อสร้างทั่วไป ต่อเติมบ้าน ปูกระเบื้อง ฝ้า",
        "phone": "0961615877"
    },
    {
        "id": "158908217609017",
        "location": {
            "city": "Muang Roi Et",
            "country": "Thailand",
            "latitude": 16.0375984,
            "longitude": 103.6461628,
            "street": "232",
            "zip": "45000"
        },
        "name": "ไดนาสตี้ไทล์ท้อป ตลาดกระเบื้องร้อยเอ็ด",
        "phone": "43-519962"
    },
    {
        "about": "รู้จริงเรื่องกระเบื้องยาง",
        "id": "1581021422130720",
        "location": {
            "city": "Bangkok",
            "country": "Thailand",
            "latitude": 13.84211,
            "longitude": 100.86283,
            "street": "กทม",
            "zip": "10530"
        },
        "name": "รับปูกระเบื้องยางทุกสถานที่",
        "phone": "0985216086"
    },
    {
        "id": "1584293728454463",
        "location": {
            "city": "Bangkok",
            "country": "Thailand",
            "latitude": 13.72412,
            "longitude": 100.52845,
            "street": "86 hatairaj15 minburi",
            "zip": "10500"
        },
        "name": "รับเหมาปูกระเบื้องทั่วไทย - รับงานด่วน",
        "phone": "0814384057"
    },
    {
        "id": "603138596479060",
        "location": {
            "city": "Amphoe Bang Lamung",
            "country": "Thailand",
            "latitude": 12.92902,
            "longitude": 100.97929,
            "street": "103/2 ม.4 ถ.หนองสะเดา",
            "zip": "20150"
        },
        "name": "รับงานต่อเติมบ้าน หลังบ้าน ครัว หลังคา รั้วบ้าน ปูกระเบื้อง โรงจอดรถ",
        "phone": "0853512955"
    },
    {
        "id": "787454764645412",
        "location": {
            "city": "Krachan",
            "country": "Thailand",
            "latitude": 14.388706519999,
            "longitude": 99.9242954,
            "zip": "72160"
        },
        "name": "ไดนาสตี้ ไทล์ท้อป - ตลาดนัดกระเบื้องสาขาอู่ทอง"
    },
    {
        "id": "518189914980414",
        "location": {
            "city": "Bangkok",
            "country": "Thailand",
            "latitude": 14.18527558,
            "longitude": 100.614511595
        },
        "name": "ร้านกระเบื้อง ไดนาสตี้ ไทล์ท้อป สาขาบางปะอิน"
    },
    {
        "id": "581242315349683",
        "location": {
            "city": "Khon Kaen",
            "country": "Thailand",
            "latitude": 16.4333,
            "longitude": 102.833,
            "street": "หมู่บ้านเอื้ออาทรขอนแก่น(บ้านเป็ด1)",
            "zip": "40000"
        },
        "name": "กฤต รับปูกระเบื้อง ต่อเติมบ้าน กันสาด ประตูเหล็ก",
        "phone": "0984717913"
    }
]