[
    {
        "id": "851413104954576",
        "location": {
            "city": "Rayong",
            "country": "Thailand",
            "latitude": 12.681834,
            "longitude": 101.167584
        },
        "name": "แคมป์พนักงาน บริษัทแห่งหนึ่ง ที่มีช่างปูใส่บ๊อกเซอร์สีชมพูเป็นพรีเซอร์เตอร์"
    },
    {
        "id": "598723163606064",
        "location": {
            "city": "Bangkok",
            "country": "Thailand",
            "latitude": 13.70426,
            "longitude": 100.40088,
            "street": "71/88 ม1 บางแค บางแค",
            "zip": "10160"
        },
        "name": "รับติดตั้งฝ้าเพดานทุกชนิด และ ปูกระเบื้องพื้น ฝาผนัง โดยช่างมืออาชีพ",
        "phone": "0925198938"
    },
    {
        "id": "182817981764810",
        "location": {
            "city": "Songkhla",
            "country": "Thailand",
            "latitude": 7.1397531599365,
            "longitude": 100.62139417622,
            "street": "179 ม.5 ถ.สงขลา-นาทวี ต.เขารูปช้าง อ.เมือง",
            "zip": "90000"
        },
        "name": "ค่ายพระปกเกล้า ป.พัน.5 สงขลา",
        "phone": "074-336-041"
    },
    {
        "id": "327924517304875",
        "location": {
            "city": "Songkhla",
            "country": "Thailand",
            "latitude": 7.1401273889877,
            "longitude": 100.62172395104,
            "street": "ถ.สงขลา-นาทวี ต.เขารูปช้าง อ.เมืองสงขลา",
            "zip": "90000"
        },
        "name": "ป.พัน.5 (กองพันทหารปืนใหญ่ที่ 5)"
    },
    {
        "id": "1472969179697195",
        "location": {
            "city": "Pathum Thani",
            "country": "Thailand",
            "latitude": 14.0167,
            "longitude": 100.533,
            "street": "ธัญบุรี"
        },
        "name": "ช่าง ณัฐพล ปาร์เก้ รับ ปู ขัด ทา พื้นไม้ทุกชนิด0621139514",
        "phone": "0621139514"
    },
    {
        "id": "1867545506719990",
        "location": {
            "latitude": 15.870032,
            "longitude": 100.992541
        },
        "name": "หอพักพนักงานเซลทารา เกาะช้าง ทรอปิคาน่า"
    },
    {
        "id": "1496667103946450",
        "location": {
            "city": "Bangkok",
            "country": "Thailand",
            "latitude": 13.7185414,
            "longitude": 100.5485241
        },
        "name": "ตำหนักเจ้าปู่กรกรตหารศึกเจ้าปู่ศรีกุมพันธุ์เจ้าเมืองเวียงจันทร์ล้านช้าง"
    },
    {
        "id": "1485757308410916",
        "location": {
            "city": "Chaiyaphum",
            "country": "Thailand",
            "latitude": 15.820322237869,
            "longitude": 102.02832341194,
            "street": "สี่แยกทางไปน้ำตกตาดโตน เยื้องปั้มน้ำมัน ปตท โนนสมอ",
            "zip": "36000"
        },
        "name": "จีระพันธ์ แอร์ - ช่างปุ๋ย",
        "phone": "089-4273685"
    },
    {
        "id": "1465620700377816",
        "location": {
            "latitude": 14.93167505,
            "longitude": 103.69832715
        },
        "name": "โรงเรียนบ้านช่างปี่ สำนักงานเขตพื้นที่การศึกษาประถมศึกษาสุรินทร์ เขต1"
    },
    {
        "id": "1464061023898068",
        "location": {
            "city": "Bangkok",
            "country": "Thailand",
            "latitude": 13.7188,
            "longitude": 100.56239,
            "street": "คลองเตย",
            "zip": "10110"
        },
        "name": "ช่างต้องปาร์เก้รับปูขัดทำสีพื้นไม้ทุกชนิด0805748738",
        "phone": "0805748738"
    },
    {
        "about": "ช่างปาร์เก้ ไผ่แดง 087-8104184 รับปูปาร์เก้ ขัดพื้นไม้ปาร์เก้ ลามิเนตและพื้นไม้อื่นๆ ทาสีไม้",
        "description": "รับปูปาร์เก้ รับขัดพื้นไม้ปาร์เก้ ลามิเนตและพื้นไม้อื่นๆ รับทาสีพื้นไม้พร้อมเคลือบเงา รับทั้งงาน บ้าน คอนโด หอพัก สำนักงาน สนามแบดมินตัน โดยช่างผู้ชำนาญการมากกว่า 10 ปี ในราคาเป็นกันเอง\n\nขัดพื้นพร้อมทาสีเคลือบเงาด้วยสีคุณภาพดีสีเบเยอร์ราคา 200 บาท/ตร.ม. \n\nสนใจโทรสอบถามได้ครับ 087-8104184 ช่างไผ่ (ไผ่แดง เตโพธิ์-ช่างปาร์เก้)",
        "id": "1405478693096832",
        "location": {
            "city": "Bangkok",
            "country": "Thailand",
            "latitude": 13.85247,
            "longitude": 100.73933,
            "street": "63/865 ซอย คลอง 9/7 แขวงสามวาตะวันออก  เขตคลองสามวา",
            "zip": "10510"
        },
        "name": "ช่างปาร์เก้ ไผ่แดง 087-8104184 รับงานปู ขัด ทาพื้นไม้ปาร์เก้",
        "phone": "087-8104184"
    },
    {
        "id": "1403025366583808",
        "location": {
            "city": "Bangkok",
            "country": "Thailand",
            "latitude": 13.686944763189,
            "longitude": 100.49273444349
        },
        "name": "ปพนภัค การช่าง"
    },
    {
        "id": "885581754802124",
        "location": {
            "city": "Bangkok",
            "country": "Thailand",
            "latitude": 13.859526634216,
            "longitude": 100.50503540039
        },
        "name": "แคมป์สวัสดิการพนักงาน ช.การช่าง"
    },
    {
        "id": "792928334155333",
        "location": {
            "city": "Bangkok",
            "country": "Thailand",
            "latitude": 13.7522,
            "longitude": 100.494,
            "street": "184ม.11ต.เมืองเพีย อ.บ้านไผ่ จ.ขอนแก่น",
            "zip": "40110"
        },
        "name": "ช่างต้อม รับปูปาร์เก้ รับขัดพื้นไม้ ทาสีไม้ รับติดตั้งงานบันไดไม้",
        "phone": "0992133595"
    },
    {
        "id": "667743263331167",
        "location": {
            "city": "Lamphun",
            "country": "Thailand",
            "latitude": 18.586388888889,
            "longitude": 99.011944444444
        },
        "name": "ปุ๊การช่างลำพูน"
    },
    {
        "id": "641152139318269",
        "location": {
            "city": "ลำพูน",
            "latitude": 18.636689128483,
            "longitude": 98.998532295227,
            "street": "ล่ามช้าง"
        },
        "name": "บ้านปี้ลูกตาล'ตะโหนด'"
    },
    {
        "id": "591826767565439",
        "location": {
            "city": "Chiang Mai",
            "country": "Thailand",
            "latitude": 18.846618966217,
            "longitude": 98.971060942951
        },
        "name": "อู่เพชรการช่าง หน้าป.พัน7 แม่ริม เชียงใหม่"
    },
    {
        "id": "586979724724023",
        "location": {
            "city": "Chonburi",
            "country": "Thailand",
            "latitude": 13.4128855,
            "longitude": 101.0456547,
            "zip": "20000"
        },
        "name": "ป. อุไรพันธ์ การช่าง"
    },
    {
        "id": "468616399899698",
        "location": {
            "city": "Chonburi",
            "country": "Thailand",
            "latitude": 13.414279290097,
            "longitude": 101.04504863935,
            "street": "Soi Ruampattana"
        },
        "name": "ป.อุไรพันธ์ การช่าง"
    },
    {
        "about": "080-9790838/0822355648",
        "id": "395556980551402",
        "location": {
            "city": "Muang Lopburi",
            "country": "Thailand",
            "latitude": 14.839325182277,
            "longitude": 100.62626068927,
            "street": "ป.พัน.31 รอ. ต.เขาพระงาม อ.เมือง",
            "zip": "15160"
        },
        "name": "Nolimit Shop By.ช่างโต๋ ลพบุรี",
        "phone": "080-9790838"
    },
    {
        "id": "323629007774502",
        "location": {
            "city": "Li",
            "country": "Thailand",
            "latitude": 17.7656848,
            "longitude": 98.984016,
            "zip": "51110"
        },
        "name": "บ้านช่างพัน..ม่วงสามปี"
    },
    {
        "id": "230251220338604",
        "location": {
            "city": "Phanom Sarakham",
            "country": "Thailand",
            "latitude": 13.753581865506,
            "longitude": 101.36894664762,
            "zip": "24120"
        },
        "name": "ร้านกาแฟดอยช้าง สาขาข้างปั้ม ป.ต.ท. พนมสารคาม"
    },
    {
        "id": "216294071898643",
        "location": {
            "city": "Amphoe U Thai",
            "country": "Thailand",
            "latitude": 14.303355370662,
            "longitude": 100.6896663365,
            "street": "วัดบ้านช้าง"
        },
        "name": "ตำหนักพ่อปู่ท้าวพันตา วัดบ้านช้าง"
    },
    {
        "id": "198309266918646",
        "location": {
            "city": "Bang Rakam",
            "country": "Thailand",
            "latitude": 16.727758108506,
            "longitude": 100.1794177419
        },
        "name": "หจก.ช่างพินิจปิโตเลียม"
    },
    {
        "id": "165805056918044",
        "location": {
            "city": "Bang Sai",
            "country": "Thailand",
            "latitude": 14.164149938164,
            "longitude": 100.51417350778
        },
        "name": "ศาลพ่อปู่ช้างพัน"
    }
]