[
    {
        "id": "145995752225040",
        "location": {
            "city": "Phanat Nikhom",
            "country": "Thailand",
            "latitude": 13.456565933315,
            "longitude": 101.18634648631,
            "zip": "20140"
        },
        "name": "ร้านท่อช่างป๊อบพนัส"
    },
    {
        "id": "767776389926568",
        "location": {
            "latitude": 17.95613,
            "longitude": 99.44909
        },
        "name": "แคมป์ช่างพินิจ"
    },
    {
        "id": "250216658336154",
        "location": {
            "city": "Chiang Mai",
            "country": "Thailand",
            "latitude": 18.8430038,
            "longitude": 98.9727588
        },
        "name": "กาแฟดอยช้างหน้าค่ายป.พัน7"
    },
    {
        "id": "517250194954601",
        "location": {
            "city": "Bangkok",
            "country": "Thailand",
            "latitude": 13.859525285,
            "longitude": 100.50549255,
            "zip": "11000"
        },
        "name": "แคมป์พนักงาน ช.การช่าง. รัตนาธิเบศร์ ซ. 13"
    },
    {
        "about": "รับเหมาปูพื้นไม้ปาร์เก้ขัดพื้นไม้ทุกชนิด สนใจติดต่อ 0878291825",
        "id": "1402088953375812",
        "location": {
            "city": "Amphoe Bangkok Noi",
            "country": "Thailand",
            "latitude": 13.70929,
            "longitude": 100.57095,
            "street": "สมุทรปราการ",
            "zip": "10110"
        },
        "name": "ช่างอุ้ม รับเหมาปูปาร์เก้ขัดพื้นไม้ทุกชนิด",
        "phone": "0878291825"
    },
    {
        "id": "274736509314286",
        "location": {
            "city": "Songkhla",
            "country": "Thailand",
            "latitude": 7.1510167962558,
            "longitude": 100.62171801379,
            "street": "ถ.สงขลา-นาทวี ต.เขารูปช้าง อ.เมืองสงขลา",
            "zip": "90000"
        },
        "name": "ตลาดสดค่ายพระปกเกล้า (ตลาดนัด ป.พัน.5)"
    },
    {
        "about": "ตกแต่งภายในบ้าน รับต่อเติม ซ่อมแซม",
        "id": "124057934605537",
        "location": {
            "city": "Bangkok",
            "country": "Thailand",
            "latitude": 13.6777401,
            "longitude": 100.5330429,
            "street": "1819/224 ซ.ปริยานนท์ ถ.พระราม3 แขวง บางโพงพาง เขต ยานนาวา กรุงเทพฯ 10120",
            "zip": "12120"
        },
        "name": "ช่างจรัลปาร์เก้ รับเหมา ปูปาร์เก้, ขัดพื้นไม้ทุกชนิด ,ทาสียูริเทน",
        "phone": "0852366478"
    },
    {
        "id": "1555940741288461",
        "location": {
            "city": "Chiang Mai",
            "country": "Thailand",
            "latitude": 18.45553,
            "longitude": 98.66098,
            "street": "จอมทอง",
            "zip": "50160"
        },
        "name": "ช่างสน รับขัดพื้นไม้ ปูปาร์เก้  เชียงใหม่",
        "phone": "0832751491"
    }
]