[
    {
        "about": "จำหน่ายอุปกรณ์แต่งรถ ซ่อมรถ โมดิฟาย รถมอเตอร์ไซค์",
        "id": "550065808437553",
        "location": {
            "city": "Yala",
            "country": "Thailand",
            "latitude": 6.5527405850566,
            "longitude": 101.28258714769,
            "street": "341 ถ.สิโรรส",
            "zip": "95000"
        },
        "name": "ชัยเจริญยนต์ ยะลา by ช่างโจ๊ก",
        "phone": "0836560366"
    },
    {
        "id": "138219102873756",
        "name": "ครูช่างยนต์"
    },
    {
        "id": "186136038092361",
        "name": "แผนกวิชาช่างยนต์"
    },
    {
        "id": "326424407526977",
        "location": {
            "city": "Phra Nakhon Si Ayutthaya",
            "country": "Thailand",
            "latitude": 14.34342,
            "longitude": 100.56622,
            "street": "Rattanachai garage car",
            "zip": "13000"
        },
        "name": "ป.เจริญการช่าง รัตนไชย อยุธยา \u0026 Boom อะไหล่ยนต์",
        "phone": "0917241728"
    },
    {
        "id": "167124213629166",
        "location": {
            "city": "Bangkok",
            "country": "Thailand",
            "latitude": 13.9211351,
            "longitude": 100.6626333
        },
        "name": "ร้านพานิทรเจริญเบาะยนต์ ช่างเดี่ยวสายไหม"
    },
    {
        "id": "375122119363732",
        "location": {
            "city": "Ban Fu",
            "country": "Thailand",
            "latitude": 17.6951529,
            "longitude": 102.4596954,
            "street": "อำเภอบ้านผือ"
        },
        "name": "ร้านช่างอ๊อฟเจริญยนต์ - มีแต่คนหล่อๆ"
    },
    {
        "id": "806191082805221",
        "location": {
            "city": "Nakhon Pathom",
            "country": "Thailand",
            "latitude": 13.82314,
            "longitude": 100.05728,
            "street": "เเผนกช่างยนต์"
        },
        "name": "วิทยาลัยเทคนิคชื่อดังเเห่งหนึ่งย่านนครปฐมที่มีนักเรียนดีเเละตีเก่ง"
    },
    {
        "id": "162486084093970",
        "location": {
            "city": "Amphoe Khukhan",
            "country": "Thailand",
            "street": "ศรีสะเกษ",
            "zip": "33140"
        },
        "name": "สมาคมช่างยนต์แห่งประเทศไทยเขตศรีสะเกษ",
        "phone": "0914707282"
    },
    {
        "id": "277944065623274",
        "location": {
            "latitude": 15.840741705841,
            "longitude": 101.12263319797,
            "street": "ร้าน ช่างเอก  ส.เจริญยนต์"
        },
        "name": "บ้านหนองแดง จ.เพชรบูรณ์"
    },
    {
        "about": "จำหน่ายเครื่องมือช่างและสินค้าประดับยนต์",
        "id": "761354783975539",
        "location": {
            "latitude": 13.6409197,
            "longitude": 100.4956436,
            "street": "จำหน่ายเครื่องมือช่างและสินค้าประดับยนต์"
        },
        "name": "สินค้าคลองถมเฮียชัยโรงกลึง"
    },
    {
        "id": "574686579236770",
        "location": {
            "city": "Phayao",
            "country": "Thailand",
            "latitude": 19.199809032075,
            "longitude": 99.887525402109,
            "zip": "56000"
        },
        "name": "แผนกช่างยนต์ วิทยาลัยเทคนิคพะเยา"
    },
    {
        "id": "174258499439713",
        "location": {
            "city": "Yasothon",
            "country": "Thailand",
            "latitude": 15.814225090698,
            "longitude": 104.12804103661,
            "zip": "35000"
        },
        "name": "แผนกช่างยนต์ วิทยาลัยเทคนิคยโสธร"
    },
    {
        "id": "529617093792962",
        "location": {
            "city": "Muang Buriram",
            "country": "Thailand",
            "latitude": 15.027323628236,
            "longitude": 103.14922269329,
            "street": "198/14 ม.2 ต.บ้านยาง อ.เมือง จ.บุรีรัมย์",
            "zip": "31000"
        },
        "name": "อู่ช่างบิ๊กเจริญยนต์ บุรีรัมย์",
        "phone": "0821857325"
    },
    {
        "id": "233044993395935",
        "location": {
            "city": "Bangkok",
            "country": "Thailand",
            "latitude": 13.829449769945,
            "longitude": 100.57443665617,
            "zip": "10900"
        },
        "name": "ตึกช่างยนต์  โรงเรียนช่างฝีมือทหาร"
    },
    {
        "id": "188752617974026",
        "location": {
            "city": "Phitsanulok",
            "country": "Thailand",
            "latitude": 16.811790481804,
            "longitude": 100.27207318786,
            "street": "เลขที่2 ถนนสนามบิน ต.ในเมือง อ.เมือง จ.พิษณุโลก",
            "zip": "65000"
        },
        "name": "แผนกช่างยนต์-วิทยาลัยเทคนิคพิษณุโลก"
    },
    {
        "id": "307274672707556",
        "location": {
            "city": "Napa",
            "country": "Thailand",
            "latitude": 13.290145524313,
            "longitude": 101.16511365227
        },
        "name": "แผนกช่างยนต์ วิทยาลัยเทคนิคชลบุรี"
    },
    {
        "id": "388213194536807",
        "location": {
            "city": "Nakhon Ratchasima",
            "country": "Thailand",
            "latitude": 14.989218414599,
            "longitude": 102.12157572721,
            "zip": "30000"
        },
        "name": "แผนกช่างยนต์"
    },
    {
        "id": "462716420459369",
        "location": {
            "city": "Sisakate",
            "country": "Thailand",
            "latitude": 15.111078651226,
            "longitude": 104.3204474182,
            "zip": "33000"
        },
        "name": "แผนกช่างยนต์ วิทยาลัยเทคนิคศรีสะเกษ"
    },
    {
        "id": "256698681021765",
        "location": {
            "city": "Bangkok",
            "country": "Thailand",
            "latitude": 14.02081267876,
            "longitude": 100.53968968077,
            "zip": "12000"
        },
        "name": "แผนกช่างยนต์ วิทยาลัยเทคนิคปทุมธานี"
    },
    {
        "id": "716603175025666",
        "location": {
            "city": "Uthai Thani",
            "country": "Thailand",
            "latitude": 15.36803076475,
            "longitude": 100.04344617804,
            "zip": "61000"
        },
        "name": "แผนกช่างยนต์ วิทยาลัยเทคนิคอุทัยธานี"
    },
    {
        "id": "292432634205314",
        "location": {
            "city": "Muang Surin",
            "country": "Thailand",
            "latitude": 14.877339062051,
            "longitude": 103.50161612654,
            "street": "346   ถ.หลักเมือง",
            "zip": "32000"
        },
        "name": "แผนกช่างยนต์  เทคนิคสุรินทร์"
    },
    {
        "id": "534424763242990",
        "location": {
            "city": "Kamphaeng Phet",
            "country": "Thailand",
            "latitude": 16.486426443933,
            "longitude": 99.527854583922,
            "zip": "62000"
        },
        "name": "แผนกช่างยนต์ วิทยาลัยเทคนิคกำแพงเพชร"
    },
    {
        "about": "ช่างยนต์บางปู ยินดีต้อนรับทุกท่าน ...\n(แอดมินทุกคนกรุณาลงชื่อหลังข้อความทุกครั้ง)",
        "id": "515019845217835",
        "name": "ช่างยนต์ บางปู"
    },
    {
        "about": "ศูนย์ร่วมข่าวสารข้อมูลและศิทย์เก่าและใหม่ แผนกวิชาช่างยนต์ วิทยาลัยเทคนิคกำแพงเพชร ",
        "emails": [
            "gulsing1@hotmail.com"
        ],
        "id": "407349289368894",
        "location": {
            "city": "เมืองกำแพงเพชร",
            "street": "วิทยาลัยเทคนิคกำแพงเพชร",
            "zip": "กำแพงเพชร"
        },
        "name": "ช่างยนต์ วิทยาลัยเทคนิคกำแพงเพชร"
    },
    {
        "about": "มันคือมิตรภาพ",
        "id": "810781585623468",
        "name": "ช่าง ยนต์ เทวดา"
    }
]