[
    {
        "about": "สาขางานยานยนต์ วิทยาลัยเทคโนโลยีโปลิเทคนิคลานนา เชียงใหม่",
        "id": "243289589057682",
        "name": "ช่างยนต์โปลิ"
    },
    {
        "about": "ตัวแทนจำหน่ายอุปกรณ์ช่างรถยนต์ทุกชนิด โทร.0851251099",
        "description": "ตัวแทนจำหน่ายอุปกรณ์ช่างรถยนต์ทุกชนิด www.psvhitech.com\nโทร.085-125-1099,02-968-1549,02-9681557\nFax.02-525-0517\nE-mail:psv2003@gmail.com",
        "emails": [
            "psv2003@gmail.com"
        ],
        "id": "1434555566796124",
        "location": {
            "city": "เมือง",
            "street": "23 ถ.นนทบุรี ต.ท่าทราย จ.นนทบุรี",
            "zip": "11000"
        },
        "name": "อุปกรณ์เครื่องมือช่างยนต์ บจก.พี เอส วี ไฮเทค เซ็นเตอร์",
        "phone": "0851251099"
    },
    {
        "about": "เครื่องเสียงรถยนต์ รับติดตั้งเทอร์โบ ",
        "id": "319928124878201",
        "location": {
            "city": "Bangkok",
            "country": "Thailand",
            "latitude": 13.75395,
            "longitude": 100.50224,
            "street": "10 หมู่ 10 บ้านสันสลีก ต.เม็งราย อ. พญาเม็งราย จ.เชียงราย",
            "zip": "57290"
        },
        "name": "อ.เจริญยนต์รวมช่าง",
        "phone": "0871878263"
    },
    {
        "id": "164567066926667",
        "name": "ช่างยนต์เทวดา"
    },
    {
        "id": "171262282922049",
        "name": "ช่างยนต์(ปวส)"
    },
    {
        "about": "แผนกช่างยนต์",
        "description": " ข้อมูลเกี่ยวกับแผนกวิชาเครื่องกล\n\n1.1  ประวัติแผนกเครื่องกล\nแผนกเครื่องกลหรือแผนกช่างยนต์ในอดีต ก่อตั้งเมื่อ พ.ศ. 2498 ซึ่งโรงฝึกงานแผนกช่างยนต์ สร้างปี พ.ศ. 2511 มีพื้นที่ 701 ตารางเมตร  \n\nพ.ศ. 2536เปิดสอนหลักสูตร ปทส.สาขาเครื่องกล วิชาเอกเทคนิคยานยนต์\nพ.ศ.2538เปิดสอนระบบทวิภาคีและระบบสะสมหน่วยกิตในระดับ ปวช.ระบบทวิภาคี      เปิดสอน แผนกวิชาช่างยนต์\n\nพ.ศ. 2540เปิดสอนภาคสมทบ ระดับ ปวช. และ ปวส.\nพ.ศ. 2541เปิดสอนระดับ ปวส. จาก ม.6วิชาช่างยนต์\nพ.ศ. 2543เปิดสอนระดับ ปวส. สายตรงเรียนระบบทวิภาคี แผนกช่างยนต์\n\n1.2  ขนาดและที่ตั้ง\nปัจจุบันแผนกเครื่องกลตั้งอยู่ภายใน วิทยาลัยเทคนิคอุบลราชธานี  ตั้งอยู่เลขที่ 5ถนนแจ้งสนิท\n\nตำบลในเมือง อำเภอเมือง จังหวัดอุบลราชธานี 34000 หมายเลขโทรศัพท์ (045) 255047 ต่อ  http://www.eutc.utc.ac.th\n\n \n\nด้านทิศเหนือ ติดกับแผนกวิชาโยธา\n\nทิศใต้ ติดกับแผนกวิชาช่างก่อสร้าง\n\nทิศตะวันออก ติดกับแผนกวิชาช่างกลโรงงาน\n\nทิศตะวันตก ติดกับบ้านพักครู\n\n \n\n    รายละเอียดเกี่ยวกับอาคารสิ่งปลูกสร้าง\nห้องพักครู 1 หลัง\nอาคารเรียนและปฏิบัติการ 2 ชั้น 1 หลัง (หลังเก่า)\nอาคารเรียนและปฏิบัติการ 2 ชั้น 1 หลัง (หลังใหม่)\nอาคารเรียนและปฏิบัติการ 1 ชั้น 1 หลัง\nห้องประชุม คือห้องโสตแผนก ชั้น 2 อาคารใหม่\n \n    รายละเอียดห้องเรียน\n1.   ห้องเทคโนโลยีชั้นสูง 1 ห้อง\n2.   ห้องทดสอบเครื่องมือกล 1 ห้อง\n3.   ห้องเรียนไฮดรอลิกด์และนิวเมติกส์ 1 ห้อง\n4.   ห้องทดสอบปั้มและหัวฉีด\n5.   ห้องเรียนทฤษฏี 9 ห้อง",
        "id": "472055756233133",
        "name": "แผนกช่างยนต์  วิทยาลัยเทคนิคอุบลราชธานี"
    },
    {
        "about": "เปิดรับสมัครนักเรียนใหม่ แผนกช่างยนต์ทั้งระดับปวช.ปกติและปวส ปกติ ทวิภาคี",
        "id": "212482665560844",
        "location": {
            "city": "เมืองกระบี่",
            "street": "50/13 ถ.วัชระ ต.กระบี่ใหญ่ อ.เมือง จ.กระบี่",
            "zip": "81000"
        },
        "name": "แผนกช่างยนต์ วิทยาลัยการอาชีพสมเด็จเจ้าพะโคะ"
    },
    {
        "id": "543347592444650",
        "name": "เครื่องจักร เครื่องมือ อุปกรณ์ช่างยนต์ By \"KJH\"",
        "phone": "081-2997133"
    },
    {
        "about": "ศิษย์พระวิษณุกรรม",
        "id": "141581122709911",
        "name": "เด็กช่างยนต์ ข้าคือ\"บุตรพระวิษณุกรรม"
    },
    {
        "about": "พวกเรา นักศึกษาวิทยาลัยเทคนิคเดชอุดม ปวช.2/2 ช่างยนต์ รายงานตัวครับ ",
        "emails": [
            "www.artloveebola@gmail.com"
        ],
        "id": "935036349896092",
        "location": {
            "city": "Amphoe Det Udom",
            "country": "Thailand"
        },
        "name": "เด็กช่างยนต์ 2/2 วิทยาลัยเทคนิคเดชอุดม",
        "phone": "0900955654"
    },
    {
        "description": "ลงรูป inbox มา หรือ ฝากหน้าเฟสก้ได้ ทั้งศิษย์เก่า และ ปัจจุบันนน ช่างยนต์ เทคนิคนครปฐม",
        "id": "803285933026087",
        "location": {
            "city": "เมืองนครปฐม",
            "zip": "73000"
        },
        "name": "สมาคมช่างยนต์นครปฐม วท.นฐ."
    },
    {
        "id": "477887932225726",
        "name": "แผนกวิชาช่างยนต์  วิทยาลัยเทคนิคสุรินทร์"
    },
    {
        "about": "จงบินเอา  เท่าที่เราจะบินได้",
        "id": "1633515830267125",
        "name": "พ่อ'หนุ่มน้อย'ช่างยนต์56  วิทยาลัยเทคนิคศรีสะเกษ"
    },
    {
        "id": "361935777210583",
        "location": {
            "city": "Khonkean",
            "country": "Thailand",
            "latitude": 16.429561106111,
            "longitude": 102.86250982386,
            "zip": "40000"
        },
        "name": "แผนกช่างยนต์  ราชมงคลขอนแก่น"
    },
    {
        "id": "499419110181043",
        "location": {
            "city": "Sakon Nakhon",
            "country": "Thailand",
            "latitude": 17.194121941336,
            "longitude": 104.08831383696,
            "zip": "47000"
        },
        "name": "แผนกช่างยนต์ วิทยาลัยเทคนิคสกลนคร"
    },
    {
        "id": "433209480106419",
        "location": {
            "city": "Ubon Ratchathani",
            "country": "Thailand",
            "latitude": 15.232521760658,
            "longitude": 104.84714047649,
            "street": "Phalochai Road",
            "zip": "34000"
        },
        "name": "โรงกลึงช่างโหน่งเจริญยนต์"
    },
    {
        "id": "217683165035473",
        "location": {
            "city": "Mae Klong",
            "country": "Thailand",
            "latitude": 13.42064396617,
            "longitude": 100.01010658898,
            "zip": "75000"
        },
        "name": "แผนกช่างยนต์ วิทยาลัยเทคนิคสมุทรสงคราม"
    },
    {
        "id": "793541047404855",
        "location": {
            "city": "ไทย",
            "latitude": 18.48409155,
            "longitude": 98.876246,
            "street": "บ้านป่าสีเสียด ต.ท่าตุ้ม อ.ป่าซาง จ.ลำพูน"
        },
        "name": "อู่สมพงษ์การช่างยนต์",
        "phone": "0861916616"
    },
    {
        "id": "333816036805570",
        "location": {
            "city": "Rayong",
            "country": "Thailand",
            "latitude": 12.668568960526,
            "longitude": 101.31540125421,
            "street": "Rayong",
            "zip": "21000"
        },
        "name": "แผนกช่างยนต์ เทคโนไออาร์ฯ"
    },
    {
        "id": "247128901998833",
        "location": {
            "city": "Ban Dan Chang",
            "country": "Thailand",
            "latitude": 14.82616,
            "longitude": 99.69191,
            "street": "อู่ช่างโนชเจริญยนต์"
        },
        "name": "อำเภอด่านช้าง จังหวัดสุพรรณบุรี"
    },
    {
        "id": "490573017689692",
        "location": {
            "city": "Nong Khai",
            "country": "Thailand",
            "latitude": 17.870729585571,
            "longitude": 102.74717692263,
            "zip": "43000"
        },
        "name": "แผนก ช่างยนต์ วิทยาลัยเทคนิคหนองคาย"
    },
    {
        "id": "707210242678489",
        "location": {
            "city": "Amphoe Nakhon Chai Si",
            "country": "Thailand",
            "latitude": 13.902637892321,
            "longitude": 100.21395520625
        },
        "name": "แผนกช่างยนต์ วิทยาลัยการอาชีพบางแก้วฟ้า นครปฐม"
    },
    {
        "id": "517707791576898",
        "location": {
            "city": "Phrae",
            "country": "Thailand",
            "latitude": 18.135289793113,
            "longitude": 100.13445700224,
            "zip": "54000"
        },
        "name": "แผนกช่างยานยนต์วิทยาลัยเทคนิคแพร่"
    },
    {
        "about": "รถเสียหรือรถพัง ต้องการยกรถเราบริการได้่ตลอด 24ซ.ม หรือโทร 0931963339",
        "id": "771044406338209",
        "location": {
            "city": "Lampang",
            "country": "Thailand",
            "latitude": 18.2672806,
            "longitude": 99.5001297,
            "street": "121 บ้านแม่หลง หมู่1ตำบลวังพร้าว อำเภอเกาะคา จังหวัด ลำปาง",
            "zip": "52130"
        },
        "name": "อู่ช่างเบิร์ด คลีนิคยนต์",
        "phone": "0931963339"
    },
    {
        "about": "ช่างยนต์ เทคนิคนครสวรรค์",
        "id": "472413986139550",
        "location": {
            "city": "นครสวรรค์",
            "street": "แผนกเครื่องกล(ช่างยนต์)",
            "zip": "60000"
        },
        "name": "สมาคมเด็กช่างยนต์นครสวรรค์"
    }
]