[
    {
        "id": "354762017917939",
        "location": {
            "city": "Muang Lopburi",
            "country": "Thailand",
            "latitude": 14.800539537089,
            "longitude": 100.61946145519,
            "street": "เมืองลพบุรี",
            "zip": "15000"
        },
        "name": "ช่างยนต์ เทคนิคลพบุรี"
    },
    {
        "id": "528295400542687",
        "location": {
            "city": "Petchaburi",
            "country": "Thailand",
            "latitude": 13.091138555624,
            "longitude": 99.951459121704,
            "street": "115 ถ.บริพัตร  ต.ท่าราบ อ.เมือง",
            "zip": "76000"
        },
        "name": "ช่างยนต์ วิทยาลัยเทคนิคเพชรบุรี",
        "phone": "032-425432 ต่อ 115"
    },
    {
        "id": "264516656984228",
        "location": {
            "city": "Nakhon Ratchasima",
            "country": "Thailand",
            "latitude": 14.978420691296,
            "longitude": 102.08478731015,
            "zip": "30000"
        },
        "name": "แผนกช่างยนต์ วิทยาลัยเทคนิคนครราชสีมา"
    },
    {
        "id": "140311912731906",
        "location": {
            "city": "Ubon Ratchathani",
            "country": "Thailand",
            "latitude": 15.242433200373,
            "longitude": 104.84357753489,
            "zip": "34000"
        },
        "name": "แผนกช่างยนต์วิทยาลัยเทคนิคอุบล"
    },
    {
        "description": "เพจรวมพลคนไฟฟ้าวิทยาลัยเทคนิคสุพรรณบุรีอย่างเป็นทางการ",
        "id": "502275326515520",
        "location": {
            "city": "Suphan Buri",
            "country": "Thailand",
            "latitude": 14.472186279661,
            "longitude": 100.1123666683,
            "street": "วิทยาลัยเทคนิคสุพรรณบุรี",
            "zip": "72000"
        },
        "name": "แผนกช่างยนต์ - วิทยาลัย เทคนิคสุพรรณบุรี",
        "phone": "035522101"
    },
    {
        "id": "399189126803044",
        "location": {
            "city": "Chiang Mai",
            "country": "Thailand",
            "latitude": 18.791884466878,
            "longitude": 98.983746248796,
            "zip": "50200"
        },
        "name": "แผนก ช่างยนต์ ( วิทยาลัยเทคนิคเชียงใหม่ )"
    },
    {
        "id": "392821934110597",
        "location": {
            "city": "Ayutthaya",
            "country": "Thailand",
            "latitude": 14.359180434879,
            "longitude": 100.56307932014,
            "zip": "13000"
        },
        "name": "แผนกช่างยนต์ วิทยาลัยเทคนิคพระนครศรีอยุธยา"
    },
    {
        "id": "159314047469101",
        "location": {
            "city": "Hat Yai",
            "country": "Thailand",
            "latitude": 7.0344705861371,
            "longitude": 100.5047181534,
            "street": "Soi Rajsanti",
            "zip": "90110"
        },
        "name": "แผนกช่างยนต์วิทยาลัยเทคนิคหาดใหญ่"
    },
    {
        "about": "ขายเครื่องมือช่าง อุปกรณ์ช่าง ชุดเครื่องมือช่างพื้นฐาน ช่างยนต์ ช่างไฟฟ้า สว่าน บล๊อกลม",
        "description": "ขายเครื่องมือช่าง อุปกรณ์ช่าง ชุดเครื่องมือช่างพื้นฐาน ช่างยนต์ ช่างไฟฟ้า สว่านไฟฟ้า ดอกสว่าน ประแจแหวน ปากตาย เลื่อย ชุดไขควง เจียรไฟฟ้า บล็อกลม บ๊อก คีม คู้เครื่องมือ กระเป๋าเครื่องมือ เครื่องมือก่อสร้าง bosch, makita, fion star, koche', niko",
        "emails": [
            "sale.siamdiy@gmail.com"
        ],
        "id": "812599768812524",
        "location": {
            "city": "กรุงเทพ",
            "street": "ไอที สแควร์",
            "zip": "10210"
        },
        "name": "เครื่องมือช่าง ขายชุดอุปกรณ์ช่างยนต์ ช่างไฟฟ้า สว่าน ประแจ เลื่อย ไขควง คีม"
    },
    {
        "about": "ช่างยนต์",
        "description": "โปรดอ่านก่อนซักนิด''\nกลุ่มนี้ถูกสร้างขึ้นมาเพื่อได้แชร์กิจกรรมต่างๆของแผนกช่างยนต์วิทยลัยอีเทค ",
        "id": "1553591114863577",
        "location": {
            "city": " พานทอง จ.ชลบุรี",
            "street": "231 ม.2 ต.หนองตำลึง",
            "zip": "20160"
        },
        "name": "ช่างยนต์ อีเทค"
    },
    {
        "about": "ใครทำพวกกรูเจ็บ......\n\nแมร่งเจ็บกว่าเยอะ......",
        "id": "438057689610953",
        "name": "ช่างยนต์"
    },
    {
        "about": "เราคือช่างที่ชำนาญการเรื่องสีรถยนตร์ระบบ/2k",
        "id": "170837103040679",
        "name": "ช่างผสมสีรถยนตร์ระบบ-2k"
    },
    {
        "about": "การเรียนการสอน ในแผนกช่างยนต์",
        "description": "เพลนี้ ไว้สำหรับ วิเคราะห์ จัดการเรียนการสอน โชว์ผลงาน แสดงความคิดเห็น",
        "id": "642607772428804",
        "name": "ช่างยนต์เทคโนโลยีหมู่บ้านครู"
    },
    {
        "about": "ขายชุดเสื้อผ้า facebook:สุชาดา โพธิ์สว่าง ",
        "id": "1623107877977447",
        "location": {
            "city": "Amphoe Phen",
            "country": "Thailand",
            "latitude": 17.698567288235,
            "longitude": 102.88047281765,
            "street": "356 ม.8บ้านสังซา ต.บ้านธาตุ",
            "zip": "41150"
        },
        "name": "ไนตัสคลอโรฟิลล์ By ซ้อบิวรวมช่างยางยนต์",
        "phone": "0995109616"
    },
    {
        "about": "ร้านประดับยนต์ครบวงจร เปลี่ยนสีรถยนต์ด้วยสติกเกอร์ ",
        "description": "ศูนย์บริการ เครื่องเสียงรถยนต์และประดับยนต์ครบวงจร ฟิล์มกรองแสงรถยนต์ - อาคาร หลังคาแครี่บอย  สัญญาณกันขโมย เซนทรัลล็อค กระจกไฟฟ้า ล็อคเบรค ล็อคคลัช ผ้าใบคลุมกระบะ กระบะแม็กลายเนอร์ คอลโซลรถตู้ คอลโซลเกียร์ เบาัะในแค็ป เบาะญี่ปุ่น ครอบถังแก๊ส ซักเบาะ - พรม ฯลฯ",
        "emails": [
            "nueng_reddevils@hotmail.com"
        ],
        "id": "218042058235666",
        "location": {
            "city": "Samrong",
            "country": "Thailand",
            "street": "300/6-11 ถ.รถรางเก่า-สรรพาวุธ  สำโรง",
            "zip": "10130"
        },
        "name": "เจริญศิลป์การช่าง เครื่องเสียงและประดับยนต์",
        "phone": "027485142, 0919798795,0871250808"
    },
    {
        "about": "ขาย เครื่องมือ อุปกรณ์ที่จำเป็นสสำหรับช่างยนต์",
        "emails": [
            "kim_sirapob@hotmail.com"
        ],
        "id": "465405790269389",
        "location": {
            "city": "ภูเก็ต",
            "street": "108/201 หมู่ 5  ต รัษฎา อ เมือง",
            "zip": "83000"
        },
        "name": "อุปกรณ์เครื่องมือช่างยนต์",
        "phone": "0945959630"
    },
    {
        "about": "ติดต่อสินค้าหลังไมค์ https://www.facebook.com/maxzracing.club",
        "id": "473290252791887",
        "name": "ช่างแม็กเจริญยนต์ - นครสวรรค์"
    },
    {
        "id": "212825235402666",
        "location": {
            "street": "196/16-17 ถนนเพชรเกษม ต.วัดท่าพระ อ.บางกอกใหญ่ จ.กรุงเทพมหานคร"
        },
        "name": "ประเสริฐเจริญยนต์การช่าง",
        "phone": "02-8682292-3"
    },
    {
        "about": "ช่วยกดถูกใจเพจนี้หน่อย",
        "id": "505655769510193",
        "name": "ช่างยันต์์กับป๋าเฟรงศ์ดีเซลช่างเก้า"
    },
    {
        "about": "รับตกแต่งรถยนต์โมดิฟายเครื่องยนต์ รับทำสีรถยนต์ทุกชนิด",
        "id": "1642277482667111",
        "location": {
            "city": "Phayao",
            "country": "Thailand",
            "latitude": 19.12692,
            "longitude": 100.03878,
            "street": "224 หมู่ 2 ต.สันโค้ง อ.ดอกคำใต้",
            "zip": "56120"
        },
        "name": "อู่ ดีทียนต์ - ช่างดอย",
        "phone": "087-190-6650"
    },
    {
        "about": "ศูนย์บริการซ่อมรถยนต์ ด้วยเครื่องมือช่างที่ทันสมัยและช่างชำนาญการ",
        "description": "รวมช่างยางยนต์ อ.เพ็ญ บริการซ่่อมรถยนต์คอมมอลเรล และรถยนต์ทุกรุ่นโดยช่างชำนาญการณ์ เปลี่ยนถ่ายน้ำมันเครื่อง ปะยาง ถ่วงล้อ ช่วงล่าง ยางใหม่ ยาง% ล้อแม็ก อะไหล่รถยนต์ทุกชนิด\n\nรับ-ซื้อขาย แลกเปลี่ยนรถยนต์มือ2",
        "id": "251636718357954",
        "location": {
            "city": "Udon Thani",
            "country": "Thailand",
            "latitude": 17.698579441848,
            "longitude": 102.88049207089,
            "street": "356 ม.8 บ้านสังซา ต.บ้านธาตุ อ.เพ็ญ",
            "zip": "41150"
        },
        "name": "รวมช่างยางยนต์ ช่างนุ",
        "phone": "0828358493 "
    },
    {
        "about": "จำหน่าย แคมแต่ง สลักยืด กล่องไฟ อัดก้าน ถ่วงข้อ งานกลึง เชื่อมอลูมิเนียม",
        "description": "จำหน่าย...\u003e\u003e\u003e แคมแต่ง ,สลักยืด ,กล่องไฟ API , ประเก็นฝาทองแดง ,ประเก็นมิเนียม ,สปริงคลัช ,ฝาบูธตรง-บูธเยื้อง ทุกรุ่น\n\nรับทำ ...\u003e\u003e\u003e    ฝาทำวาล์ว ,อัดก้าน ,ถ่วงข้อเหวี่ยง ,ยืดชักทั้งสลักและที่ตัว ,คว้าน-ขัดเสื้อสูบ ,งานกลึง ,เชื่อมอลูมิเนียม ,งานแคร้ง ,แปลงหัว MIO ,W 125 ,แปลงปั้มน้ำมันเครื่อง ,ใส่กล่อง จูนกล่อง API ... \n  (..บริการจัดส่งทั่วประเทศ สนใจติดต่อ... 089 - 4602684 ช่างเฟิร์ส )",
        "id": "385158604937475",
        "location": {
            "city": "Phitsanulok",
            "country": "Thailand",
            "latitude": 16.851976276128,
            "longitude": 100.26166386958,
            "street": "78/7 ม.12 ต.หัวรอ อ.เมือง จ.พิษณุโลก",
            "zip": "65000"
        },
        "name": "ช่างเฟิร์ส โรงกลึงวิริยะยนต์",
        "phone": "089-4602684 ช่างเฟิร์ส"
    },
    {
        "id": "143952542288936",
        "name": "ช่างยานยนต์"
    },
    {
        "id": "120070368073009",
        "name": "ช่างประดับยนต์"
    },
    {
        "id": "110591342352066",
        "name": "ช่างยานยนต์"
    }
]