[
    {
        "id": "213253618710976",
        "name": "แผนกช่างยนต์"
    },
    {
        "about": "ข่าวสาร กิจกรรม การเรียนการสอน ",
        "id": "424793151005659",
        "location": {
            "city": "Buriram",
            "country": "Thailand",
            "latitude": 14.9923150572,
            "longitude": 103.099704296,
            "street": "ถนนจิระ",
            "zip": "31000"
        },
        "name": "แผนกวิชาช่างยนต์ วิทยาลัยเทคนิคบุรีรัมย์"
    },
    {
        "id": "113616905380353",
        "name": "สาขาวิชาช่างยนต์"
    },
    {
        "id": "669940663138011",
        "location": {
            "city": "Bangkok",
            "country": "Thailand",
            "zip": "10220"
        },
        "name": "สมาคมคนนิยมช่างยนต์แห่งประเทศไทย",
        "phone": "0937713327"
    },
    {
        "id": "154468014611432",
        "name": "เทคนิคช่างยนต์"
    },
    {
        "id": "206475982700532",
        "name": "สาขาช่างยนต์"
    },
    {
        "id": "103692746653236",
        "name": "กำลังศึกษา แผนกวิชาช่างยนต์"
    },
    {
        "id": "193402134026031",
        "name": "เด็กช่างยนต์"
    },
    {
        "id": "914306125277339",
        "location": {
            "city": "Amphoe Muang Rat Buri",
            "country": "Thailand",
            "latitude": 13.543793431667,
            "longitude": 99.808925533333,
            "street": "ตลาดกำนันหลัก ราชบุรี",
            "zip": "70000"
        },
        "name": "ร้านทีมงานช่างยุ่นตลาดกำนันหลัก ราชบุรี 086-0279947 เครื่องเสียงประดับยนต์"
    },
    {
        "id": "231985820273244",
        "location": {
            "city": "Muang Nan",
            "country": "Thailand",
            "latitude": 18.777861699622,
            "longitude": 100.76528865551,
            "street": "Thanon Ropmueang Tawantok",
            "zip": "55000"
        },
        "name": "แผนกช่างยนต์ เทคนิคน่าน"
    },
    {
        "id": "118648224887667",
        "location": {
            "city": "Amphoe Muang Chiang Mai",
            "country": "Thailand",
            "latitude": 18.81015926106,
            "longitude": 98.955818872024,
            "street": "บ้าน",
            "zip": "50300"
        },
        "name": "Shop ช่างยนต์ Rmutl",
        "phone": "036360316"
    },
    {
        "id": "359822667443025",
        "location": {
            "city": "Muang Lampun",
            "country": "Thailand",
            "latitude": 18.57363963279,
            "longitude": 98.9979551519,
            "street": "BUPASAWAN 4",
            "zip": "51000"
        },
        "name": "ช๊อป ช่างยนต์ เทคนิคลำพูน"
    },
    {
        "about": "อยุธยา โรจนะ ไฮเทค เปิดบ้าน เปิดรถยนต์ 0817581492  ช่างยันต์ ก๊อปปี้รีโมท",
        "description": " เปิดรถยนต์ เปิดบ้าน ก๊อปปี้รีโมท เปลี่ยนกรอบ-ถ่าน รวมรีโมท กุญแจฝังชิพ  ทำกุญแจทั่วไป   Tel.  0817581492",
        "emails": [
            "yansae@hotmail.com"
        ],
        "id": "347214865380289",
        "location": {
            "city": "Ayutthaya",
            "country": "Thailand",
            "latitude": 14.35793,
            "longitude": 100.70099,
            "street": "7/10 หมู่4 ต.คานหาม อ.อุทัย",
            "zip": "13210"
        },
        "name": "ช่างกุญแจอยุธยา ช่างยันต์ 0817581492",
        "phone": "0817581492"
    },
    {
        "description": "สถาบัน",
        "id": "403913983047615",
        "location": {
            "city": "Lampang",
            "country": "Thailand",
            "latitude": 18.287989989214,
            "longitude": 99.482922659617,
            "zip": "52100"
        },
        "name": "แผนกช่างยนต์ วิทยาลัยเทคนิคลำปาง"
    },
    {
        "id": "402294693151132",
        "location": {
            "city": "Muang Chaiyapum",
            "country": "Thailand",
            "latitude": 15.810774961325,
            "longitude": 102.01661068613,
            "zip": "36000"
        },
        "name": "แผนกช่างยนต์ วิทยาลัยเทคนิคชัยภูมิ"
    },
    {
        "id": "134075460080777",
        "location": {
            "city": "Loei",
            "country": "Thailand",
            "latitude": 17.473696326262,
            "longitude": 101.72943862636,
            "zip": "42000"
        },
        "name": "แผนกช่างยนต์ วิทยาลัยเทคนิคเลย"
    },
    {
        "about": "ช่างยนต์ วิทยาลัยเทคนิคอุตรดิตถ์  ภาพถ่าย กิจกรรม ของแผนกช่างยนต์",
        "emails": [
            "hijack9@otmail.com"
        ],
        "id": "413128348857281",
        "location": {
            "city": "Changwat Uttaradit",
            "country": "Thailand",
            "latitude": 17.612199344062,
            "longitude": 100.11286073562,
            "zip": "53000"
        },
        "name": "ช่างยนต์ วิทยาลัยเทคนิคอุตรดิตถ์",
        "phone": "055412917ต่อ247"
    },
    {
        "id": "359092037602955",
        "location": {
            "city": "Bangkok",
            "country": "Thailand",
            "latitude": 13.73955,
            "longitude": 100.53394,
            "street": "จุฬา30",
            "zip": "10330"
        },
        "name": "ช้างอะไหล่ยนต์",
        "phone": "0815516169"
    },
    {
        "id": "129672143773192",
        "name": "ช่างอุตสาหกรรมยานยนต์"
    },
    {
        "about": "ยินดีต้อนรับ",
        "id": "431712457014865",
        "name": "ช่างยนต์คนโก้ วท.บุรีรัมย์ ศูนย์การเรียนประโคนชัย"
    },
    {
        "id": "152419278147873",
        "name": "ช่างยนต์-เทคนิคยานยนต์"
    },
    {
        "id": "866702710078269",
        "name": "ช่างยนต์ ปวส.1/5 ปี 2558"
    },
    {
        "id": "193328140697562",
        "name": "เครื่องกล(ช่างยนต์)"
    },
    {
        "id": "184727174897516",
        "name": "อุตสาหกรรมช่างยนต์"
    },
    {
        "id": "205075469541913",
        "name": "นักศึกษาช่างยนต์"
    }
]