[
    {
        "about": "สถาบันชื่อดัง",
        "id": "1476543519334370",
        "location": {
            "city": "Nakhon Pathom",
            "country": "Thailand",
            "latitude": 13.73563319315,
            "longitude": 100.25925636292,
            "street": "วิทยาลัยการอาชีพนครปฐม",
            "zip": "73210"
        },
        "name": "ช่างยนต์ วิทยาลัยการอาชีพนครปฐม"
    },
    {
        "id": "183396215034999",
        "name": "เอก ช่างยนต์"
    },
    {
        "id": "146034048770769",
        "name": "หัวหน้าช่างยนต์"
    },
    {
        "about": "เด็กช่างร๊ากจริงไม่ทิ้งให้เธอเหงาใจ",
        "emails": [
            "vstopsonic_0012@hotmail.com"
        ],
        "id": "268964303255553",
        "location": {
            "city": "Lampang",
            "country": "Thailand",
            "latitude": 18.2013682,
            "longitude": 99.3904359,
            "zip": "52130"
        },
        "name": "ช่างยนต์  วิทยาลัยการอาชีพเกาะคา",
        "phone": "\u003c\u003cnot-applicable\u003e\u003e"
    },
    {
        "about": "รับซ่อม \"หัวใจที่แตกหัก\" จากคนรัก ที่จากไป..",
        "id": "530446483774758",
        "location": {
            "city": "Ubon Ratchathani",
            "country": "Thailand",
            "street": "บ้านทุ่งเกษม อ.วารินชำราบ",
            "zip": "34190"
        },
        "name": "ศูนย์บริการ Note ช่างยนต์"
    },
    {
        "emails": [
            "\u003c\u003cnot-applicable\u003e\u003e"
        ],
        "id": "182216878530541",
        "location": {
            "city": "Muang Kalasin",
            "country": "Thailand",
            "latitude": 16.429204047659,
            "longitude": 103.51015623255,
            "zip": "46000"
        },
        "name": "แผนกช่างยนต์ วิทยาลัยเทคนิคกาฬสินธุ์",
        "phone": "043611782"
    },
    {
        "id": "132728653442847",
        "name": "หัวหน้าแผนก ช่างยนต์"
    },
    {
        "about": "ชมเพจได้ครับ  กดไลค์ รูป+โพส+เพจ ด้วยน่ะครับ ^^'",
        "id": "269264896585210",
        "location": {
            "city": "หมก",
            "street": "หมก"
        },
        "name": "Fc.พ่อหนุ่ม ช่างยนต์'",
        "phone": "0950034035"
    },
    {
        "about": "ความเคลื่อนไหวของพวกเรา ชาวช่างยนต์2/5",
        "id": "869067459832579",
        "location": {
            "city": "Surin",
            "country": "Thailand"
        },
        "name": "FC ช่างยนต์ 2/5 วท.สุรินทร์"
    },
    {
        "about": "เลือกในสิ่งที่ใช่ ได้ในสิ่งที่ชอบ คำตอบคือความสำเร็จ..automotive @a-tech",
        "id": "989621651089591",
        "name": "แผนกวิชาช่างยนต์ อักษรพัทยา"
    },
    {
        "id": "497026760333434",
        "location": {
            "city": "Phanom",
            "country": "Thailand",
            "latitude": 8.6200919333333,
            "longitude": 98.97079675,
            "street": "Tessaban Soi 2"
        },
        "name": "ช่างเดียร์ วิรัตน์ยานยนต์ บางสวรรค์"
    }
]