[
    {
        "id": "1375653159350976",
        "location": {
            "city": "Phatthalung",
            "country": "Thailand",
            "latitude": 7.6184016310112,
            "longitude": 100.08025399996,
            "zip": "93000"
        },
        "name": "แผนกช่างยนต์ วิทยาลัยเทคนิคพัทลุง"
    },
    {
        "id": "537157069656219",
        "location": {
            "city": "Sing Buri",
            "country": "Thailand",
            "latitude": 14.877914259747,
            "longitude": 100.40625855506,
            "zip": "16000"
        },
        "name": "แผนกช่างยนต์ วิทยาลัยเทคนิคสิงห์บุรี"
    },
    {
        "id": "1428197514067755",
        "location": {
            "city": "Ayutthaya",
            "country": "Thailand",
            "latitude": 14.400894300223,
            "longitude": 100.58776546921,
            "zip": "13260"
        },
        "name": "อู่สายัณ เจริญยนต์ By ช่างนิว อีกละ"
    },
    {
        "about": "ประวัติน้องออมสิน แชมป์ PJRC2013",
        "id": "258852537558598",
        "name": "ช่างตี๋ (บางนา) ทีม ช. การยนต์"
    },
    {
        "id": "801010980013369",
        "location": {
            "city": "Narathiwat",
            "country": "Thailand",
            "latitude": 6.42444,
            "longitude": 101.824,
            "street": "99"
        },
        "name": "ช่างมะ ยามู ยานยนต์ ช่างสี่พี่น้อง",
        "phone": "0935977617"
    },
    {
        "about": "ทักทาย แจ้งข่าวสาร  ลงรูป เก่าๆใหม่ๆ",
        "id": "895502087210498",
        "name": "ช่างยนต์ราชมงคลปากคลอง"
    },
    {
        "about": "รับซ่อมรถในราคามิตรภาพ ย่านลาดพร้าว101 นวมินทร์ 111",
        "id": "835348856554588",
        "location": {
            "city": "Bangkok",
            "country": "Thailand",
            "latitude": 13.8066445,
            "longitude": 100.6474392,
            "street": "นวมินทร์111",
            "zip": "0802999198"
        },
        "name": "เฉลิมชัยยนต์ ช่างน้อย",
        "phone": "0802999198"
    },
    {
        "about": "แผนกช่างยนต์ ATCC ยินดีต้อนรับ",
        "emails": [
            "e22beh@hotmail.co.th"
        ],
        "id": "581171485322822",
        "location": {
            "city": "Ayutthaya",
            "country": "Thailand",
            "street": "94 ม.6 ถ.โรจนะ ต.ไผ่ลิง อ.พระนครศรียุธยา",
            "zip": "13000"
        },
        "name": "แผนกช่างยนต์ ATCC พาณิชย์นอก",
        "phone": "035335873"
    },
    {
        "id": "1423696401215942",
        "name": "ช่างยนต์Dvt"
    },
    {
        "about": "แสดงภาพกิจกรรมต่างๆของช่างยนต์ วท.สค.",
        "id": "269063316605099",
        "location": {
            "city": "เมืองสมุทรสาคร",
            "zip": "74000"
        },
        "name": "Gallery ภาพช่างยนต์ วิทยาลัยเทคนิคสมุทรสาคร"
    },
    {
        "id": "332332753589117",
        "name": "ช่างยนต์์๔๖"
    },
    {
        "about": "วิสัยทัศน์นักศึกษาแผนกวิชาช่างยนต์ มีคุณภาพตามมาตรฐานการอาชีวศึกษา ก้าวทันเทคโนโลยี",
        "id": "309851279112468",
        "location": {
            "street": "1046 ถนนสนามบิน ตำบลเวียง อำเภอเมือง",
            "zip": "57000"
        },
        "name": "แผนกช่างยนต์ วิทยาลัยเทคนิคเชียงราย"
    },
    {
        "id": "265106273672968",
        "name": "ช่างยนต์39"
    },
    {
        "id": "740813299308504",
        "name": "ช่างยนต์01"
    },
    {
        "id": "977523795625809",
        "name": "ช่างกล้า อไหลยนต์"
    },
    {
        "about": "กดไลค์กันเยอะๆน๊คร๊าฟ",
        "id": "751668151551839",
        "location": {
            "city": "นครสวรรค์ @ เมืองอันธพาล",
            "street": "--",
            "zip": "60150"
        },
        "name": "ช่างยนต์ รุ่นที่ 13  วท.แม่วงก์",
        "phone": "0932767943"
    },
    {
        "about": "สอนสาขาวิชา ช่างยนต์หลักสูตร ปวช.และปวส และปริญญาตรี",
        "id": "312125665549578",
        "location": {
            "city": "Muang Sara Buri",
            "country": "Thailand",
            "street": "424 ถ.พหลโยธิน ต.ปากเพรียว",
            "zip": "18000"
        },
        "name": "แผนกวิชาช่างยนต์ วิทยาลัยเทคนิคสระบุรี โทร 0837106119"
    },
    {
        "id": "380959718776528",
        "location": {
            "city": "Bangkok",
            "country": "Thailand",
            "latitude": 13.7020111,
            "longitude": 100.6030273,
            "street": "4361 ถนนสุขุมวิท แขวงบางนา เขตบางนา กรุงเทพฯ10260",
            "zip": "10260"
        },
        "name": "HONDA Family ซ่อมรถยนต์ฮอนด้าและรถญี่ปุ่น - ช่างรุ่ง"
    },
    {
        "about": "เทคนิค",
        "id": "1461304314095917",
        "name": "ช่างยนต์"
    },
    {
        "id": "781553005271110",
        "name": "ธวัชชัย เจริญยนต์ by ช่างเด๋อ นนทบุรี",
        "phone": "0928267056."
    },
    {
        "about": "รับซ่อมซื้อขาย รถไถฟอร์ด คูโบต้า   รับจัดหาอะไหล่ ซ่อม สร้าง เครื่องมือการเกษตร",
        "id": "510320005777040",
        "location": {
            "city": "เขาชนกัน",
            "zip": "60150"
        },
        "name": "สมศักดิ์เจริญยนต์ - อู่ช่างแขก",
        "phone": "0890285937 ,0987493837"
    },
    {
        "id": "220233481431658",
        "name": "ศิษย์เก่าช่างยนต์วิทยาลัยเทคนิคนครสวรรค์"
    },
    {
        "id": "999061880138394",
        "location": {
            "city": "Rayong",
            "country": "Thailand",
            "latitude": 12.6643457,
            "longitude": 101.2719727,
            "street": "086/3 ถนนตากสินมหาราช ตำบลท่าประดู่",
            "zip": "21000"
        },
        "name": "ช็อปช่างยนต์ วิทยาลัยเทคนิคระยอง",
        "phone": "038611160"
    },
    {
        "about": "เพจใหม่ช่วยกันไลค์หน่อยน๊าาาา'า !!",
        "id": "1550573058490580",
        "location": {
            "city": "วัฒนานคร",
            "street": "วัฒนานคร",
            "zip": "27160"
        },
        "name": "ช่างยนต์ ปวช.2/1 วท.สก",
        "phone": "0929747023"
    },
    {
        "about": ".# ช่างยนต์ 1/9 1/10 เทคนิคขอนแก่น",
        "id": "406703296204865",
        "name": "ช่างยนต์ เทคนิค'ขอนแก่น 1/9,/10"
    }
]