[
    {
        "about": "ซ่อมและโมเพาเวอร์ คราสD,ABทุกชนิดและติดตั้งเครื่องเสียงติดรถยนต์",
        "id": "923051527765092",
        "location": {
            "street": "11/2ม.4ต.ยางหย่องอ.ท่ายาง",
            "zip": "76130"
        },
        "name": "รับซ่อมและรับโมเพาเวอร์คลาสd,abทุกชนิดและรับติดตั้งเครื่องเสียงติดรถยนต์"
    },
    {
        "id": "1517997018484543",
        "name": "รับซ่อมเครื่องจักร ระบบไฟฟ้า ประกอบตู้ไฟฟ้า Control เครื่องจักร"
    },
    {
        "id": "1549820101949456",
        "location": {
            "city": "Chon Buri",
            "country": "Thailand",
            "latitude": 12.9736252,
            "longitude": 100.9082489,
            "street": "76/1 ม.5 ต.นาเกลือ อ.บางละมุง",
            "zip": "20150"
        },
        "name": "ร้านพัทยาฮาร์ดแวร์ ขาย-ซ่อมเครื่องตัดหญ้า",
        "phone": "038-428666"
    },
    {
        "id": "733403380139235",
        "name": "ซ่อม ทีวี ตู้เย็น แอร์ เครื่องซักผ้า"
    },
    {
        "about": "www.thaitechnicians.com ไทยเทคนิคเชี่ยนส์ดอทคอม ศูนย์รวมช่างและงานอุตสาหกรรมทั่วไทย",
        "description": "เว็บไซต์ศูนย์รวมช่าง เชิงอุตสาหกรรม ทุกชนิด\nยินดีต้อนรับ สมาชิกนานาสารพัดช่าง มาร่วมกลุ่มกันเพื่อสร้างสรรค์งานอุตสาหกรรมให้ก้าวหน้ายิ่งขึ้น",
        "emails": [
            "niwett@gmail.com"
        ],
        "id": "360844807267651",
        "location": {
            "city": "Bangkok",
            "country": "Thailand",
            "latitude": 13.845293567562,
            "longitude": 100.54682518268,
            "zip": "10900"
        },
        "name": "ThaiTechnicians.com บริการติดตั้ง บำรุงรักษา ซ่อม แอร์และเครื่องปรับอากาศ",
        "phone": "085-239-1203"
    },
    {
        "id": "435184790024744",
        "name": "ช่างเทคนิคซ่อมเครื่องบำรุงรักษาไฟฟ้า"
    },
    {
        "about": "รับซ่อมเครื่องซักผ้า เข้าเว็บ http://www.xn--12cfjoc0gta9ape1id9bjr7eyhvfg0a.com",
        "id": "219707211542820",
        "name": "รับซ่อมเครื่องซักผ้า"
    },
    {
        "id": "370505909808361",
        "name": "Sc เฟอร์นิเจอร์ รับสั่งทำและซ่อมเฟอร์นิเจอร์ ซ่ิอมเบาะรถยนต์ รถเครื่อง ฯลฯ"
    },
    {
        "about": "รับติดตั้ง และซ่อมเครื่องปรับอากาศ และระบบไฟฟ้าภายในบ้าน",
        "emails": [
            "dj1ktoon@gmail.com"
        ],
        "id": "299155440249337",
        "location": {
            "city": "Chiang Mai",
            "country": "Thailand",
            "latitude": 18.798919189121,
            "longitude": 98.992953304291,
            "street": "83 Un Aree Soi 4 Sanamkeera Road Sripoom Amphoe Muang",
            "zip": "50200"
        },
        "name": "จำหน่าย ติดตั้ง ซ่อม เครื่องปรับอากาศและระบบไฟฟ้าภายใน",
        "phone": "086-9198396,090-3311426"
    },
    {
        "id": "211957328985390",
        "name": "รับติดตั้งไฟฟ้าภายใน จานดาวเทียม ซ่อมบำรุงเครื่องใช้ไฟฟ้าทุกชนิด"
    },
    {
        "id": "833590996662822",
        "name": "จำหน่ายเครื่องถ่ายเอกสาร  วัสดุสิ้นเปลือง และรับซ่อมเครื่องถ่ายเอกสาร"
    },
    {
        "about": "รับทำแท๊งน้ำ แท๊งดูดสิ่งปฏิกูล รับ สร้าง-ซ่อมเครื่องมือการเกษตรทุกชนิด รับอ๊อก-กลึง",
        "id": "1627739420773367",
        "location": {
            "city": "Phetchabun",
            "country": "Thailand",
            "latitude": 16.4217491,
            "longitude": 101.2033234,
            "street": "220/2 ม.1 ต.พุเตย อ.วิเชียรบุรี จ.เพชรบูรณ์",
            "zip": "67180"
        },
        "name": "อู่ โยเซอร์วิส รับกลึง-ซ่อม-สร้าง เครื่องการเกษตรทุกชนิด",
        "phone": "0899574822"
    },
    {
        "about": "รับซ่อมเครื่องซักผ้า เครื่องญี่ปุ่น เครื่องยุโรป ตัด ปะ ผุ ทำสี ",
        "id": "287592224736725",
        "location": {
            "city": "Bangkok",
            "country": "Thailand",
            "latitude": 13.90811,
            "longitude": 100.58717,
            "street": "152/52 พงษ์เพชรซ.1 ถ.แจ้งวัฒนะ14 แขวงทุ่งสองห้อง เขตหลักสี่",
            "zip": "10210"
        },
        "name": "ศิริทัศน์ซ่อมเครื่องซักผ้า",
        "phone": "0853611157"
    },
    {
        "id": "134836766865589",
        "name": "รับประกอบเครื่องเสียงกลางแจ้งรับซ่อมแอร์บัานตู้เย็นรับซ่อมเครื่องเสียงคับ"
    },
    {
        "about": "บริการประกอบ โมดิฟายเครื่องเสียง ซ่อมลำโพง และเครื่องใช้ไฟฟ้าทุกชนิด ",
        "description": "บริการ ประกอบ โมดิฟายเครื่องเสียง ซ่อมลำโพง และเครื่องใช้ไฟฟ้าทุกชนิด โดยช่างผู้ชำนาญการ (ช่างบูลย์ 083 655 9019 )",
        "id": "639429999462414",
        "location": {
            "latitude": 7.1849926621635,
            "longitude": 100.59506893158,
            "street": "9 ม.8 ต.ปริก อ.สะเดา จ.สงขลา",
            "zip": "90120"
        },
        "name": "VB อิเล็กทรอนิกส์ ซ่อมลำโพง โมเครื่องเสียง พีเอ",
        "phone": "083-6559019"
    },
    {
        "about": "ช่าง ผึ้ง ร้านติดตั้งเครื่องทำน้ำอุ่น ลำพูน เชียงใหม่\nสนใจโทร.086-183-8275, 090-915-2138 : Line\nwww.cctvsatcm.com",
        "id": "289220811271262",
        "location": {
            "city": "Amphoe Muang Lamphun",
            "country": "Thailand",
            "latitude": 18.53688,
            "longitude": 99.07746,
            "street": "183 ถ.พระคงษ์ฤาษี ต.ในเมือง อ.เมือง",
            "zip": "51000"
        },
        "name": "ติดตั้งเครื่องทำน้ำอุ่น ซ่อม ย้าย ลำพูน เชียงใหม่",
        "phone": "0861838275"
    },
    {
        "about": "บริการซ่อมคอมพิวเตอร์ เครื่องปริ้น นอกสถานที่ เช่น บ้าน สำนักงาน สถานที่ต่างๆที่ท่านสดวก",
        "id": "1034911509872048",
        "location": {
            "city": "Nakhon Nayok",
            "country": "Thailand",
            "latitude": 14.2013502,
            "longitude": 101.2138672,
            "street": "9/3หมู่2 ต. บ้านใหญ่ อ. เมือง จ.นครนายก",
            "zip": "26000"
        },
        "name": "ซ่อมคอมพิวเตอร์เครื่องปริ้นนอกสถานที่ นครนายก-ปราจีน",
        "phone": "0864491706*092-352-7131"
    },
    {
        "id": "509405009203378",
        "name": "ซ่อมลิฟท์ยกรถและเครื่องมื่อช่าง ทุกชนิด"
    },
    {
        "id": "428149063871694",
        "location": {
            "street": "5 แจ้งสนิท ต.ในเมือง",
            "zip": "34000"
        },
        "name": "แผนกวิชาเครื่องมือกลและซ่อมบำรุง วิทยาลัยเทคนิคอุบลราชธานี"
    },
    {
        "about": "ซ่อมและขายอุปกรณ์เครื่องใช้สำนักงานทุกชนิด",
        "description": "จำหน่ายเครื่องถ่ายเอกสารยี่ห้อ SHARP ทุกรุ่นราคาพิเศษพร้อมบริการหลังการขายฟรี\nซ่อมและขายเครื่องถ่ายเอกสาร , คอมพิวเตอร์ ,เครื่องแฟกซ์ ,เครื่องปริ้นเตอร์ , ระบบกล้องวงจรปิด\nระบบตู้สาขาโทรศัพท์ , เครื่องคิดเลข , นาฬิกาตอกบัตร , ผ้าหมึกปริ้นเตอร์ , ผ้าหมึกพิมพ์ดีด , ผงหมึกเครื่องถ่ายเอกสาร\nเทปลบพิมพ์ดี\nทุกรุ่น ทุกยี่ห้อ ในราคาพิเศษทั้งเงินสดและผ่อน บริการซ่อมด่วนถึงสถานที่ และหากจำเป็นต้องนำเครื่องเข้าซ่อมที่บริษัท\nมีเครื่องสำรองให้ใช้แทน ",
        "id": "340576699436985",
        "location": {
            "city": "นนทบุรี",
            "street": "95/6 ถ.รัตนาธิเบศร์ บางรักน้อย",
            "zip": "11000"
        },
        "name": "ศรีภัณฑ์ โอเอ รับซ่อมและขายเครื่องถ่ายเอกสาร,คอมพิวเตอร์,แฟกซ์,ปริ้นเตอร์",
        "phone": "029440020-1"
    },
    {
        "about": "บริการรับซ่อมเครื่องมือแพทย์ ทุกชนิด บริการรับส่ง เสนอราคาก่อนทำการซ่อม",
        "description": "รับซ่อมด้ามกรอฟัน รับซ่อมเก้าอี้ทำฟัน",
        "emails": [
            "knok_online@windowslive.com"
        ],
        "id": "1484494271761939",
        "location": {
            "city": "นครราชสีมา",
            "latitude": 13.79959,
            "longitude": 100.49286,
            "street": "1299/1 หมู่13 ต.จอหอ อ.เมือง",
            "zip": "30310"
        },
        "name": "บริการ ซ่อมด้ามกรอ และ ซ่อมเครื่องมือแพทย์ ด้านทันตกรรม",
        "phone": "0935190749,0918329061"
    },
    {
        "about": "ขายผ่อน สด ซ่อม เปลี่ยนอะไหล่ รับแลกเทิน ราคาเป็นกันเอง บริการเคลื่อนที่ครับ",
        "emails": [
            "lpkwtt@gmail.com"
        ],
        "id": "321378108072573",
        "location": {
            "city": "Chiang Mai",
            "country": "Thailand",
            "street": "4/1หมู่ 8 ต ท่าวังตาล อ สารภี จ เชียงใหม่",
            "zip": "50140"
        },
        "name": "บริการขายเครื่องปั่น เครื่อง หั่น บด ซอย ซ่อม เปลี่ยนอะไหล่ แลกเทินสินค้า",
        "phone": "0819806079"
    },
    {
        "about": "ขายเครื่องซักผ้าหยอดเหรียญ พร้อมติดตั้ง ตอบสนองข้อความตลอดเวลา ติดต่อ มาคุยกัน",
        "id": "1500005193593596",
        "name": "บริการล้างถังเครื่องซักผ้า ขายเครื่องซักผ้าหยอดเหรียญ ซ่อม ติดตั้ง"
    },
    {
        "id": "1447083152267135",
        "name": "ตุ้ยเซาว์ รับทํา รับซ่อม เครื่องเสียง ลําโพง ทุกชนิด"
    },
    {
        "description": "จำหน่าย ติดตั้ง เครื่องปรับอากาศ ติดตั้งงาน",
        "emails": [
            "teeraair@hotmail.com"
        ],
        "id": "274618729239100",
        "location": {
            "street": "23/69 หมู่ 5 ถ.ประชาอุทิศ-สงขลา  ต.รัษฎา อ.เมือง จ.ภูเก็ต"
        },
        "name": "ณัฐวัตน์จำหน่ายติดตั้งเครื่องปรับอากาศ ซ่อม ครบวงจร ณ ภูเก็ต",
        "phone": "076254669 "
    }
]