[
    {
        "about": " เริ่มต้นที่่ 300 บาท  \nไปหาที่ร้าน เริ่มต้นที่ 500 บาท",
        "description": " ค่าบริการ เริ่มต้นที่่ 300 บาท ครับ\n ถ้าไปหาที่ร้าน เริ่มต้นที่ 500 บาท (ค่าเดินทาง 200 + ค่าแรง 300)\nหยุด วัน อาทิตย์ ครับผม วันเสาร์ เก็บงานครับ",
        "emails": [
            "vorvapopo@hotmail.com"
        ],
        "id": "281566055227218",
        "location": {
            "city": "กรุงเทพมหานคร",
            "street": "94/1 ถ.ประชาราษฎร์2 แขวงบางซื่อ เขตบางซื่อ",
            "zip": "10800"
        },
        "name": "ซ่อมเครื่องชงกาแฟสดและเครื่องบดกาแฟสด Aoftion",
        "phone": "0811225007,0834269550"
    },
    {
        "id": "799302036810561",
        "location": {
            "city": "Khon Kaen",
            "country": "Thailand",
            "latitude": 16.48796275,
            "longitude": 102.81558734,
            "street": "ถนนเส้น หลัง มข ตรงมาก่อนถึงบ้านโนนม่วงขวามือ",
            "zip": "40000"
        },
        "name": "Ap โฟน ขอนแก่น หลัง มข รับฝากรับซ่อมโทรศัพท์ และ เครื่องใช้ไฟฟ้าทุกชนิด",
        "phone": "0924175314"
    },
    {
        "description": "ในปัจจุปันนี้เป็นยุคทีการฟังเพลง แทบทั้งหมดนั้นอยู่ในรูปแบบดิจิตอล ซึ่งเป็นอะไรที่ง่ายดายแต่ก็ดูฉาบฉวย แต่ก็ยังมีคนอีกเป็นจำนวนมากที่ยังชื่นชอบเสียงเพลงในแบบอนาล็อก ผู้คนบางส่วนเริ่มหันกลับมาเสาะหาและฟังเพลงจากเทปคลาสเซ็ตกันมากขึ้น  แต่สำหรับเครื่องเล่นเทปนั้นกลับหายากและทีมีอยู่ส่วนมากก็ใข้งานไม่ได้ หรือไม่ก็เสือมสภาพไปตามกาลเวลา\n\nเพจซ่อมและ DIY เครื่องเล่นเทปคลาสเซ็ตจึงถูกตั้งขึ้นมาก็เพื่อ เป็นแหล่งพบปะ รวบรวมกลุ่มเพื่อนๆเหล่าเราๆท่านๆ ที่สนใจในงานซ่อม การ DIY เพื่อแก้ไข ปรับปรุง หรือแม้กระทั่งสร้างเครื่องเล่นเทปขึ้นมา เพื่อที่จะให้เราสามารถได้ฟังบทเพลงดีๆ งานดนตรีดีๆที่อยู่ในเทปคลาสเซ็ต ได้ต่อไป\n\n",
        "emails": [
            "rattaplon@gmail.com"
        ],
        "id": "1459179860971155",
        "name": "ซ่อมและ DIY เครื่องเล่นเทปคลาสเซ็ท"
    },
    {
        "id": "745097105605722",
        "location": {
            "city": "Chachoengsao",
            "country": "Thailand",
            "latitude": 13.7,
            "longitude": 101.083,
            "street": "29/9 ต.พิมพา อ.บางปกง",
            "zip": "24130"
        },
        "name": "บริการ ซ่อมเครื่องใช้ไฟฟ้าทุกชนิด ร้านเทคนิคกรุงเทพฯ",
        "phone": "0614574244"
    },
    {
        "about": "จำหน่ายซ่อมเครื่องตัดกระดาษไฟฟ้า เครื่องเข้าเล่มสันกาว อุปรกณ์สำนักงานhttp://www.masterinktank.com/",
        "id": "500243016740354",
        "name": "จำหน่ายซ่อมเครื่องตัดกระดาษไฟฟ้า เครื่องเข้าเล่มสันกาว อุปรกณ์สำนักงาน"
    },
    {
        "about": "ศูนย์ซ่อมเครื่องชงกาแฟอะไหล่แท้",
        "id": "725461300847712",
        "location": {
            "city": "Muang Chiang Mai",
            "country": "Thailand",
            "latitude": 18.78988,
            "longitude": 98.93018,
            "street": "66 ต.ศรีภูมิ",
            "zip": "50200"
        },
        "name": "ศูนย์ซ่อมเครื่องชงกาแฟอะไหล่แท้",
        "phone": "053-213078"
    },
    {
        "about": "ออกแบบ ผลิต ซ่อม เครื่องหนังทุกชนิด ",
        "description": "รับซ่อม ขายเครื่องหนัง ทุกชนิด ร้านตั้งอยู่ที่พัทยา ชลบุรี รับทั้งงาน order และงานโหล ยินดีให้คำปรึกษาเรื่องการออกแบบและราคาถูก",
        "id": "291025461055628",
        "name": "ซ่อมกระเป๋า ซ่อมรองเท้า ขายเครื่องหนัง"
    },
    {
        "about": "ศูนย์พระเครื่องเมืองรังสิต แหล่งรวมของเก่า ของสะสม",
        "description": "รับซ่อมพระเครื่อง พระบูชา ทุกชนิด ที่แตก หัก หรือบิ่น นำมาซ่อมกับเราให้สมบูรณ์ได้ โดยช่างซ่อมฝีมือประณีต ประสบการณ์มากกว่า 30 ปี\nสนใจติดต่อ 084-6569599 กุ้ง",
        "id": "542471532468767",
        "name": "รับซ่อมพระเครื่อง พระบูชา และวัตถุโบราณ ทุกชนิด",
        "phone": "0846569599"
    },
    {
        "about": "ดูแลระบบเครื่องกรองน้ำ , จำหน่าย -เปลี่ยนไส้กรอง , สารกรอง , ซ่อมเครื่องกรองน้ำ",
        "emails": [
            "akenattasan@gmail.com"
        ],
        "id": "1461350100805264",
        "location": {
            "city": "Nonthaburi",
            "country": "Thailand",
            "street": "อ.ปากเกร็ด",
            "zip": "11120"
        },
        "name": "ซ่อมตู้น้ำหยอดเหรียญ - เครื่องกรองน้ำ นนทบุรี",
        "phone": "0832525211"
    },
    {
        "about": "รับซ่อมจักรยานไฟฟ้า-เครื่องเชื่อมไฟฟ้า",
        "emails": [
            "bikeweld@hotmail.com"
        ],
        "id": "616394275095470",
        "location": {
            "city": "Amphoe Sam Phran",
            "country": "Thailand",
            "latitude": 13.693461955795,
            "longitude": 100.22743463516,
            "street": "88/192 ม.10 ต.บางช้าง",
            "zip": "73110"
        },
        "name": "ขาย-ซ่อมจักรยานไฟฟ้า เครื่องเชื่อมไฟฟ้า ออกแบบวงจรอิเล็กทรอนิกส์",
        "phone": "0838194021"
    },
    {
        "id": "1686693938231868",
        "name": "ซื่อ-ขายและรับซ่อมโทรศัพย์ คอมฯเครื่องใช้ไฟฟ้าทุกชนิด"
    },
    {
        "about": "ร้านซ่อม เครื่องใช่ไฟฟ้าทุกชนิด",
        "description": "ร้านซ่อม TV LCD และเครื่องใช่ไฟฟ้าทุกชนิด บริการรับ-ส่งถึงที่ รับประกันงานซ่อม 3 เดือน \"ร้านช่างยันต์\" สุขสวัสิ์ 72 ต.บางครุ อ.พระประแดง จ.สมุทรปราการ ปณ.10130.",
        "id": "1377663189224193",
        "location": {
            "city": "Bangkok",
            "country": "Thailand",
            "latitude": 13.625498871396,
            "longitude": 100.52927434444,
            "street": "166/10 หมู่ 8 ต.บางครุ อ.พระประแดง จ.สมุทรปราการ",
            "zip": "10130"
        },
        "name": "ร้านซ่อม TV LCD LED Plasma และเครื่องใช่ไฟฟ้าทุกชนิด \" ช่างยันต์ พระประแดง\"",
        "phone": "0899228023"
    },
    {
        "about": "ซ่อม-จำหน่ายลู่วิ่ง และเครื่องออกกำลังกายทุกประเภท",
        "description": "มั่นใจด้วยช่างมืออาชีพ ที่พร้อมให้บริการท่านทุกวัน\n\n- รับซ่อม\nลู่วิ่งทุกยี่ห้อ เช่น STAR TRAC, SLIMMATE, IMPACT, G-SPORT ,AIKO ,ALTA,JACKY, OMA, ALTROM SPORT , MATRIX, VISION, LIVESTRONG, HORIZON, TREO,TEMPO , MARATHON , STEEL FLEX, SPORTOP, HEALTH STREAM, Body Solid,PUSE Fitness, Fit Plus,\nProtcus, Body Fit และอื่น ๆ อีกมากมาย\n\n-รับเปลี่ยนสายพานลู่วิ่ง\n\n-รับซ่อมแผงวงจร, แผงอิเล็กทรอนิกส์\n\n-รับเปลี่ยนไม้กระดาน\n\n-รับตัดไม้กระดาน\n\n-รับซ่อมมอเตอร์ลู่วิ่ง\n\n-รับพันมอเตอร์ลู่วิ่ง\n\n-รับซ่อมอินคาย\n\n-จำหน่ายอะไหล่ลู่วิ่ง เช่น สายเซฟตี้ เป็นต้น\n\n-รับซ่อมเพลาลู่วิ่ง เปลี่ยนลูกปืนเพลาลู่วิ่ง\n\n-รับซ่อมชุดโฮมยิม\n\n-เปลี่ยนสายสลิงชุดโฮมยิม\n\n-เปลี่ยนสายพานชุดโฮมยิม\n\n-เปลี่ยนลอกชุดโฮมยิม\n\n-จำหน่ายอะไหล่ชุดโฮมยิม\n\nรับซ่อมเครื่องออกกำลังกายทุกประเภท เช่น เปลี่ยนผ้ายางลู่วิ่ง, แผงวงจร, มอเตอร์, เปลี่ยนสายสลิง เป็นต้น\nรับ Maintenance และบำรุงรักษา เครื่องออกกำลังกาย ตามบ้าน ฟิตเนส สำนักงานต่าง สถานศึกษา หน่วยงานราชการ ต่าง ๆ แบบต่อเครื่อง ต่อครั้ง ต่อปี\n-รับติดตั้ง-ขนย้าย เครื่องออกกำลังกาย\n-ให้คำแนะนำ ปรึกษาเกี่ยวกับเครื่องออกกำลังกายฟรี\n-ขายเครื่องออกกำลังกายทั้งใหม่ และมือสอง ราคาถูก \n\n\nโทรศัพท์มือถือ : 0847238284,0857337975 (AIS) ,0897834606,0881564959 (DTAC)  แฟกซ์ : 02-3932998\n\n48 หมู่บ้านนภาลัย ซ.นภาลัย 5 ถ.สุขุมวิท70/3 แขวงบางนา เขตบางนา กรุงเทพมหานคร",
        "emails": [
            "wearefitnesss@gmail.com"
        ],
        "id": "166478150117904",
        "location": {
            "city": "Bangkok",
            "country": "Thailand",
            "latitude": 13.70283,
            "longitude": 100.67317,
            "street": "289  ถนนอ่อนนุช ซอย10  แขวงสวนหลวง  เขตสวนหลวง  กรุงเทพฯ",
            "zip": "10250"
        },
        "name": "ศูนย์ซ่อมลู่วิ่งไฟฟ้าและเครื่องออกกำลังกายทุกประเภท",
        "phone": "095-760-2826,086-329-3235"
    },
    {
        "about": "ขายเครื่องดูดฝุ่น ราคาถูก เครื่องดูดฝุ่นอุตสาหกรรม เครื่องซักพรม เครื่องดูดฝุ่นดูดน้ำ",
        "description": "ขายเครื่องดูดฝุ่น เครื่องดูดฝุ่นอุตสาหกรรม เครื่องดูดฝุ่นดูดน้ำ เครื่องดูดน้ำ เครื่องซักพรม เครื่องดูดฝุ่นราคาถูก อุปกรณ์เสริม ถุงเก็บฝุ่น ท่อดูดฝุ่น หัวดูดฝุ่น ทุกชนิด รับซ่อมเครื่องดูดฝุ่นทุกชนิด 025305730-1",
        "emails": [
            "cleanovation@hotmail.com"
        ],
        "id": "587010161399915",
        "location": {
            "city": "Bangkok",
            "country": "Thailand",
            "latitude": 13.779452561905,
            "longitude": 100.60821256622,
            "street": "524 ถนนประดิษฐ์มนูธรรม วังทองหลาง",
            "zip": "10310"
        },
        "name": "108Vacuum ขายเครื่องดูดฝุ่น เครื่องดูดฝุ่นดูดน้ำ อุตสาหกรรม ราคาถูก รับซ่อม",
        "phone": "025305731"
    },
    {
        "about": "รับซ่อม เครื่องเสียง ไฟแสงสี ลำโพง และอื่นๆ",
        "description": "รับซ่อมเครื่องเสียงในบ้าน รถยนต์ PA ไฟแสงสี อัพเกรดโมดิฟายฯ พร้อมให้คำปรึกษาเกี่ยวกับอุปกรร์เครื่องเสียงของท่าน ให้ทำงานอย่างเหมาะสม",
        "id": "210136615827260",
        "name": "ร้านซ่อมเครื่องเสียง อุบลราชธานี"
    },
    {
        "about": "ปรึกษาเรื่องช่าง โทรได้ทุกเรื่อง ที่เดียวจบ คิดถึงช่าง คิดถึงเรา ลองโทรหาเราสิครับ 086-40-567-40",
        "id": "1511982592356185",
        "location": {
            "city": "Ayuthya",
            "country": "Thailand",
            "latitude": 14.34342,
            "longitude": 100.56622,
            "street": "ayutthaya",
            "zip": "13000"
        },
        "name": "รวมช่างซ่อม เครื่องใช้ไฟฟ้า แอร์ ประปา ไฟฟ้า ในอยุธยา",
        "phone": "0864056740"
    },
    {
        "about": "ช่างกลโรงงาน",
        "id": "221465651313508",
        "location": {
            "city": "จังหวัดสมุทรสาคร",
            "street": "วิทยาลัยเทคนิคสมุทรสาคร 927  ตำบลมหาชัย  อำเภอเมือง",
            "zip": "74000"
        },
        "name": "สาขาวิชาเครื่องมือกลและซ่อมบำรุง วิทยาลัยเทคนิคสมุทรสาคร",
        "phone": "034-411248-116"
    },
    {
        "about": "ยินดีรับใช้และบริการครับ  ขอบคุณทุกท่าน ที่ไว้วางใจร้านธานินทร็ อิเล็กทรอนิคน์ครับ",
        "id": "1541330576113206",
        "location": {
            "city": "Amphoe Bang Saphan",
            "country": "Thailand",
            "latitude": 11.37355,
            "longitude": 99.49528,
            "street": "118 หมู่3 ต.ธงชัย อ.บางสะพาน จ.ประจวบคีรีขันธ์",
            "zip": "77190"
        },
        "name": "ร้านธานินทร์ อิเล็กทรอนิคส์ ซ่อม ทีวี เครื่องใช้ไฟฟ้า และติดตั้งจานดาวเทียม",
        "phone": "0892096824"
    },
    {
        "about": "รับซ่อมเครื่องใช้ไฟฟ้าและรับทำโครงงาน",
        "description": "รับซ่อมเครื่องใช้ไฟฟ้า-อิเล็กทรอนิกส์ พื้นที่ใกล้เคียงบริการถึงบ้าน และรับทำโครงงานไฟฟ้าอิเล็กทรอนิกส์ทั่วประเทศ ตั้งแต่ราคาหลักร้อยจนถึงหลักหมื่น เขตพื้นที่ให้บริการที่แรกอยู่จังหวัดสุรินทร์ เขตอำเภอเมือง  เขตที่สองจังหวัดสมุทรปราการ อำเภอพระประแดง สุขสวัสดิ์ 78   ติดต่อสอบถามหรือปรึกษาได้ที่ 082-7543126,085-4193301",
        "id": "314106775370319",
        "location": {
            "city": "Samut Prakan",
            "country": "Thailand",
            "latitude": 13.585383238781,
            "longitude": 100.51614761353
        },
        "name": "บริการ รับซ่อม เครื่องใช้ไฟฟ้าอิเล็กทรอนิกส์ ถึงบ้าน และรับทำโครงงานรายวิชา",
        "phone": "0827543126,0854193301"
    },
    {
        "about": "รับซ่อม-จำหน่ายอะไหล่ เครื่องออกกำลังกาย",
        "description": "รับซ่อมเครื่องออกกำลังกาย จำหน่ายอะไหล่เครื่องออกกำลังกาย จำหน่ายเครื่องออกกำลังกายของใหม่ - เครื่องออกกำลังกายมือสอง",
        "emails": [
            "enjoysportss@gmail.com"
        ],
        "id": "503191569757492",
        "location": {
            "city": "Bangkok",
            "country": "Thailand",
            "latitude": 13.67908,
            "longitude": 100.61183,
            "street": "229 ซ.พึ่งมี 1 ถ.สุขุมวิท 93 แขวงบางจาก",
            "zip": "10260"
        },
        "name": "Enjoy Sportss จำหน่าย-ซ่อมเครื่องออกกำลังกายทุกประเภท",
        "phone": "089-534-6867,095-654-8242"
    },
    {
        "about": "Goldmare",
        "description": "ศูนย์จำหน่ายเครื่องออกกำลังกายสำหรับบ้าน และฟิตเนสเซ็นเตอร์ \nศูนย์บริการซ่อมเครื่องออกกำลังด้วยทีมงานมืออาชีพ \nให้บริการทั่วประเทศ \nให้คำแนะนำ คำปรึกษาเกี่ยวกับเครื่องออกกำลังกาย ฟรี",
        "emails": [
            "goldmare@hotmail.com"
        ],
        "id": "656669141077718",
        "location": {
            "city": "Amphoe Bang Phli",
            "country": "Thailand",
            "latitude": 13.632140704736,
            "longitude": 100.65167427063,
            "street": "9/102 หมู่ที่ 11 ตำบลบางแก้ว",
            "zip": "10540"
        },
        "name": "Goldmare ศูนย์จำหน่ายและซ่อมเครื่องออกกำลังกาย",
        "phone": "084-525-7799,0-2175-5817 Line ID : goldmare"
    },
    {
        "about": "ซ่อมเครื่องฉีดพลาสติก, อลูมิเนียม, ซิงค์",
        "description": "บริการซ่อมบำรุงรักษาเครื่องฉีด/จำหน่ายเครื่องฉีดมือสอง/รับซื้อ-ประมูลเครื่องจักรเก่า ของเก่าในโรงงานอุตสาหกรรม",
        "emails": [
            "ttt99933@hotmail.com"
        ],
        "id": "305806292869809",
        "location": {
            "city": "บางแค",
            "street": "46/3  หมู่ 1 ถ.สุขาภิบาล 1",
            "zip": "10160"
        },
        "name": "ซ่อมเครื่องฉีดทุกชนิด",
        "phone": "0802981212"
    },
    {
        "about": "ท่านต้องการ ซื้อ ขาย ซ่อม เก้าอี้นวดไฟฟ้า TEL.089-0185040/LINE-0980185040",
        "description": "รับซ่อมเก้าอี้นวดไฟฟ้าทุกรุ่น ทุกยี่ห้อและรับแปลงระบบไฟฟ้าเก้าอี้นำเข้า\nรัับหุ้มหนังเก้าอี้นวดด้วยหนังแท้ หนังpu หนังpvcงานดี ราคายุติธรรม\nรับเปลี่ยนถุงลมบีบขา เบาะนั่งของเก้าอี้นวดไฟฟ้า\nรับสั่งทำถุงลมของเก้าอี้นวดทุกยี่ห้อราคาถูกพร้อมรับประกัน 1 ปี\nมีเก้าอี้นวดไฟฟ้ามือสองจำหน่ายสภาพดีราคาถูก\nติดต่อช่าง 089-0185040 E-mail: P_singburisky@hotmail.com",
        "id": "612602418771784",
        "name": "รับซ่อมเก้าอี้นวดไฟฟ้าเครื่องนวดไฟฟ้าทุกชนิดและจำหน่ายเก้าอี้นวดมือสอง"
    },
    {
        "about": "รับซ่อมเครื่องใช้ไฟฟ้าทุกชนิด ",
        "id": "445925482244991",
        "location": {
            "city": "เมืองสมุทรสาคร",
            "street": "64 หมู่4 ต.บางน้ำจืด",
            "zip": "74000"
        },
        "name": "ชมรมศูนย์ซ่อมเครื่องใช้ไฟฟ้า+อิเล็กทรอนิกส์ ฐานเทคโนฯ",
        "phone": "0867004227"
    },
    {
        "about": "ศูนย์รับซ่อมเครื่องออกกำลังกาย ",
        "description": "-รับซ่อม เครื่องออกกำลังกาย ทุกประเภท ทุกยี่ห้อ  เช่น  STAR TRAC, JOHNSON , SLIMMATE, IMPACT, G-SPORT ,AIKO ,ALTA ,JACKY, OMA, ALTROM SPORT , MATRIX, VISION, LIVESTRONG, HORIZON, TREO, และ TEMPO , MARATHON , STEEL FLEX, SPORTOP, HEALTH STREAM, Body Solid, PUSE Fitness, Fit Plus Protcus, Body Fit และอื่น ๆ อีกมากมาย \n-รับ Maintenance เครื่องออกกำลังกาย ที่บ้าน ฟิตเนส สำนักงาน ต่าง ๆ\n-ขายเครื่องออกกำลังใหม่ - มือสอง ราคาถูก\n-จำหน่ายอะไหล่ - ดัดแปลงอะไหล่ เครื่องซ่อมเครื่องออกกำลังกาย\n-ให้คำแนะนำ ปรึกษาเกี่ยวกับเครื่องออกกำลังกาย ฟรี\n\n\nExercise Machine Repair \u0026 Maintenance Services\n\nOur expertise includes on-site repair of treadmills, electronic control panels and motors from all brands including Brands Brands throughout Bangkok and Thailand.\nCommercial customers including Health Clubs \u0026 Fitness Centres, Work places, Recreation Centres, Military, Hotels / Resorts / Apartments, Government, Schools, Emergency Services are welcome to discuss our \"Scheduled Maintenance\" service which guarantees trouble free operations all year round.\nCall us now to discuss your specific requirements with one of our \"Expert Fitness Machine Consultants free of charge.\n",
        "emails": [
            "pongservices@hotmail.com"
        ],
        "general_info": "มั่นใจในสินค้าและบริการของเราได้โดยช่างผู้ชำนาญการโดยตรง\nราคาเริ่มต้นที่ 500 บาทเท่านั้น",
        "id": "306766762715384",
        "location": {
            "city": "Bang Phli",
            "country": "Thailand",
            "latitude": 13.647672058671,
            "longitude": 100.66065215302,
            "street": "9/102 หมู่บ้านสุริยา เพอร์เฟค ซ.พัฒนาชุมชน 2 ถ.ศรีนครินทร์-บางนา ต.บางแก้ว อ.บางพลี",
            "zip": "10260"
        },
        "name": "ช่างป๋อง รับซ่อมเครื่องออกกำลังกาย ทุกชนิด ทุกยี่ห้อ",
        "phone": "0847238284 (AIS) ,0897834606 (DTAC), โทรศัพท์/แฟกซ์ 0-2175-5817"
    }
]