[
    {
        "about": "บริการซ่อมไฟฟ้า ประปา งานท่อ และซ่อมเครื่องใช้ไฟฟ้าทั่วไป ",
        "id": "608879332522465",
        "location": {
            "city": "Bangkok",
            "country": "Thailand",
            "latitude": 13.77431,
            "longitude": 100.54686,
            "street": "ดินแดง รัชดา ประตูน้ำ และบริเวณใกล้เคียง",
            "zip": "10400"
        },
        "name": "ช่างประจำบ้าน ไฟฟ้า ประปา งานท่อ และซ่อมเครื่องใชัไฟฟ้าทั่วไป",
        "phone": "037012861"
    },
    {
        "emails": [
            "hboonsatit@gmail.com"
        ],
        "id": "1500029640227217",
        "location": {
            "city": "Nakhon Ratchasima",
            "country": "Thailand",
            "latitude": 14.9596004,
            "longitude": 102.0606308,
            "street": "198/20 หมู่ 7 ต.ตลาด อ.เมือง จ.นครราชสีมา",
            "zip": "30310"
        },
        "name": "รับซ่อมเครื่องออกกำลังกาย นครราชสีมาและใกล้เคียง",
        "phone": "0872469991"
    },
    {
        "about": "รับประกันความพอใจ",
        "id": "1619518378285445",
        "location": {
            "city": "Khon Kaen",
            "country": "Thailand",
            "latitude": 16.4333,
            "longitude": 102.833,
            "street": "บ้านหนองคู",
            "zip": "40000"
        },
        "name": "ซ่อมเครื่องซักผ้า ขอนแก่น",
        "phone": "0803538511"
    },
    {
        "about": "รับติดตั้งแอร์  ซ่อมแอร์  ล้างแอร์  เติมน้ำยาแอร์",
        "id": "1505942642988479",
        "name": "รับซ่อมแอร์ติดตั้งแอร์ซ่อมเครื่องซักผ้าเครื่องใช้ไฟฟ้าทุกชนิด"
    },
    {
        "about": "Mils Music สอนดนตรี จำหน่ายเครื่องดนตรี ห้องซ้อมดนตรี โดยกลุ่มนักดนตรีอาชีพ",
        "emails": [
            "milsmusic@me.com"
        ],
        "id": "139575466140603",
        "location": {
            "city": "Chiang Mai",
            "country": "Thailand",
            "latitude": 18.790772301229,
            "longitude": 98.986007627678,
            "street": "17 จ่าบ้าน ตำบลศรีภูมิ อำเภอเมือง",
            "zip": "50200"
        },
        "name": "Mils Music สอนดนตรี จำหน่ายเครื่องดนตรี ห้องซ้อมดนตรี โดยกลุ่มนักดนตรีอาชีพ",
        "phone": "+66811800055"
    },
    {
        "id": "100537473636281",
        "name": "อ้น อิเล็กทรอนิกส์ รับซ่อม ทีวี เครื่องขยายเสียง"
    },
    {
        "about": "ติดตั้งระบบไฟ ซ่อมเครื่องใช้ไฟฟ้า",
        "description": "บริการติดตั้งซ่อมระบบไฟฟ้าภายในบ้าน เดินไฟใหม่ \nและซ่อมเครื่องใช้ไฟฟ้าทุกชนิด เขตพื้นที่  บ่อวิน สะพานสี่ ปลวกแดง 092-5430971 ช่างขวัญ",
        "id": "256381747874564",
        "location": {
            "city": "ชลบุรี",
            "street": "266/181 ม.3 ต.บ่อวิน ศรีราชา",
            "zip": "21140"
        },
        "name": "ติดตั้งซ่อมระบบไฟฟ้าในบ้านและซ่อมเครื่องใช้ไฟฟ้าทุกชนิด"
    },
    {
        "about": "*รับซ่อม ทีวี ตู้เย็น เครื่องซักผ้า เครื่องเสียง และเครื่องใช้ไฟฟ้าทุกชนิด\n",
        "id": "1629948157253697",
        "location": {
            "city": "Nakhon Ratchasima",
            "country": "Thailand",
            "latitude": 14.975,
            "longitude": 102.1,
            "street": "ตำบลไชยมงคล อำเภอเมือง จังหวัด นครราชสีมา",
            "zip": "30000"
        },
        "name": "PPMT รับซ่อมเครื่องใช้ไฟฟ้าทุกชนิด",
        "phone": "0933493809"
    },
    {
        "id": "143833559104242",
        "location": {
            "city": "Lop Buri",
            "country": "Thailand",
            "street": "434/7 ถ.รามเดโช ต.ทะเลชุบศร อ.เมือง",
            "zip": "15000"
        },
        "name": "รับ บริการล้าง ซ่อม \u0026 ติดตั้ง แอร์  ตู้เย็น เครื่องซักผ้า พัดลม",
        "phone": "081-745-4588"
    },
    {
        "about": "ขายเครื่องออกกำลังกายราคากันเอง รับซ่อมเครื่องออกกำลังกายในร่มทุกชนิด",
        "description": "รับซ่อมและจำหน่ายเครื่องออกกำลังกายในร่มทกชนิด เช่น แผงวงจร ผ้ายาง สายสลิง น้ำยาซิลิโคน ไม้กระดาน เป็นต้น ทั่วประเทศไทย โดยช่างผู้ชำนาญมากกว่า 10 ปี ค่าบริการกรุงเทพ-ปริมณฑล ครั้งละ 500 บาท ไม่รวมค่าอะไหล่ ต่างจังหวัดคิดตามระยะทาง หวังเป็นอย่างยิ่งว่าจะได้รับความไว้วางใจจากทุกท่าน\nติดต่อ         :  092-8466855\n                     084-3532881\n โทร/แฟกซ์ :  02-7546069\n--สำหรับลูกค้าที่ต้องการให้ทางเราติดต่อกลับ รบกวนฝากเบอร์โทรศัพท์ไว้ในข้อความนะคะ--",
        "id": "471081856353994",
        "location": {
            "city": "สมุทรปราการ",
            "street": "23/52ก. หมู่ที่ 9 ถนนเทพารักษ์ ตำบลบางเมือง อำเภอเมืองสมุทรปราการ"
        },
        "name": "พรกมลเซอร์วิส ซ่อมและจำหน่ายเครื่องออกกำลังกาย",
        "phone": "0928466855"
    },
    {
        "about": "รับซ่อมเครื่องซักผ้า0891125744และล้างเครื่องซักผ้าฝาบน",
        "description": "รับซ่อมเครื่องซักผ้าและล้างเครื่องซักผ้าทั้งฝาหน้า ฝาบน และเครื่องซักผ้าหยอดเหรียญ\n   พร้อมติดตั้งกล่องหยอดเหรียญทุกยี่ห้อ และให้บริการวางเครื่องซักผ้าหยอดเหรียญทั่ว กทม.\n -รับล้างเครื่องซักผ้าหยอดเหรียญ และเครื่องซักผ้าทั่วไป\n -ติดตั้งกล่องเครื่องซักผ้าหยอดเหรียญ และซ่อมกล่องหยอดเหรียญ\n - ซ่อมด่วนไม่ต้องรอนาน ราคาถูก \n - บริการถึงบ้าน (เฉพาะกรุงเทพฯ และปริมณฑล) \n - ให้บริการวางเครื่องหยอดเหรียญทั่วกรุงเทพฯ (ให้เป็น %)\n  - ติดต่อ ช่างเอก โทร. 089-1125744  ",
        "id": "567654246583949",
        "name": "รับซ่อมเครื่องซักผ้า0891125744และล้างเครื่องซักผ้าฝาบน"
    },
    {
        "about": "จำหน่ายเครื่องมือประจำตัวช่าง และ เครื่องมือซ่อมบำรุงยานยนต์ทุกชนิด",
        "id": "771843556162867",
        "location": {
            "city": "Nonthaburi",
            "country": "Thailand",
            "latitude": 13.86226,
            "longitude": 100.37279,
            "street": "47/3  ถ.รัตนาธิเบศร์ ต.เสาธงหิน",
            "zip": "11140"
        },
        "name": "จำหน่ายเครื่องมือสำหรับซ่อมรถยนต์ทุกชนิด ลิฟท์ยกรถ    สด-ผ่อน",
        "phone": "081-467-1754 / 02-921-1478"
    },
    {
        "about": "ศูนย์รับซ่อมเครื่องออกกำลังกาย ทุกประเภท ทุกยี่ห้อ โดยช่างชำนาญงาน",
        "description": "ศูนย์ซ่อมเครื่องออกกำลังกายโดยช่างชำนาญงาน  \n\n-รับซื้อ ขาย แลก-เปลี่ยน ลู่วิ่งไฟฟ้าทุกรุ่นทุกยี่ห้อ เครื่องเดินวงรี จักรยานออกกำลังกาย และเครื่องออกกำลังกาย มือหนึ่ง มือสอง\n\n- ไม่ว่าจะเป็นเครื่องเสียใช้งานไม่ได้\n\n- เครื่องเก่าไม่ได้ใช้แล้ว ต้องการขาย\n\n- รับเทิร์นของเก่า แลกของใหม่\n\nศูนย์ซ่อมเครื่องออกกำลังกายทุกรุ่น ทุกยี่ห้อ\nอาทิเช่น ลู่วิ่งไฟฟ้า เครื่องเดินวงรี( Elliptical ) ชุดโฮมยิม HomGym stepper จักรยานนั่งปั่น จักรยานเอนปั่น และเครื่องออกกำลังกายอื่นๆ .... ฯลฯ ทุกรุ่น รุ่นยี่ห้อ\n- ซ่อมแผงวงจร แผงคบวคุมระบบไฟฟ้าของเครื่องออกกำลังกาย\n- เปลี่ยนสายพานลู่วิ่ง\n- ตัด-เปลี่ยนไม้กระดานลู่วิ่ง\n- เปลี่ยนลูกปืน-แกนบูทลูกปืน\n- ซ่อม-เปลี่ยนมอเตอร์\n- เปลี่ยนสายพานขับเคลื่อน , เปลี่ยนสายสลิง\n- ดัดแปลงอะไหล่เครื่องออกกำลังกายฯลฯ\n- มีบริการทั้งในกรุงเทพปริมณฑลและทั่วประเทศ\n- รับติดตั้ง - ขนย้าย เครื่องออกกำลังกาย\n- รับ Maintenance เครื่องออกกำลังกาย ต่อครั้ง ต่อปี\nจำหน่ายอะไหล่ เครื่องออกกำลังกายทุกรุ่น ทุกยี่ห้อ\n-สายพานลู่วิ่ง รับประกันรอยต่อ นาน 6 เดือน\n-ปลอกมือจับ สายรัดเท้า บันไดปั่นจักรยาน\n- มอเตอร์เครื่องออกกำลังกายต่าง ๆ\n- จำหน่ายแผงวงจรเครื่องออกกำลังกาย ทุกรุ่น ทุกยี่ห้อ ทั้งมือหนึ่ง - มือสอง รับประกันนาน 6 เดือน - 1 ปี\n- มีบริการทั้งในกรุงเทพปริมณฑลและทั่วประเทศ ค่าบริการครั้งละ 300 - 1000 บาท หรือแล้วแต่ระยะทาง \n\nติดต่อสอบถาม : 086-3407161,088-1564959\n\ne-mail : spfitness-services@hotmail.com\n\nfacebook : https://www.facebook.com/SPFitnessServices\n\nwebsite : http://spfitness-services.webiz.co.th/\n\n--- ขอขอบคุณลูกค้าทุกท่านที่ไว้วางใจ SP Fitness Services ---",
        "emails": [
            "spfitness-services@hotmail.com"
        ],
        "id": "439161309475676",
        "location": {
            "city": "Bangkok",
            "country": "Thailand",
            "latitude": 13.701672228464,
            "longitude": 100.60989288712,
            "street": "Sukhumvit",
            "zip": "10110"
        },
        "name": "SP Fitness Services ศูนย์ซ่อมเครื่องออกกำลังกาย",
        "phone": "0863407161,0881564959"
    },
    {
        "id": "659149590825363",
        "location": {
            "city": "Bangkok",
            "country": "Thailand",
            "latitude": 13.61248,
            "longitude": 100.74425,
            "street": "ตลาดสุธาวี อ.บางพลี จ.สมุทรปราการ",
            "zip": "10540"
        },
        "name": "ร้านซ่อมเครื่องใช้ไฟฟ้า สีนิลอิเล็กทรอนิกส์",
        "phone": "0860390381"
    },
    {
        "about": "รับซ่อมปั้มน้ำ สว่าน เคื่รองมือช่าง. 0875175204 ช่างปุ๊ ครับ line 0875175204",
        "id": "616761621782802",
        "name": "ซ่อม ปั้มน้ำ สว่าน เครื่องมือช่าง ในเขตจังหวัดอุดรธานี"
    },
    {
        "about": "จำหน่าย-ติดตั้งเครื่องซักผ้าหยอดเหรียญ หาดใหญ่-สงขลา",
        "description": "บริการสั่งประกอบเครื่องซักผ้าหยอดเหรียญ\nทางเรารับติดกล่องหยอดเหรียญ เครื่องซักผ้าอัตโนมัติทั้งเครื่องฝาบนและฝาหน้า ติดตั้งได้ทั้งเครื่องใหม่มือหนึ่งและเครื่องเก่ามือสองเรายินดีให้บริการ ตัวกล่องหยอดเหรียญนำเข้าจากบริษัทชื่อดังเชื่อถือคุณภาพได้แน่นอน รับประกันตัวกล่อง 1 ปีเต็ม ติดตั้งได้ทั้ง 2 ระบบ คือ 1.ระบบตั้งเวลา และ 2.ระบบสั่งงานอัตโนมัติ \n",
        "emails": [
            "aloha_jk@hotmail.com"
        ],
        "id": "1536213649978563",
        "location": {
            "city": "Hat Yai",
            "country": "Thailand",
            "latitude": 7.0289589980732,
            "longitude": 100.43899655342,
            "street": "18 ซ.26 ถ.เพชรเกษม",
            "zip": "90110"
        },
        "name": "K.sevice บริการซ่อมเครื่องซักผ้าทุกชนิด จำหน่ายเครื่องซักผ้าหยอดเหรียญ",
        "phone": "0954892011"
    },
    {
        "about": "ล้าง ติดตั้ง แอร์ทุกชนิด\n\nซ่อมเครื่องใช้ไฟฟ้า อิเล็กทรอนิก ราคาโคตรถูกกอ้ะะ",
        "id": "1643036802598629",
        "location": {
            "city": "Amphoe Hot",
            "country": "Thailand",
            "street": "หลังท่ารถเปรมประชาฮอด",
            "zip": "50240"
        },
        "name": "ศูนย์ ซ่อมเครื่องใช้ไฟฟ้าอิเล็กทรอนิกส์ กาดใหม่",
        "phone": "0857188607"
    },
    {
        "about": "รับซ่อมเครื่องดนตรีวงโยธวาทิต",
        "id": "504280056394680",
        "location": {
            "city": "Chumphon",
            "country": "Thailand",
            "latitude": 10.5,
            "longitude": 99.1667,
            "street": "สี่แยกปฐมพร",
            "zip": "86000"
        },
        "name": "ซ่อมเครื่องดนตรีวงโยธวาทิตชุมพร",
        "phone": "0901536549"
    },
    {
        "about": "รับซ่อมเครื่องซักอบรีดอุตสาหกรรม ,ระบบไฟ,ระบบปะปา",
        "id": "1621578108106208",
        "location": {
            "city": "นครศรีธรรมราช",
            "street": "190/77 ม.7 ต.ชะมาย อ.ทุ่งสง จ.นครศรีฯ",
            "zip": "80110"
        },
        "name": "ซ่อมเครื่องซักอบรีดอุตสาหกรรม",
        "phone": "0863093650"
    },
    {
        "id": "680255392024609",
        "location": {
            "city": "Bangkok",
            "country": "Thailand",
            "latitude": 13.81913,
            "longitude": 100.67546,
            "street": "นวมินทร์ รามอินทรา คู้บอน เสรีไทย รามคำแหง มีนบุรี หทัยราษฏ์ นิมิตรใหม่ บึงกุ่ม บางกะปิ",
            "zip": "10230"
        },
        "name": "บริการ ล้าง ซ่อม แอร์ เครื่องซักผ้า \" บริการถึงบ้าน",
        "phone": "0805898478"
    },
    {
        "about": "ซ่อมเครื่องยนต์ ช่วงล่าง เบรค ครัช เปลี่ยนถ่ายน้ำมันเครื่อง",
        "description": "ซ่อมเครื่องยนต์ ช่วงล่าง เบรค เปลี่ยนถ่ายน้ำมันเครื่อง บริการประทับใจ ราคายุติธรรม ปรึกษาได้นะครับ",
        "emails": [
            "jokoil@outlook.com"
        ],
        "id": "561152857298016",
        "location": {
            "city": "Amphoe Damnoen Saduak",
            "country": "Thailand",
            "latitude": 13.5167,
            "longitude": 99.9333,
            "street": "หลังธนาคารกสิการไทยสาขาดำเนินสะดวก จ.ราชบุรี",
            "zip": "70130"
        },
        "name": "ซ่อมเครื่อง ช่วงล่าง เบรค เปลี่ยนถ่ายน้ำมันเครื่อง-ช.เจริญยนต์ เซอร์วิส",
        "phone": "092-960-3716 , 094-843-0358"
    },
    {
        "about": "รับติดตั้ง-ซ่อม ออกแบบระบบไฟฟ้าในบ้านอาคาร เครื่องปรับอากาศ ระบบcctv ประมาณราคาระบบไฟฟ้า ",
        "id": "1571820029727353",
        "location": {
            "city": "Chiang Mai",
            "country": "Thailand",
            "street": "25/4",
            "zip": "50130"
        },
        "name": "รับติดตั้ง-ซ่อม ระบบไฟฟ้าภายในบ้านอาคาร เครื่องปรับอากาศ แอร์บ้าน ระบบcctv",
        "phone": "0844859621"
    },
    {
        "about": "จำหน่ายแหวนเพชร ลดราคากว่า 50% รับทำเครื่องประดับทุกชนิด ราคาโรงงาน Sales \u0026 Promotion for Jewery",
        "emails": [
            "timework_35@hotmail.com"
        ],
        "id": "353062824894179",
        "location": {
            "city": "Bangkok",
            "country": "Thailand",
            "latitude": 13.754037738031,
            "longitude": 100.50111651421,
            "street": "154 ถนน ดินสอ แขวง เสาชิงช้า เขต พระนคร",
            "zip": "10200"
        },
        "name": "รับซ่อม/สั่งทำเครื่องประดับทุกชนิด ห้างเพชรทอง กทม. ตรงข้ามศาลาว่าการ กทม.",
        "phone": "0819256999"
    },
    {
        "about": "แก้ปัญหาแก๊สโดยเฉพาะด้าน ไม่หายไม่คิดเงิน",
        "description": "รับซ่อมรถยุโรป-ญี่ปุ่น วางเครื่อง ติดตั้งแก๊ส ช่วงล่าง เบคร คลัช ถ่ายน้ำมันเครื่อง เกียร์ เฟืองท้าย ",
        "id": "201064136611266",
        "name": "ซ่อมรถทุกประเภท วางเครื่อง ช่วงล่าง"
    },
    {
        "about": "รับซ่อมนัมเบอร์รันนิ่งสำหรับตีธง",
        "emails": [
            "ying.bb230@hotmail.com"
        ],
        "id": "328769930549871",
        "location": {
            "city": "Chiang Mai",
            "country": "Thailand",
            "street": "167/5 ถ.ทุ่งโฮเต็ล ต.วัดเกตุ อ.เมืองเชียงใหม่",
            "zip": "50000"
        },
        "name": "รับซ่อม เครื่องนัมเบอร์ริ่งสำหรับ เครื่องตีธง",
        "phone": "0850324123"
    }
]