[
    {
        "about": "จำหน่ายและออกแบบ เครื่องห้องเย็น ซ่อมเครื่องห้องเย็น ติดตั้งเครื่องห้องเย็น",
        "id": "1616411585269174",
        "location": {
            "city": "Chiang Mai",
            "country": "Thailand",
            "latitude": 18.7608929,
            "longitude": 98.9925537,
            "street": "143/39 ม.7 ต.หนองป่าครั่ง",
            "zip": "50000"
        },
        "name": "จำหน่าย ออกแบบ ติดตั้งห้องเย็น ซ่อม ล้าง เครื่องห้องเย็น เชียงใหม่",
        "phone": "086-6541474,096-7190369"
    },
    {
        "about": "รับซื้อฝากขายซ่อมเครื่องดนครี",
        "id": "904104652968949",
        "name": "รับซื้อ ฝากขายซ่อมเครื่องดนตรี MUSIC Friend"
    },
    {
        "id": "1392622457710357",
        "name": "ช่าง.ซ่อมเครื่องใช้ไฟฟ้า"
    },
    {
        "about": "จำหน่ายเครื่องล้างอัดรูป อะไหล่เครื่องล้างรูป \nและบริการซ่อมเครื่อง  ",
        "description": "จำหน่ายเครื่องล้างอัดรูป อะไหล่เครื่องล้างอัดรูป fuji, Noritsu ทุกรุ่น   \nบริการซ่อมเครื่องโดยวิศวกรชำนาญการ ยินดีให้คำปรึกษาฟรี \nประเมิณราคาค่าซ่อมก่อนทำการซ่อม",
        "emails": [
            "kai_kmitl@windowslive.com"
        ],
        "id": "216892531822599",
        "location": {
            "city": "Bangkok",
            "country": "Thailand",
            "latitude": 13.7522,
            "longitude": 100.494,
            "street": "ซอยอุดมสุข บางนา กรุงเทพฯ",
            "zip": "10260"
        },
        "name": "บริการซ่อมเครื่องล้างอัดรูป จำหน่ายเครื่องและอะไหล่เครื่องล้างอัดรูปทุกรุ่น",
        "phone": "0970105075"
    },
    {
        "about": "เครื่องปริ้นเตอร์มีปัญหาปรึกษาได้ครับ",
        "id": "1640338732880456",
        "location": {
            "city": "Nakhon Ratchasima",
            "country": "Thailand",
            "latitude": 14.9596004,
            "longitude": 102.0606308,
            "street": "นครราชสีมา",
            "zip": "30000"
        },
        "name": "รับซ่อม-เคลม เครื่องปริ้นเตอร์ - fuji xerox",
        "phone": "0854665474"
    },
    {
        "about": "ซ่อม จำหน่าย รับเทริน อุปกรณ์เครื่องมือช่างทุกชนิด\nเปิดจันทร์-อาทิตย์ เวลา 08.00 น.-19.00 น.",
        "id": "1500086380257776",
        "location": {
            "city": "บุรีรัมย์",
            "street": "240 หมู่13  ตำบลบ้านกรวด อำเภอบ้านกรวด จังหวัดบุรีรัมย์",
            "zip": "31180"
        },
        "name": "กฤษณพาวเวอร์ทู-ซ่อมและจำหน่ายเครื่องมือช่าง",
        "phone": "0880918842"
    },
    {
        "about": "สนใจสอบถามได้นะคะ\nLine : sommee44",
        "id": "1576366339271946",
        "location": {
            "city": "Khon Kaen",
            "country": "Thailand",
            "latitude": 16.02713,
            "longitude": 102.5376,
            "street": "บ้านขุมดิน อำเภอมัญจาคีรี",
            "zip": "40180"
        },
        "name": "จำหน่ายโรงสีข้าว เครื่องบดแกลบ และบริการรับซ่อมทั่วประเทศ",
        "phone": "0926126288"
    },
    {
        "about": "บริการส่งทั่วประเทศ",
        "emails": [
            "thawatchai.tc91@gmail.com"
        ],
        "id": "750141841759405",
        "location": {
            "city": "Suphan Buri",
            "country": "Thailand",
            "street": "59/5 ถ.เณรแก้ว ต.ท่าระหัด",
            "zip": "ึ72000"
        },
        "name": "89sportsgym.com สุพรรณฟิตเนส ขาย/ซอม/เปลี่ยน เครื่องออกกำลังกายทุกชนิด",
        "phone": "0871483711,ID Line :0922570762"
    },
    {
        "about": "ขาย จำหน่าย ซ่อม ร้านแอร์ เครื่องปรับอากาศ ",
        "general_info": "อินเตอร์ คลูลิ่ง แอนด์เซอร์วิส\n32/3 ม.1 ต.กุมภวาปี อ.กุมภวาปี จ.อุดรธานี 41110.\n\nให้ความไว้วางใจ ด้านงานติดตั้งและงานซ่อมนานกว่า 10 ปี \nโดยทีมช่างมืออาชีพ ผ่านการฝึกอบรมมาอย่างดี เยี่ยม!!!\n\nBy คุณสุรชัย ถนัดค้า และทีมงานสุดหล่อ.....^^\n",
        "id": "376620569136187",
        "location": {
            "city": "Bangkok",
            "country": "Thailand",
            "latitude": 17.110572510641,
            "longitude": 103.01611066404,
            "zip": "41110"
        },
        "name": "ร้านขายแอร์ อุดรธานี เครื่องปรับอากาศ ซ่อม ติดตั้ง",
        "phone": "คุณกิ๊ก พนง.ขาย 089-4220125 , เฮียสุรชัย 081-9755179"
    },
    {
        "about": "ซ่อมเครื่องถ่ายเอกสาร  ขายและเช่า",
        "emails": [
            "sattaya2537@windowslive.com"
        ],
        "id": "600681126660970",
        "location": {
            "city": "Amnat Charoen",
            "country": "Thailand",
            "latitude": 15.857366445063,
            "longitude": 104.62986897639,
            "zip": "37000"
        },
        "name": "ร้านมา มั่ง มี เซลแอนด์เซอร์วิส ศูนย์ซ่อมเครื่องถ่ายเอกสาร และ ขาย-เช่า",
        "phone": "0930748638"
    },
    {
        "id": "886414751379727",
        "name": "จำหน่าย,ซ่อมเครื่องกดน้ำหวานมือ1,2"
    },
    {
        "about": "รับซื้อ รับซ่อม มือถือทุกรุ่น บริการรับเครื่องถึงหน้าบ้าน\n089-479-1044 คุณบิ๊ก",
        "description": "ร้านใหม่เราเปิดให้บริการแล้ว \n\nรับซ่อมมือถือ ดูแลมือถือ ซ่อม จอ ทัชสกรีน \n\nรับซ่อมมือถือทุกรุ่น iPhon,iPad,Sumsungsung S4 \n\nบริการที่เรามีให้ (ในเครือ) \nลูกค้ากรุงเทพและปริมณฑล \nร้านค้าเราไปรับเครื่องซ่อมถึงบ้าน \nร้านค้าเราไปส่งเครื่องลูกค้าถึงบ้าน \n\nลูกค้าต่างจังหวัด \nส่ง มาที่ ในนาม คุณ ศิริศักดิ์ ธรรมเสมา 88/37 ม.3 หมู่บ้านสิงห์แลนด์ ตำบลปานวิถี อำเภอคลองด่าน จังหวัดสมุทรปราการ 10550\n\nข้อมูลเพิ่มเติม 089-479-1044\n\nหากคุณยังไม่รู้ว่าจะซ่อมมือถือ หรือ Tablets ของคุณที่ไหนดี \nอย่าลังเลที่จะติดต่อทีมงานของเราครับ\n\nกรุณาแจ้งช่างซ่อม มาจากร้าน Big Phone เพื่อสิทธฺ์ส่วนลด ของท่านด้วยครับ ขอบพระคุณครับ",
        "id": "498065106992354",
        "name": "รับซ่อมมือถือ สมาร์ทโฟนต่างๆ บริการรับเครื่องถึงหน้าบ้าน 089-479-1044"
    },
    {
        "id": "421986504678341",
        "name": "เปิดร้านซ่อมเครื่องใช้ไฟฟ้าและเครื่องทำคาวมเย็น"
    },
    {
        "about": "รับซ่อมประกอบคอมพิวเตอร์และเดินระบบเน็ตเวิร์ค (ลำพูน - เชียงใหม่ )",
        "description": "รับซ่อมประกอบคอมพิวเตอร์ เดินระบบเน็ตเวิร์ค และขายเครื่องปริ้นเตอร์ ทุกรุ่น เครื่องถ่ายเอกสารของ KYOCERA  (ลำพูน - ลำปาง - เชียงใหม่ )\nติดต่อได้ที่เบอร์ 084-1500420,083-9414633\nFACEBOOK https://www.facebook.com/nattapol.jommanee.7\nE-MAIL  nattapol_nmbk@hotmail.com",
        "id": "421255201264621",
        "name": "รับซ่อมคอมประกอบคอมเดินระบบและขายเครื่องถ่ายเอกสารปริ้นเตอร์"
    },
    {
        "about": "เคมีภัณฑ์",
        "description": "ซ่อมบำรุงรักษา เครื่องพ่นหมอกควัน ยูแอลวี กำจัดยุง มด แมลงวัน ปลวก บจก.มณีรัตนะกรีน กระทุ่มแบน สมุทรสาคร 081-354-3229 ...086-378-3055 จำหน่ายเครื่องพ่นหมอกควัน เครื่องพ่นยูแอลวี มือ 1 และมือ  2 รองเท้าบู๊ทกันฉี่หนู ถุงนอน ถังดับเพลิง กรวยจราจร เสื้อชูชีพ ถังดักไขมัน เครื่องมืออุปกรณ์การแพทย์ เตียงผู้ป่วย เครื่องวัดความดัน เครื่องชั่งน้ำหนัก ชุดทดสอบน้ำตาล Accu-chek ",
        "general_info": "ศูนย์ซ่อมเครื่องพ่นหมอกควัน เครื่องพ่นยูแอลวี ที่ดีที่สุดในประเทศ",
        "id": "244091655649012",
        "name": "กำจัดยุง ลูกน้ำ ซ่อมเครื่องพ่นหมอกควัน เครื่องมือแพทย์"
    },
    {
        "about": "ขาย+รับซ่อมเครื่องตัดหญ้า อุปกรณ์พร้อมอะไหล่ สามารถโทรติดต่อได้ที่เบอร์\n02-538-1527, 02-514-1082, 092-770-3685\n\n",
        "description": "ร้านวิสิฐยนต์ ขาย+รับซ่อมเครื่องตัดหญ้า\nอุปกรณ์เครื่องตัดหญ้าพร้อมอะไหล่\nเครื่องตัดหญ้าถูกของแท้-จีน-ไต้หวัน\nHONDA MAKITA ROBIN HITACHI OLEO-MAC HUSQVARNA MARUNAKA",
        "emails": [
            "visit-yon116@hotmail.com"
        ],
        "id": "227735260750484",
        "location": {
            "city": "Bangkok",
            "country": "Thailand",
            "latitude": 13.779127959523,
            "longitude": 100.62120906737,
            "street": "20/151 ถ.ลาดพร้าว118-116 แขวง/เขต วังทองหลาง กรุงเทพฯ 10310 โทร. 02-5381527, 02-5141082",
            "zip": "10310"
        },
        "name": "ร้าน วิสิฐยนต์ จำหน่าย+ซ่อมเครื่องตัดหญ้าพร้อม อะไหล่แท้\"มือ1\"",
        "phone": "025381527"
    },
    {
        "id": "959126824132879",
        "location": {
            "city": "Bangkok",
            "country": "Thailand",
            "latitude": 13.6489096,
            "longitude": 100.5033493,
            "street": "897/160 ,ซอย ประชาอุทิศ 59  แยก  5 , บางมด  ทุ่งครุ",
            "zip": "10140"
        },
        "name": "M.P.electric รับซ่อมเครื่องเชื่อม Iverter และเครื่องมือช่าง",
        "phone": "0888888888"
    },
    {
        "about": "Official Fanpage of Power Air System Co., Ltd. Tel: 0-2136-5031-7 E-Mail:marketing@powerairsystem.co.th",
        "description": "บริษัทดำเนินธุรกิจนำเข้าและจัดจำหน่ายเครื่องอัดอากาศ (Air Compressors) ขนาด 5 - 3500 แรงม้า พร้อมบริการหลังการขายครบวงจร",
        "emails": [
            "marketing@powerairsystem.co.th"
        ],
        "id": "131368226936205",
        "location": {
            "street": "988 หมู่ 7 ถนนคลองส่งน้ำสุวรรณภูมิ ต.บางปลา อ.บางพลี จ. สมุทรปราการ",
            "zip": "10540"
        },
        "name": "Power Air System ขาย ซ่อม ให้เช่า เครื่องอัดลม",
        "phone": "021365031"
    },
    {
        "id": "764835103625374",
        "name": "ช่างซอมเครื่อง"
    },
    {
        "id": "472528849583762",
        "name": "ขายกาแฟโบราณ เย็นชา ซ่อมเครื่องใช้ไฟฟ้าทุกชนิด รับติดตั้งจานดาวเทียม"
    },
    {
        "id": "737220219739302",
        "name": "ร้าน ซ่อม เครื่องถ่ายเอกสารทุกรุ่น"
    },
    {
        "id": "771976166265188",
        "name": "ช่างซ่อมเครื่องซักผ้า ล้างแอร์"
    },
    {
        "id": "948476185184212",
        "name": "ศูนย์บริการซ่อมเครื่องพ่นหมอกควัน"
    },
    {
        "about": "บริการโดยวิศวะกรและช่างผู้ชำนานงานประสบการณ์มากกว่า20ปีเต็ม",
        "emails": [
            "pongthorn.chiangpa@gmail.com"
        ],
        "id": "1542208712719248",
        "location": {
            "city": "Samut Sakhon",
            "country": "Thailand",
            "latitude": 13.70035,
            "longitude": 100.30529,
            "street": "150/365 ต.อ้อมน้อย อ.กระทุ่มแบน",
            "zip": "74130"
        },
        "name": "รับติดตั้งไฟฟ้า-ซ่อมระบบไฟฟ้าเครื่องจักร-ติดตั้งไฟฟ้าภายในบ้าน",
        "phone": "087-0100957"
    },
    {
        "about": "จำหน่าย ติดตั้ง ซ่อม ล้าง เครื่องซักผ้าหยอดเหรียญ ตู้น้ำหยอดเหรียญ กล่องหยอดเหรียญ",
        "description": "วิธีการติดต่อ\n1. ผ่านทางเพจ facebook\n2. ไลน์ ไอดี : tooktazija\n3.โทร. 076-319418, 081-079-6821, 081-693-7497\n\n วิธีการชำระเงิน\n1.ชำระด้วยเงินสดเต็มจำนวน หรือ 70 เปอร์เซ็นต์ ของราคาสินค้า\n2.โอนเงินผ่านบัญชีธนาคาร\n\nวิธีการจัดส่ง\n1.ในจังหวัดภูเก็ตจัดส่งฟรี\n2. ต่างจังหวัดส่งบริษัทขนส่ง หรือทางร้านส่งให้โดยคิดค่าขนส่ง",
        "id": "1560999227512450",
        "location": {
            "city": "Kathu",
            "country": "Thailand",
            "latitude": 7.91055,
            "longitude": 98.33881,
            "street": "Kathu",
            "zip": "83120"
        },
        "name": "เครื่องซักผ้าหยอดเหรียญเอสแอลเซอร์วิส จำหน่าย ติดตั้ง ซ่อม ล้าง",
        "phone": "076319418"
    }
]