[
    {
        "about": "ขาย เครื่องขัดพื้นราคาถูก เครื่องขัดพื้นมือสอง รับซ่อม ให้เช่า 175รอบ",
        "description": "ขายเครื่องขัดพื้น เครื่องขัดพื้นมือสอง เครื่องขัดพื้นฝากขาย เครื่องขัดพื้นราคาถูก เครื่องขัดเงาพื้น เครื่องขัดพื้นอัตโนมัติ ให้เช่าเครื่องขัดพื้น 025305730-1 รับซื้อ ขาย แลกเปลียน ซ่อมเครื่องขัดพื้นทุกชนิด ขายอุปกรณ์สำหรับเครื่องขัดพื้นทุกชนิด แปรงไนล่อน แปรงลวด แผ่นขัดพื้น ถังแชมพู น้ำยาขัดพื้น และอะไหล่เครื่องขัดพื้นทุกชนิด",
        "emails": [
            "cleanovation@hotmail.com"
        ],
        "id": "724630507572131",
        "location": {
            "city": "Bangkok",
            "country": "Thailand",
            "latitude": 13.779773060501,
            "longitude": 100.60815481567,
            "street": "524 ถนนประดิษฐ์มนูธรรม วังทองหลาง",
            "zip": "10310"
        },
        "name": "108FloorMachine ขายเครื่องขัดพื้น เครื่องขัดพื้นมือสอง ราคาถูก รับซ่อม",
        "phone": "025305730"
    },
    {
        "id": "1504485583199457",
        "location": {
            "city": "Amphoe Thalang",
            "country": "Thailand",
            "latitude": 7.8846216,
            "longitude": 98.3893204,
            "street": "245/18",
            "zip": "83110"
        },
        "name": "ซ่อมเครื่องมือไฟฟ้าภูเก็ต",
        "phone": "095-0269505"
    },
    {
        "id": "901197529957160",
        "location": {
            "city": "Nong Khai",
            "country": "Thailand",
            "latitude": 17.8761,
            "longitude": 102.744,
            "street": "บ้านศรีเจริญ",
            "zip": "43000"
        },
        "name": "เอ อนันต์ รับซ่อมเครื่องใช้ไฟฟ้า หนองคาย",
        "phone": "0846027483"
    },
    {
        "id": "1526192974339126",
        "location": {
            "city": "Pattaya",
            "country": "Thailand",
            "latitude": 12.9463997,
            "longitude": 100.9279175,
            "street": "17/7 หมู่ 5 ต.หนองปรือ อ.บางละมุง จ.ชลบุรี",
            "zip": "20150"
        },
        "name": "ซ่อมเครื่องซักผ้าพัทยา",
        "phone": "0819621049"
    },
    {
        "id": "988624741208840",
        "location": {
            "city": "บ้านหมี่",
            "street": "157 ถ.เทศบาล ต.บ้านหมี่ อ.บ้านหมี่ จ.ลพบุรี",
            "zip": "15110"
        },
        "name": "ร้านเริงทีวี จำหน่ายอะไหล่ - รับซ่อมเครื่องใช้ไฟฟ้า",
        "phone": "0892412753"
    },
    {
        "id": "120834168269323",
        "location": {
            "city": "Nakorn Si Thamarat",
            "country": "Thailand",
            "latitude": 8.42996986799,
            "longitude": 99.963525659,
            "street": "99/15 ราชดำเนิน ต.ในเมือง อ.เมือง",
            "zip": "80000"
        },
        "name": "พัฒน์นครศูนย์บริการซ่อม Regal และเครื่องใช้ไฟฟ้าภายในบ้านทุกชนิด"
    },
    {
        "id": "629392733840493",
        "name": "ซ่อมเครื่อง"
    },
    {
        "about": "ซ่อมแอร์  จานดาวเทียมและเครื่องใช้ไฟฟ้าทุกชนิด 082-1865521 \n(บริการนอกสถานที่)",
        "id": "800861393269599",
        "name": "ซ่อมแอร์และเครื่องใช้ไฟฟ้าเชียงใหม่ 082-1865521"
    },
    {
        "id": "1469843209991724",
        "name": "ช่างซ่อมอุปกรณ์เครื่องใช้ไฟฟ้า"
    },
    {
        "about": "ร้านซ่อมเครื่องใช้ไฟฟ้า เครื่องใช้สำนักงาน บางบัวทอง นนทบุรี",
        "description": "ร้านซ่อมเครื่องใช้ไฟฟ้า เครื่องใช้สำนักงาน บางบัวทอง นนทบุรี",
        "id": "150264725073277",
        "location": {
            "city": "Bang Bua Thong",
            "country": "Thailand",
            "street": "ซอยถนนเเทศบาล7 ตลาดบางบัวทอง นนทบุรี",
            "zip": "11110"
        },
        "name": "ร้านซ่อมเครื่องใช้ไฟฟ้า เครื่องใช้สำนักงาน บางบัวทอง นนทบุรี",
        "phone": "0815501368"
    },
    {
        "id": "1684337961787645",
        "location": {
            "city": "Pattaya",
            "country": "Thailand",
            "latitude": 12.9333,
            "longitude": 100.883,
            "street": "ชลบุรี",
            "zip": "59/43"
        },
        "name": "ซ่อมตู้แช่ซ่อมเครื่องซักผ้า",
        "phone": "0929389135"
    },
    {
        "id": "977143665677782",
        "location": {
            "city": "Pathum Thani",
            "country": "Thailand",
            "latitude": 13.9658298,
            "longitude": 100.5340881,
            "street": "18/6-7",
            "zip": "12150"
        },
        "name": "รับซ่อมคอมพิวเตอร์ ประกอบเครื่อง  เขตลำลูกกา-รังสิต-นวมินบั",
        "phone": "0889625329"
    },
    {
        "id": "445296382338821",
        "name": "เจ้าของร้าน รับซ่อมเครื่องใช้ไฟฟ้า)"
    },
    {
        "id": "1468597990116230",
        "location": {
            "city": "Bangkok",
            "country": "Thailand",
            "street": "333 เขตคลองเตย แขวงคลองเตย",
            "zip": "10110"
        },
        "name": "คมเดชแอร์ - บริการซ่อมบำรุงรักษาเครื่องปรับอากาศทุกชนิด",
        "phone": "0890958594"
    },
    {
        "id": "1504466619872024",
        "name": "ซอมเครื่องอวกาศ"
    },
    {
        "id": "1024114287620611",
        "name": "ซ่อมได้เครื่องใช้ใน สนง"
    },
    {
        "id": "1498920373754982",
        "location": {
            "city": "Bang Pakong",
            "country": "Thailand",
            "latitude": 13.5303259,
            "longitude": 100.9600891
        },
        "name": "ร้านซ่อมคอม-เครื่องปลิ้น"
    },
    {
        "id": "238875229531159",
        "location": {
            "city": "Sungmen",
            "country": "Thailand",
            "latitude": 18.1739101,
            "longitude": 100.17556,
            "street": "212 ม. 10 ถนนยันตรกิจโกศล ต.ร่องกาศ อ.สูงเม่น จ.แพร่",
            "zip": "54130"
        },
        "name": "ซ่อมแอร์ ฟิล์ม เครื่องเสียง สัญญาณกันขโมย เครื่องยนต์มีปัญหา",
        "phone": "054-660316"
    },
    {
        "id": "791201140977142",
        "name": "เครื่องมือช่าง และอุปกรณ์ซ่อมบำรุงรถยนต์ ครบวงจร"
    },
    {
        "id": "204415739741361",
        "location": {
            "city": "Bangkok",
            "country": "Thailand",
            "latitude": 13.77431,
            "longitude": 100.54686,
            "street": "กรุงเทพ อนุสาวรีย์ชัยสมรภูมิ",
            "zip": "10400"
        },
        "name": "รับซ่อมแมคโครแทรกเตอร์เครื่องจักรหนัด",
        "phone": "0850473172"
    },
    {
        "about": " ขายเครื่องเสียงมือสองอะไหล่คอมพิวเตอร์มือสองพร้อมบริการซ่อมครบวงจร",
        "emails": [
            "vira95418@gmail.com"
        ],
        "id": "892207427528853",
        "location": {
            "city": "Ubon Ratchathani",
            "country": "Thailand",
            "street": "อ เมืองอุบลราชธานี",
            "zip": "34000"
        },
        "name": "ขายเครื่องเสียงมือสองอะไหล่คอมพิวเตอร์มือสองพร้อมบริการซ่อมครบวงจร",
        "phone": "0885840747"
    },
    {
        "about": "ขายเครื่องซ่อม และปรับแต่งไม้กอล์ฟทุกชนิด",
        "id": "351700784983915",
        "location": {
            "city": "Chonburi",
            "country": "Thailand",
            "latitude": 13.07057,
            "longitude": 101.01935,
            "street": "Chonburi",
            "zip": "20230"
        },
        "name": "เครื่องซ่อม และปรับแต่งไม้กอล์ฟ",
        "phone": "0856502531"
    },
    {
        "general_info": "รับซ่อม สว่าน ,หินเจียร ,แท่นตัดไฟเบอร์ ,เครื่องสกัดปูน จี้ปูน ,เครื่องเลื่อยไม้ ,วงเดือน ,เลาเตอร์ ,จิ๊กซอร์ ,\nขัดกระดาษทราย ,เครื่องมือไฟฟ้าทุกชนิด ,รับพันทุ่น AC-DC ,รับตั้งบาลานท์ (ตั้งศูนย์ทุ่น)",
        "id": "348877328589445",
        "location": {
            "city": "Nonthaburi",
            "country": "Thailand",
            "latitude": 13.87534331,
            "longitude": 100.42956736,
            "street": "58/1 หมู่ 1 ถนนรัตนาธิเบศร์ ตำบลบางรักใหญ่ อำเภอบางบัวทอง",
            "zip": "11110"
        },
        "name": "วิรัช การช่าง-รับซ่อมเครื่องมือช่างทุกชนิด",
        "phone": "0914650940"
    },
    {
        "about": "รับซ่อม มอเตอร์เครื่องซักผ้า มอเตอร์โรงงาน",
        "id": "316127165196459",
        "location": {
            "city": "Bangkok",
            "country": "Thailand",
            "latitude": 9.09542,
            "longitude": 99.3073,
            "street": "115/4 หมู่1 ตำบลบางกุ้ง  อำเภอเมือง จังหวัดสุราษฎร์ธานี",
            "zip": "84000"
        },
        "name": "ร้านบูรพามอเตอร์ ซ่อมมอเตอร์โรงงาน มอเตอร์เครื่องซักผ้า",
        "phone": "0810778175"
    },
    {
        "about": "จำหน่าย / รับซ่อม / รับซื้อมือ 2 เครื่องเกมทุกรุ่น",
        "emails": [
            "fixconsolethailand@outlook.com"
        ],
        "id": "1435934149965054",
        "location": {
            "city": "Bangkok",
            "country": "Thailand"
        },
        "name": "Fixconsolethailand รับซ่อมเครื่องเกม แปลงเครื่อง ซื้อขายมือสอง",
        "phone": "0887551168"
    }
]