[
    {
        "id": "428475960559556",
        "location": {
            "latitude": 12.935510571333,
            "longitude": 101.51827561933
        },
        "name": "ร้านซ่อมเครื่องใช้ไฟฟ้า"
    },
    {
        "about": "ซ่อมเครื่องชั่งน้ำหนัก รับซ่อมตาชั่งบริการติดตั้งเครื่องชั่ง ทั่วประเทศ",
        "description": "จำหน่ายเครื่องชั่ง อะไหล่เครื่องชั่ง ในราคาถูก เครื่องชั่งดิจิตอลครบวงจร",
        "emails": [
            "digitalweighing.net@gmail.com"
        ],
        "general_info": "จำหน่ายเครื่องชั่ง อะไหล่เครื่องชั่ง ในราคาถูก เครื่องชั่งดิจิตอลครบวงจร",
        "id": "333303156866499",
        "location": {
            "city": "Bangkok",
            "country": "Thailand",
            "latitude": 13.688021818156,
            "longitude": 100.36422022491,
            "street": "35/19-20 ซ.เลียบคลองภาษีเจริญฝั่งเหนือ แขวงหนองแขม  เขตหนองแขม",
            "zip": "10160"
        },
        "name": "ซ่อมเครื่องชั่งน้ำหนักรับซ่อมตาชั่งบริการติดตั้งเครื่องชั่งทั่วประเทศ",
        "phone": "02-8076989"
    },
    {
        "about": "ใส่ใจ จริงใจ เที่ยงตรงในบริการ",
        "id": "486295811531388",
        "location": {
            "city": "Phayao",
            "country": "Thailand",
            "street": "200/10 ต.จำป่าหวาย อ.เมือง จ.พะเยา",
            "zip": "56000"
        },
        "name": "รับซ่อมเครื่องชงกาแฟสดทั่วประเทศ",
        "phone": "0932696652"
    },
    {
        "id": "904029912975628",
        "name": "บริการรับติดตั้งแอร์ ล้าง ซ่อม และเครื่องใช้ไฟฟ้า พัทยา"
    },
    {
        "description": "บริการซ่อมเครื่องยนต์ ช่วงล่าง เบรก คลัช กลอนประตู กระจกไฟฟ้า เซ็นทรัลล็อก สัญญาณกันขโมย ระบบไฟรถยนต์ กุญแจ หม้อน้ำ ถ่ายน้ำมันเครื่องรถทุกชนิ",
        "emails": [
            "ิbasservice88@gmail.com"
        ],
        "id": "139661779538156",
        "location": {
            "city": "Sukhothai",
            "country": "Thailand",
            "latitude": 16.99196,
            "longitude": 99.82875,
            "street": "183/17 ถ.วิเชียรจำนงค์ ต.ธานี อ.เมือง",
            "zip": "64000"
        },
        "name": "บาสเซอร์วิส บริการซ่อมเครื่องยนต์ ช่วงล่าง ระบบไฟฟ้ารถยนต์ หม้อน้ำ กุญแจ",
        "phone": "0805041114"
    },
    {
        "about": "รับซ่อมอุปกรณ์ไฟฟ้าทุกชนิด",
        "description": "จริงใจ ว่องไว รู้ลึก รู้จริง\nราคากันเอง",
        "emails": [
            "anek.moonla.1@facebook.com"
        ],
        "general_info": "8/126\nหมู่บ้านชัยมงคล\nถนน สุขาภิบาล1\nเขต บางแค\nแขวง บางแค\nกรุงเทพ\n10160",
        "id": "636885066377046",
        "location": {
            "city": "Bangkok",
            "country": "Thailand",
            "latitude": 13.70426,
            "longitude": 100.40088,
            "street": "บางแค",
            "zip": "10160"
        },
        "name": "ร้านซ่อมเครื่องใช้ไฟฟ้า บางแค อเนกการไฟฟ้า",
        "phone": "+66-89-0663263"
    },
    {
        "about": "รับซ่อมเครื่องใช้ไฟฟ้าภายในบ้าน บริการถึงที่ service ทันใจ ",
        "id": "792443407434200",
        "location": {
            "city": "Thailand",
            "street": "banchang",
            "zip": "10540"
        },
        "name": "ร้านบ้านช่าง รับซ่อมเครื่องใช้ไฟฟ้าทุกชนิด",
        "phone": "0879458754"
    },
    {
        "about": "service by tong",
        "id": "1631843117097881",
        "location": {
            "city": "อ.เมือง จ.อุดรธานี",
            "street": "ต.หนองบัว",
            "zip": "41000"
        },
        "name": "งานรับซ่อม/ติดตั้ง เครื่องใช้ไฟฟ้าและระบบประปา-อุดร",
        "phone": "0934350895"
    },
    {
        "description": "สอบถามละเอียด สินค้า หรือ สอบถามข้อมูลตามเบอร์โทรครับ Kron 0852779155",
        "emails": [
            "kron_service@hotmail.com"
        ],
        "id": "395753323823315",
        "location": {
            "city": "ลำปาง",
            "street": "ลำปาง",
            "zip": "52100"
        },
        "name": "ร้านซ่อมรถ พระเครื่อง",
        "phone": "085-2779155"
    },
    {
        "about": "ตั้งอยู่ด้านในสุดของ บขส.โคกสำโรง (K .Land)",
        "id": "188434544622900",
        "name": "ห้องซ้อมดนตรี และขายเครื่องดนตรี"
    },
    {
        "about": "ซ่อมเครื่องใช้ไฟฟ้า\nแก้ไข ย้าย ติดตัง ระบบจานดาวเทียม",
        "emails": [
            "gorragot256@gmail.com"
        ],
        "id": "1500967780140593",
        "location": {
            "city": "Tron",
            "country": "Thailand",
            "street": "4/9 ม.4 ต.ข่อยสูง อ.ตรอน .จอุตรดิตถ์",
            "zip": "53140"
        },
        "name": "ดงจันทร์ บริการซ่อมเครื่องใช้ไฟฟ้าและระบบจานดาวเทียม",
        "phone": "097-9494347"
    },
    {
        "about": "บริการรับซ่อมอุปกรณ์ดนตรีอิเล็กทรอนิกส์  เอฟเฟคกีต้า  คีบอร์ด อิเล็กโทน  D4  DM5",
        "id": "897898866903994",
        "location": {
            "city": "Sisakate",
            "country": "Thailand",
            "latitude": 14.62129,
            "longitude": 104.15586,
            "street": "291 ม.2 ต.โสน อ.ขุขันธ์ จ.ศรีสะเกษ",
            "zip": "33140"
        },
        "name": "ซ่อมเครื่องดนตรีอิเล็กทรอนิกส์",
        "phone": "083-7339947"
    },
    {
        "about": "ซ่อมบำรุง",
        "id": "487543861322879",
        "location": {
            "city": "สระบุรี"
        },
        "name": "ซ่อมบำรุงเครื่องจักกลโรงงาน",
        "phone": "087-995-7664"
    },
    {
        "about": "จำหน่าย\u0026ซ่อม อิเล็กทรอนิกส์ทั่วไป",
        "id": "1530310137227794",
        "location": {
            "city": "Khanu Woralaksaburi",
            "country": "Thailand",
            "latitude": 16.00522,
            "longitude": 99.59017,
            "street": "1062",
            "zip": "62140"
        },
        "name": "ร้าน แสงชัยอิเล็กทรอนิกส์ จำหน่าย อะไหล่ ซ่อมเครื่องใช่ไฟฟ้าทั่วไป",
        "phone": "0833313316"
    },
    {
        "about": "http://www.apple2hand.com",
        "description": "สาขา 2 เปิดแล้วคับ  อยู่ที่ ลาดพร้าว ซ. 60 นะคับ",
        "emails": [
            "f4zii2_away@hotmail.com"
        ],
        "id": "446067015441560",
        "location": {
            "city": "Bangkok",
            "country": "Thailand",
            "latitude": 13.7168255,
            "longitude": 100.499649,
            "street": "541 ซ.เจริญนคร 28 แขวง/บางลำภูล่าง   เขต/คลองสาน",
            "zip": "10600"
        },
        "name": "Apple Parts รับซ่อมและจำหน่ายเครื่องและอะไหล่ Apple \u0026 PC ทุกชนิด",
        "phone": "0855127639"
    },
    {
        "id": "216545075136990",
        "location": {
            "city": "Amnat Charoen",
            "country": "Thailand",
            "latitude": 15.80498,
            "longitude": 104.63055,
            "street": "ต.โนนหนามแท่ง อ.เมือง",
            "zip": "37000"
        },
        "name": "ซ่อมเครื่องถ่ายเอกสาร จำหน่าย ให้เช่าและให้คำปรึกษา",
        "phone": "0821542102"
    },
    {
        "about": "รับซ่อมเครื่องใช้ไฟฟ้า ราคาย่อมเยา หารายได้เสริมระหว่างเรียนคับ\n0804694155",
        "id": "449273291803265",
        "location": {
            "city": "Bangkok",
            "country": "Thailand",
            "street": "เทเวศร์"
        },
        "name": "ช่าง กบ รับซ่อมเครื่องใช้ไฟฟ้าทุกชนิด",
        "phone": "0804694155"
    },
    {
        "about": "รับซ่อม ปั๊มน้ำ เครื่องตัดหญ้า เครื่องทำน้ำอุ่น สว่าน เครื่องเจียไฟฟ้า\nแถวฝั่งธนฯ\n",
        "id": "138411642935869",
        "location": {
            "city": "Bangkok",
            "country": "Thailand",
            "street": "บางแค หนองแขม หลักสอง"
        },
        "name": "รับซ่อม ปั๊มน้ำ เครื่องตัดหญ้า เครื่องทำน้ำอุ่น สว่าน เครื่องเจีย",
        "phone": "0990536356"
    },
    {
        "about": "บริการ ซ่อม เครื่องใช้ไฟฟ้าและติดจานดาวเทียม ราคากันเอง\nโคกโพธิ์ ปัตตานี\n Tel  : 0808742151 \nLine : sunzate",
        "id": "395419710610552",
        "name": "Sunservice บริการซ่อม เครื่องใช้ไฟ้า โคกโพธิ์"
    },
    {
        "about": "บริการซ่อมและติดตั้งแอร์ทุกยี่ห้อ              081-139-7575,092-526-2290",
        "id": "1415980185320676",
        "name": "ซ่อมและติดตั้งเครื่องปรับอากาศ"
    },
    {
        "about": "สาธุ ออโต้ เซอร์วิส รับซ่อมรถยนต์ วางเครื่อง ดัดแปลงช่วงล่าง ติดตั้งแก๊ส ",
        "description": "อู่บริการตรวจ เช็ค ซ่อมรถยนต์ทุกยี่ห้อ รับดัดแปลง วางเครื่องยนต์ร รับดัดแปลงช่วงล่าง  และติดตั้งแก๊ส อู่ซ่อมรถพระราม 3",
        "id": "269410736514468",
        "location": {
            "city": "Bangkok",
            "country": "Thailand",
            "latitude": 13.677668288947,
            "longitude": 100.53329748684,
            "street": "สาธุ ออโต้เซอร์วิส ถนนพระราม 3 ซอย 41 หรือ ถนนสาธุประดิษฐ์ 57  ยานนาวา",
            "zip": "10120"
        },
        "name": "Sathu Auto Servicesอู่ซ่อมรถยนต์พระราม 3ช่วงล่างวางเครื่องติดแก๊ส",
        "phone": "+66863682726"
    },
    {
        "about": "ทีมช่างคุณภาพบริการในเขตกรุงเทพและปริมณฑล\n",
        "id": "342107022593821",
        "location": {
            "city": "Bangkok",
            "country": "Thailand",
            "latitude": 13.8030796,
            "longitude": 100.8133087,
            "street": "33/2",
            "zip": "10530"
        },
        "name": "บริการซ่อมบ้าน ประปา เครื่องปรับอากาศ ไฟฟ้า 0856677812",
        "phone": "0856677812"
    },
    {
        "about": "เพื่อโปรโหมดร้าน",
        "id": "940227086036904",
        "location": {
            "city": "Nakhon Si Thammarat",
            "country": "Thailand",
            "latitude": 8.4167299,
            "longitude": 99.9175491,
            "street": "1/13 ม.11 ต.ควนทอง อ.ขนอม จ.นครศรธรรมราช  (  บ้านท่าน้อย)",
            "zip": "80210"
        },
        "name": "ร้านซ่อม ทีวี  lcd led จานดาวเทียม กล้องวงจรปิด และเครื่องไช้ไฟฟ้าทุกชนิด",
        "phone": "0898714436"
    },
    {
        "id": "516609428491432",
        "location": {
            "city": "Amphoe Khlong Khlung",
            "country": "Thailand",
            "latitude": 16.2,
            "longitude": 99.7167,
            "street": "วังบัว..",
            "zip": "62120"
        },
        "name": "ซ่อมเครื่องใช้ไฟฟ้าแอลซีดี Led พลาสม่า - กำแพงเพชร",
        "phone": "0824048085"
    },
    {
        "about": "ขายเครื่องดนตรีเก่าและใหม่ ซื้อ ขาย แลกเปลี่ยน รับสอน",
        "description": "ร้านWattHengHeng จำหน่ายGuitaมือหนึ่งมือสอง\nรับซื้อขายแลกเปลี่ยน รับสอนGuita \nมีหน้าร้านอยู่ริมคลองหลอด ",
        "id": "522276711192578",
        "location": {
            "city": "Bangkok",
            "country": "Thailand",
            "latitude": 13.7666779,
            "longitude": 100.5154953,
            "street": "ถนน พระราม 5 ปากซอยนครอินทร์ 8",
            "zip": "11000"
        },
        "name": "วัฒน์เฮงเฮง ซ่อมซื้อขายแลกเปลี่ยนเครื่องดนตรี",
        "phone": "08-1822-4248 , 08-6984-4049"
    }
]