[
    {
        "about": "รับซ่อมเครื่องประดับด้วยเลเซอร์ งานต่อสร้อย ต่อแหวน ทำไซส์ ยินดีรับส่งทาง EMS",
        "description": "รับซ่อมเครื่องประดับด้วยเลเซอร์ ตามชนิดของโลหะ เงิน ทอง ราคาถูกๆ รับเลเซอร์งานกอง คิดราคาพิเศษ",
        "id": "758039550947743",
        "location": {
            "city": "Bangkok",
            "country": "Thailand",
            "latitude": 13.72412,
            "located_in": "233104140117661",
            "longitude": 100.52845,
            "street": "BIS Tower ห้อง4F6 ถ.มเหสักข์ บางรัก",
            "zip": "10500"
        },
        "name": "Friend's Laser ซ่อมเครื่องประดับ ด้วยเลเซอร์",
        "phone": "026357645"
    },
    {
        "about": "รับซ่อม tv lcd ทุกชนิด บริการรับส่งถึงบ้าน พร้อมรับประกันงานซ่อม ราคาไม่แพง ",
        "emails": [
            "nutcb3@gmail.com"
        ],
        "id": "811458935557145",
        "location": {
            "city": "Bangkok",
            "country": "Thailand",
            "street": "105/71-74 ซอย ประชาอุทิศ 45 แขวง บางมด เขต ทุ่งครุ",
            "zip": "10140"
        },
        "name": "รับซ่อม Tv Lcd บริการรับส่งเครื่องถึงบ้าน 081-018-0020 ช่างนัด",
        "phone": "0810180020"
    },
    {
        "id": "943600849004190",
        "name": "จำหน่ายและรับซ่อม เครื่องประดับมุกแท้ หยกและหินสี"
    },
    {
        "about": "ขายปลีกขายส่ง รับสอน รับผลิต รับซ่อมและสปา เครื่องหนังทุกชนิด ติดต่อเรา",
        "id": "778905575556910",
        "name": "Sornsan brand ซ่อมกระเป๋า\u0026สปากระเป๋าและผลิตภันฑ์เครื่องหนังทุกชนิด"
    },
    {
        "id": "453847221317810",
        "name": "เครื่องมือกลและซ่อมบำรุง"
    },
    {
        "id": "1775626492663558",
        "location": {
            "city": "Changwat Phuket",
            "country": "Thailand",
            "latitude": 7.91055,
            "longitude": 98.33881,
            "street": "123/28",
            "zip": "83120"
        },
        "name": "รับล้างแอร์และแก้ไขเครื่องใช้ไฟฟ้าและงานซ่อมต่างๆ",
        "phone": "0874708269"
    },
    {
        "id": "441754279342696",
        "name": "ศูนย์รับซ่อม Tv Led Lcd Plasma Tvและเครื่องใช้ไฟฟ้าที่มีปลั๊กเสียบทุกชนิด"
    },
    {
        "id": "235102169964184",
        "location": {
            "city": "Bangkok",
            "country": "Thailand",
            "zip": "10240"
        },
        "name": "ศูนย์ซ่อมเครื่องชงกาแฟครบวงจร",
        "phone": "ID LINE ; tanakrid"
    },
    {
        "id": "525458234195736",
        "location": {
            "city": "Bangkok",
            "country": "Thailand",
            "latitude": 13.75573,
            "longitude": 100.49831,
            "street": "18 ซอยบำบัด  ถ. เจริญกรุง.  อ. พระนคร.   กรุงเทพมหานคร",
            "zip": "10200"
        },
        "name": "รับทำตัวเรือนทอง\u0026ซ่อมเครื่องประดับด้วยเครื่องเลเซอร์",
        "phone": "0845522588"
    },
    {
        "about": "เราพร้อมให้บริการอย่างมืออาชีพคงไว้แต่ราคาที่เป็นมิตรต่อลูกค้า",
        "description": "การให้ข้อมูลข่าวสารอันเป็นเท็จหรือการใส่ร้ายป้ายสีบุคคลอื่นมีความผิดทั้งทางแพ่งและอาญารวมไปถึงการกล่าวมิ่นเบื้องสูงพูดจาส่อเสียดร่อแหลมพาดพิงไปถึงบุคคลที่สาม",
        "id": "705093222929522",
        "name": "จำหน่าย  รับซ่อม และให้เช่าเครื่องถ่ายเอกสาร"
    },
    {
        "id": "1542076109383965",
        "location": {
            "city": "Amphoe Tha Wang Pha",
            "country": "Thailand",
            "latitude": 19.14353,
            "longitude": 100.77777,
            "street": "จังหวัดน่าน",
            "zip": "55140"
        },
        "name": "รับซ่อมยานพาหนะ เครื่องจักรกลและเครื่องมือหนัก",
        "phone": "0821808908"
    },
    {
        "id": "373840469449038",
        "name": "เครื่องเสียง  ตู้ลำโพงประกอบเอง พร้อมรับซ่อมเครื่องเสียงทุกชนิด",
        "phone": "0819778366"
    },
    {
        "about": "บริการงานแอร์ ทั้งแอร์บ้าน แอร์โครงการ โทร 0926564942 ",
        "description": "บริการงานแอร์บ้าน รับล้างแอร์ ย้ายแอร์ ติดตั้งแอร์ ซ่อมแอร์ ปรึกษาอาการฟรี รับทั้งงานบ้าน งานโครงการ สนใจสอบถามราคาก่อนได้ ",
        "emails": [
            "thai_servicesair@outlook.com"
        ],
        "id": "214769665300933",
        "location": {
            "city": "Bangkok",
            "country": "Thailand",
            "zip": "10230"
        },
        "name": "บริการล้าง ซ่อม ติดตั้ง ย้ายเครื่องปรับอากาศ ราคากันเอง",
        "phone": "0864725378"
    },
    {
        "about": "เจ.บี. เครื่องกรองน้ำ www.jbfilter.com จำหน่าย-ติดตั้ง-ซ่อม เครื่องกรองน้ำ สารกรอง ไส้กรอง  by www.area168.net",
        "description": "เครื่องทำน้ำอุ่น เครื่องทำน้ำร้อน Stiebel Eltron (นำเข้าจากเยอรมัน)\nแอร์บ้าน มิตซูมิชิ ชาร์ป แอลจี ซัมซุง เติมน้ำยา ล้างแอร์\nตู้ทำน้ำยาแอร์ไร้สารตะกั่ว ตู้ทำน้ำร้อน-น้ำเย็น ตู้น้ำเย็น 3-5 ก็อก",
        "general_info": "60/83-84 ถ.พัฒนาการคูขวาง ต.ท่าวัง อ.เมือง จ.นครศรีธรรมราช 80000\nTel: 075-319-400, 075-345-322 Fax: 075-317-222",
        "id": "253509898022030",
        "name": "เจ.บี. เครื่องกรองน้ำ จำหน่าย-ติดตั้ง-ซ่อม"
    },
    {
        "description": "บริการ ห้องซ้อมดนตรี  เครื่องดนตรี เครื่องเสียง คาราโอเกะ  ในงานพิธีต่างๆ 0897261875",
        "id": "172553366248358",
        "location": {
            "city": "Surat Thani",
            "country": "Thailand",
            "latitude": 8.84737,
            "longitude": 99.39506,
            "street": "29/2ม6ต เพิ่มพูนทรัพย์ อ บ้านนาสาร จ สุราฏษร์ธานี",
            "zip": "084120"
        },
        "name": "ห้องซ้อมดนตรี บ้านวังหิน บริการ เครื่องเสียง คาราโอเกะ 0897261875",
        "phone": "077404 180"
    },
    {
        "about": "02-1957175 , 086-4200765\n52/3 ม.2 ต.บางรักน้อย อ.บางบัวทอง จ.นนทบุรี\n11110",
        "id": "1618756748366428",
        "name": "รับซ่อมเครื่องมือไฟฟ้าช่าง ทุกชนิด"
    },
    {
        "about": "ขายเครื่องดนตรี และบริการห้องซ้อม และ สอน ในราคาเป็นกันเอง ^^ โทร 0881316105 ตั้ม",
        "id": "1675448679346389",
        "location": {
            "city": "พิบูลมังสาหาร จ.อุบลราชธานี",
            "street": "หลัง ร.ร วิภาควิทยากร",
            "zip": "34110"
        },
        "name": "โอห์มมิวสิค ขายเครื่องดนตรี บริการห้องซ้อม"
    },
    {
        "about": "เครื่องมือซ่อรถยนต์ ลิฟท์ยกรถ ห้องพ่นอบสี เครื่องถอดยาง",
        "id": "760210214097432",
        "name": "เครื่องมือซ่อมรถยนต์ ลิฟท์ยกรถ เครื่องถอดยาง ห้องพ่นอบสี"
    },
    {
        "about": "บริการให้คำปรึกษา บริการซ่อม อุปกรณ์เครื่องเตรียมอาหาร และ เครื่องครัว ",
        "id": "303947106480279",
        "name": "ช่างซ่อมอุปกรณ์เครื่องทำอาหาร"
    },
    {
        "about": "ขาย ซ่อม เติมหมึก จำหน่ายหมึกแท้ทุกยี้ห้อ ",
        "id": "405765006252373",
        "location": {
            "city": "Bangkok",
            "country": "Thailand",
            "latitude": 13.826789,
            "located_in": "148509851922123",
            "longitude": 100.67953405,
            "zip": "10230"
        },
        "name": "Jr.ink\u0026print ขาย ซ่อม เติม เครื่องปริ้นอิงเจ็ท เลเซอร์",
        "phone": "02-9475915"
    },
    {
        "description": "บริษัทสตาร์โอเอ แอนด์ คอมมูนิเคชั่น \nบริการติดตั้งและซ่อม คอมพิวเตอร์ ระบบกล้องวงจรปิด CCTV , Fiber Optic ,intercom \nติดตั้งเครื่องปรับอากาศ วางระบบอินเตอร์เน็ต ระบบไฟฟ้า ทุกชนิด \nสนใจติดที่ 055-444761,088-2782075 บริการทั่วประเทศไทย",
        "id": "263021430558003",
        "location": {
            "city": "อุตรดิตถ์",
            "street": "53/1-3 ถ.อินใจมี ต.ท่าอิฐ อ.เมือง",
            "zip": "53000"
        },
        "name": "ศูนย์ซ่อมและติดตั้ง คอมพิวเตอร์ กล้อง CCTV ,Fiber Optic เครื่องปรับอากาศ",
        "phone": "055-444761"
    },
    {
        "id": "181826608570855",
        "name": "รับงานสำรวจ งานรังวัดเอกชน ขาย ซ่อม กล้องระดับ กล้องสำรวจ เครื่องมือสำรวจ"
    },
    {
        "id": "1732469786981785",
        "name": "ผช.ช่างซ่อมเครื่องกำเนิดไฟฟ้า"
    },
    {
        "about": " ซ่อมรถยนต์086-913-3727",
        "id": "700864706692729",
        "location": {
            "city": "เชียงใหม่",
            "street": "หลัง มช ใกล้กับวัดอุโมง",
            "zip": "50200"
        },
        "name": "อู่ซ่อมรถยนต์ ทําสี ซ่อมเครื่อง ขัดไฟหน้า ecu ยาง",
        "phone": "0835772613"
    },
    {
        "about": "รับซ่อม แอ ล้างแอ ติดแอ\n",
        "id": "731251903671487",
        "location": {
            "city": "Phitsanulok",
            "country": "Thailand",
            "latitude": 16.7661304,
            "longitude": 100.1981201,
            "street": "พิษณุโลก",
            "zip": "65150"
        },
        "name": "รับซ่อมแอ ล้างแอ ซ่อมเครื่องซักผ้า ช่างหนูพิษณุโลก",
        "phone": "0955962520"
    }
]