[
    {
        "id": "1626328330959622",
        "location": {
            "city": "Bangkok",
            "country": "Thailand",
            "latitude": 13.66784,
            "longitude": 100.4446716,
            "street": "โลตัส พระราม2",
            "zip": "10150"
        },
        "name": "รับซ่อมเครื่องออกกำลังกาย ทุกรุ่น ทุกยี่ห้อ",
        "phone": "0922690992"
    },
    {
        "about": "ซ่อมช่วงล่าง เปลี่ยนถ่ายน้ามมันเครื่องทุกชนิด",
        "id": "905127826186055",
        "location": {
            "city": "Chonburi",
            "country": "Thailand",
            "latitude": 13.36899,
            "longitude": 100.9957,
            "street": "66 ม. 4 ต.เสม็ด อ.เมือง จ.ชลบุรี",
            "zip": "20000"
        },
        "name": "รับซ่อมช่วงล่างรถยน เปลี่ยนถ่ายน้ามมันเครื่องทุกชนิด",
        "phone": "9."
    },
    {
        "about": "ติดต่อ/สอบถาม\nTel. 0614086595",
        "id": "738396236236592",
        "name": "รับซ่อม และติดตั้งเครื่องปรับอากาศ ทุกชนิด. โดยช่างผู้ชำนาญ"
    },
    {
        "about": "รับจ้างซ่อมเครื่องซักผ้าทุกชนิด ทุกที่\nทุกอย่าง สนใจติดต่อได้ที่เบอร์0835465620",
        "id": "727705187335948",
        "location": {
            "city": "Pattaya",
            "country": "Thailand",
            "latitude": 12.9333,
            "longitude": 100.883,
            "street": "ในพัทยา",
            "zip": "20150"
        },
        "name": "รับซ่อมเครื่องซักผ้าอุตสาหกรรม ทุกชนิด",
        "phone": "083546620"
    },
    {
        "id": "742848985775478",
        "location": {
            "city": "Bangkok",
            "country": "Thailand",
            "latitude": 13.60599,
            "longitude": 100.41691,
            "street": "17/14 หมู่ 11 แขวงบางบอน เขตบางบอน กทม. 10150",
            "zip": "10150"
        },
        "name": "จำหน่าย ซ่อม ล้าง ติดตั้ง เครื่องปรับอากาศ ทุกรุ่นทุกยี้ห้อ",
        "phone": "0853549446"
    },
    {
        "about": "เครื่องดนตรีมือหนึ่งมือสองซ่อมและติดตั้งระบบแสงเสียง ",
        "id": "1496926447257183",
        "name": "เครื่องดนตรีมือหนึ่งมือสองซ่อมและติดตั้งระบบแสงเสียง tel 0814099082"
    },
    {
        "about": "ศูนย์ซ่อม ทีวี เครื่องเสียง LCD TV, Plasma TV , Monitor และเครื่องใช้อิเล็กทรอนิกส์ทุกชนิด",
        "id": "244923105698108",
        "location": {
            "city": "Khonkean",
            "country": "Thailand",
            "latitude": 16.47889,
            "longitude": 102.82676,
            "street": "293 ถ.หน้าเมือง อ.เมือง",
            "zip": "40000"
        },
        "name": "ศูนย์ซ่อม ทีวี เครื่องเสียง ขอนแก่น",
        "phone": "043-223806"
    },
    {
        "id": "901222296568700",
        "location": {
            "city": "Bangkok",
            "country": "Thailand",
            "latitude": 13.67908,
            "longitude": 100.61183,
            "street": "638 ถ.อ่อนนุช เขต สวนหลวง",
            "zip": "10260"
        },
        "name": "รุ่งแสง มอเตอร์ รับซ่อม-ซื้อ-ขายเครื่องมือก่อสร้างทุดชนิด",
        "phone": "0873538542"
    },
    {
        "id": "199580686724145",
        "name": "สาขาวิชาเครื่องมือกลและซ่อมบำรุง"
    },
    {
        "id": "862949987106657",
        "location": {
            "city": "Chachoengsao",
            "country": "Thailand",
            "latitude": 13.7,
            "longitude": 101.083,
            "street": "ตลาดโบราณคลองนครเนื่องเขต",
            "zip": "24000"
        },
        "name": "รับซ่อมเครื่อง ทุกชนิด ตลาดโบราณคลองนครเนืาองเขต",
        "phone": "0895455189"
    }
]