[
    {
        "about": "ซ่อมเครื่องใช้ไฟ้ฟ้าภายในบ้าน",
        "id": "1471328833093495",
        "location": {
            "city": "Ang Thong",
            "country": "Thailand",
            "latitude": 16.385145,
            "longitude": 99.52,
            "street": "-",
            "zip": "14000"
        },
        "name": "ซ่อมเครื่องใช้ไฟฟ้า",
        "phone": "0819089328"
    },
    {
        "about": "ถูก ทน ดี ที่ หัสดีเซอร์วิส",
        "description": "บริการซ่อมเครื่องใช้ไฟฟ้าทุกชนิด  และซ่อมคอมพิวเตอร์ โทรศัพท์สมาร์ทโฟน จากช่างผู้ชำนาญ รับประกันความพอใจ ซ่อมที่ไหนไม่ได้ยกมาที่เรา",
        "id": "604301256268005",
        "location": {
            "city": "อุดรธานี",
            "street": "203 ต.สามพร้าว อ.เมือง จ.อุดรธานี",
            "zip": "41000"
        },
        "name": "หัสดีเซอร์วิส ซ่อมคอม เครื่องใช้ไฟฟ้า อุดร หนองคาย",
        "phone": "084-9585359"
    },
    {
        "id": "772706722767398",
        "location": {
            "city": "Bangkok",
            "country": "Thailand",
            "latitude": 13.75395,
            "longitude": 100.50224,
            "street": "bangkok",
            "zip": "thailand"
        },
        "name": "ซ่อมเครื่องใช้ไฟฟ้าในครัวเรือน",
        "phone": "0822231679"
    },
    {
        "id": "1596764677240317",
        "location": {
            "city": "Ayutthaya",
            "country": "Thailand",
            "latitude": 14.35,
            "longitude": 100.55,
            "street": "โรจนะอยุธยา",
            "zip": "13210"
        },
        "name": "ซ่อมเครื่องใช้ไฟฟ้าโรจนะ อยุธยา",
        "phone": "0879247995"
    },
    {
        "id": "108537312570910",
        "name": "ซ่อมเครื่องใช้ไฟฟ้าทุกชนิด Tel.087-496-3954"
    },
    {
        "about": "ซ่อมเครื่องใช้ไฟฟ้า ดัดแปลง สร้าง ประกอบโครงงานเกียวกับวงจรอิเล็กทรอนิกส์ และไฟฟ้า",
        "emails": [
            "\u003c\u003cnot-applicable\u003e\u003e"
        ],
        "id": "721352601244408",
        "location": {
            "city": "Lampang",
            "country": "Thailand",
            "latitude": 18.307025398932,
            "longitude": 99.429278969765,
            "street": "หมู่1ต.บ่อแฮ้วอ.เมือง",
            "zip": "52100"
        },
        "name": "รับซ่อมเครื่องใช้ไฟฟ้า จ.ลำปาง",
        "phone": "0824819353"
    },
    {
        "about": "ศูนย์ซ่อมเครื่องใช้ไฟฟ้า จ.สระบุรี อ.มวกเหล็ก  จ.นครราชสีมา อ.ปากช่อง",
        "description": "ศูนย์ซ่อมที่ได้รับการแต่งตั้งจาก LG Family Soken Aconatic AJ Hitachi Sanyo Panasonic Mitsubishi และอื่นๆ",
        "emails": [
            "chaielectronics.repair.center@facebook.com"
        ],
        "id": "465819903446417",
        "location": {
            "city": "Saraburi",
            "country": "Thailand",
            "zip": "18180"
        },
        "name": "ศูนย์ซ่อมเครื่องใช้ไฟฟ้า สระบุรี อ.มวกเหล็ก อ.ปากช่อง ร้านไชยอิเล็กทรอนิกส์",
        "phone": "086-2609292"
    },
    {
        "about": "ซ่อมเครื่องใช้ไฟฟ้า รับเหมาก่อสร้าง ติดตั้งระบบ",
        "description": "บริการซ่อมเครื่องใช้ไฟฟ้า รับเหมาก่อสร้าง ติดตั้งระบบ เรียก 085-1578599 ไม่แพงอย่างที่คิด\n\nซ่อมแซม เครื่องใช้ไฟฟ้าฯ : เครื่องซักผ้า ทีวี DVD CD Computer Printer Monitorเครื่องเสียง- ไมโครเวฟ แอร์- ตู้เย็น-แฟกซ์-เครื่องถ่ายเอกสาร-เครื่องตอกบัตร-เครื่องคิดเลข-กล้องถ่ายรูป\n\nงานระบบ  Electrical Installation ,Fire Alarm ,Network, Smoke Detector,Cable ,Lan ,Air Condition\n\nงานก่อสร้าง ต่อเติม  พื้น-ผิว, ผนัง, ฝ้าเพดาน, ประตู-หน้าต่าง, สี,สุขภัณฑ์, หลังคา,งานเหล็ก,งานปูน,งานไม้",
        "id": "1512748205677961",
        "name": "ซ่อมเครื่องใช้ไฟฟ้า รับเหมาก่อสร้าง"
    },
    {
        "about": "ร้านซ่อมเครื่องใช้ไฟฟ้า",
        "id": "648329568533511",
        "name": "ต่อ อิเล็กทรอนิกส์ซ่อมเครื่องใช่ไฟฟ้า ทุกชนิด"
    },
    {
        "id": "638685129595370",
        "name": "ซ่อมโทรศัพท์และเครื่องใช้ไฟฟ้าทุกชนิด"
    },
    {
        "about": "บริการซ่อมเครื่องใช้ไฟฟ้า คอมพิวเตอร์ทุกอาการ แบบ ออกแบบระบบwifi  ",
        "id": "695323360595631",
        "name": "ซ่อมเครื่องใช้ไฟฟ้า/คอมพิวเตอร์ สุโขทัย",
        "phone": "0827735476"
    },
    {
        "about": "ร้านซ่อมเครื่องใช้ไฟฟ้า เครื่องใช้สำนักงาน บางบัวทอง นนทบุรี",
        "id": "190466771037203",
        "location": {
            "city": "Bang Bua Thong",
            "country": "Thailand",
            "street": "ซอยถนนเทศบาล7 ตลาดบางบัวทอง นนทบุรี",
            "zip": "11110"
        },
        "name": "ร้านซ่อมเครื่องใช้ไฟฟ้า เครื่องใช้สำนักงาน บางบัวทอง นนทบุรี",
        "phone": "0815501368"
    },
    {
        "about": "รับซ่อมเครื่องใช้ไฟฟ้าทุกชนิด บริการถึงบ้าน",
        "id": "436936269815746",
        "location": {
            "city": "Muang Lopburi",
            "country": "Thailand",
            "latitude": 14.8,
            "longitude": 100.617,
            "street": "ตลาดท่าโขลง 160/1 หมู่ 10 ต.เขาสมอคอน อ.ท่าวุ้ง จ.ลพบุรี",
            "zip": "15180"
        },
        "name": "บริการซ่อมเครื่องใช้ไฟฟ้า แอร์-พัดลม",
        "phone": "0838341743"
    },
    {
        "id": "928703103821037",
        "name": "รับซ่อมเครื่องใช้ไฟฟ้า"
    },
    {
        "id": "437843329713858",
        "name": "Newรับซ่อมคอมพิวเตอร์\u0026ลงโปรแกรม.ซ่อมเครื่องใช้ไฟฟ้า"
    },
    {
        "description": "บริการซ่อม ตู้เย็น/ตู้แช่/เครื่องซักผ้าทุกชนิด/ทีวี/วิทยุ/เครื่องเสียงบ้าน/เครื่องเสียงรถยนต์/เครื่องใช้ไฟฟ้าทุกชนิด(บริการตรวจเช็คให้ฟรี ไม่เสียค่าใช้จ่ายใดใดทั้งสิ้น) รับประกันงานซ่อมนาน3เดือน",
        "id": "1492217421035760",
        "name": "ร้านรับซ่อมตู้เย็น/เครื่องซักผ้าทีวี/เครื่องใช้ไฟฟ้าทุกชนิด/ปทุมธานี"
    },
    {
        "about": "รับซ่อมเครื่องใช้ไฟฟ้า ทุกชนิด ",
        "description": "รับซ่อมเครื่องใช้ไฟฟ้า ทุกชนิด \nรับติดตั้งเครื่องเสียงรถยนต์ คุณภาพสูง\nติดต่อสอบถามตลอด 24 ชม.\nมานพ 091-635 9013",
        "id": "454386961338524",
        "name": "Manop Service รับซ่อมเครื่องใช้ไฟฟ้า"
    },
    {
        "id": "366932210164480",
        "location": {
            "street": "ภูเก็ต"
        },
        "name": "สารพัดซ่อม - ซ่อมเครื่องใช้ไฟฟ้าทุกชนิด",
        "phone": "0898683754"
    },
    {
        "about": "บริการรับซ่อมเครื่องใช่ไฟ้าทุกชนิด ราคาถูก",
        "emails": [
            "thaworndigital@gmail.com"
        ],
        "id": "689728254383817",
        "location": {
            "city": "Bangkok",
            "country": "Thailand",
            "latitude": 13.715216148921,
            "longitude": 100.57637015812,
            "street": "Thanon Rama 4,Soisaensabai",
            "zip": "10110"
        },
        "name": "รับซ่อมเครื่องใช้ไฟฟ้าทุกชนิด Thaworndigital",
        "phone": "0859004965"
    },
    {
        "about": "รับซ่อมคอมพิวเตอร์ PC\u0026Notebook , Fax, พิมพ์ดีด , Printer , วางระบบเครือข่าย , แก้ไขปัญหาอินเตอร์เน็ต",
        "emails": [
            "rung1933@hotmail.com"
        ],
        "id": "291984717659038",
        "location": {
            "city": "จตุจักร",
            "street": "1933 ถนนพหลโยธิน ลาดยาว",
            "zip": "10900"
        },
        "name": "ซ่อมคอมและเครื่องใช้สำนักงานทุกชนิด",
        "phone": "0818556685"
    },
    {
        "about": "รับซ่อมเครื่องใชไฟฟ้า ติดตั้ง แก้ใข ระบบโซล่าเซลล์",
        "description": "- ซ่อมเครื่องใช้ไฟฟ้าเกือบทุกชนิด\n- ซ่อม แก้ใข เครื่องเสียงบ้าน ติดตั้งเครื่องเสียงรถยนต์ เก่า ใหม่\n- ย้าย ติดตั้ง แก้ใข ระบบทีวีดาวเทียม เคเบิ้ลทีวี\n- รับปรึกษาเรื่องพลังงานแสงอาทิตย์ (พลังงานถูกเลือก)\n",
        "emails": [
            "fluke315@hotmail.com"
        ],
        "id": "179679495423366",
        "location": {
            "city": "อำเภอแม่ใจ จังหวัดพะเยา",
            "street": "66 หมู่ 4 ตำบลป่าแฝก",
            "zip": "56130"
        },
        "name": "รับซ่อมเครื่องใช้ไฟฟ้าเกือบทุกชนิด",
        "phone": "0897570571"
    },
    {
        "about": "ขายเครื่องใช้ไฟฟ้า อะไหล่ มือ2 และ มือ1 ทุกชนิด",
        "description": "ขายเครื่องใช้ไฟฟ้า อะไหล่ มือ2 และ มือ1 ทุกชนิด สินค้ามีจำนวนจำกัด ของจะมาเรื่อยๆ เมื่อสินค้าได้ตกลงซื้อและโอนเงินเรียบร้อยแล้วทางเพจจะปิดจ๊อบทันที สินค้ามีประกันทุกตัว มีหน้าร้านอยู่ที่ จังหวัดลพบุรี เข้ามาแวะชมแวะดูได้ค่ะ\nราคาเป็นกันเอง",
        "id": "716601025136094",
        "name": "รับซ่อมซื้อขาย เครื่องใช้ไฟฟ้ามือ2 และมือ1",
        "phone": "0892383651"
    },
    {
        "about": "บริการซ่อมเครื่องใช้ไฟฟ้าทุกชนิด ราคากันเอง จ.ภูเก็ต\nโทร 087-553-5455",
        "id": "1615484982023211",
        "location": {
            "city": "Amphoe Thalang",
            "country": "Thailand",
            "street": "163/107",
            "zip": "83110"
        },
        "name": "บริการซ่อมเครื่องใช้ไฟฟ้าทุกชนิด ราคากันเอง จ.ภูเก็ต",
        "phone": "0875535455"
    },
    {
        "id": "846527938763868",
        "name": "ศูนย์บริการ ซี.เอช. ซ่อม และ จำหน่าย  เครื่องใช้ไฟฟ้า"
    },
    {
        "id": "246722448719774",
        "location": {
            "city": "Bangkok",
            "country": "Thailand",
            "latitude": 13.88335719061,
            "longitude": 100.60361404966,
            "street": "พหลโยธิน",
            "zip": "10220"
        },
        "name": "กองซ่อมเครื่องสื่อสาร-อิเล็กทรอนิกส์"
    }
]