[
    {
        "about": "ช่อมอุปกรณ์อิเล็กทรอนิกส์ทุกชนิด TV DVD LCD LED MINIcompoซ่อมด่วนรับส่งฟร๊....\n",
        "id": "1469460053281418",
        "name": "ซ่อมอุปกรณ์เครื่องใช้ไฟฟ้าทุกชนิดและอุปกรณ์อิเล็กทรอนิกส์"
    },
    {
        "id": "1049523778413816",
        "location": {
            "city": "Khon Kaen",
            "country": "Thailand",
            "latitude": 16.4333,
            "longitude": 102.833,
            "street": "131/125 ตำบลในเมือง อำเภอเมือง จังหวัดขอนแก่น",
            "zip": "40000"
        },
        "name": "ศูนย์ซ่อมเครื่องพ่นหมอกควัน เครื่องถ่ายเอกสาร ภาคอีสาน",
        "phone": "0 4323 8597"
    },
    {
        "id": "890407001049389",
        "name": "รับซ่อมเครื่องเชื่อมจันทวรรณเซอร์วิส"
    },
    {
        "id": "578929362250823",
        "name": "รับซ่อม:เครื่องใช้ไฟฟ้า"
    },
    {
        "about": "ร้านโปร์ฟ๊อกซ์ บริการซ่อมและจำหน่ายเครื่องพ่นหมอกควัน",
        "id": "359250830774849",
        "name": "Profog ซ่อมและจำหน่าย เครื่องพ่นหมอกควัน"
    },
    {
        "about": "ขาย ซ่อมเครื่องออกกำลังกาย เชียงใหม่",
        "emails": [
            "the_tainai@hotmail.com"
        ],
        "id": "652055058150360",
        "location": {
            "city": "สารภี เชียงใหม่",
            "street": "402/140 ม.4 ต.หนองผึ้ง",
            "zip": "50140"
        },
        "name": "ขาย-ซ่อมเครื่องออกกำลังกายเชียงใหม่ สารภี",
        "phone": "087-3028090 ,086-4215379"
    },
    {
        "about": "ให้บริการซ่อมเครื่องฉีด\n\n- เครื่องฉีดพลาสติก\n\n-เครื่องฉีดอลูมิเนียม\n\n- เครื่องฉีดซิ้งค์\n",
        "id": "1438263003138793",
        "name": "ซ่อมเครื่องฉีดพลาสติก-อลูมิเนียม-ซิ้งค์"
    },
    {
        "about": "ลองเข้ามาเลือกได้ตามชอบคับทั่วประเทศพร้อมจัดส่ง",
        "emails": [
            "bgza222@gmail.com"
        ],
        "id": "636419823159246",
        "location": {
            "city": "หาดใหญ่",
            "street": "115/12",
            "zip": "90110"
        },
        "name": "ขายiphone 4-6 ราคาถูก รับซ้อมเครื่อง ซื้อเครื่องเสีย ปลดล็อคid Apple",
        "phone": "0806986202"
    },
    {
        "about": "รับซ่อมเครื่อง,ช่วงล่าง,เคาะ,ปะ,ผุ,ทำสี\nซื้อ-ขายรถยนต์มือสองสภาพดี",
        "id": "588885167877749",
        "location": {
            "city": "Ubon Ratchathani",
            "country": "Thailand",
            "latitude": 15.36575,
            "longitude": 104.89258,
            "street": "167 ม.1 ต.กระโสบ อ.เมือง จ.อุบลราชธานี 34000",
            "zip": "34000"
        },
        "name": "อู่อัญชลีรับซ่อมเครื่อง-ช่วงล่าง ซื้อ-ขายรถยนต์มือสอง",
        "phone": "0939479998"
    },
    {
        "id": "180778768630458",
        "name": "ซ่อมเครื่องบิน"
    },
    {
        "about": "ขายเครื่องออกกำลังกาย ฟิตเนส ชลบุรี ศรีราชา ลู่วิ่ง บาร์เบล จักรยานออกกำลังกาย",
        "emails": [
            "ddsportsfitness@gmail.com"
        ],
        "id": "805130306235745",
        "location": {
            "city": "Chon Buri",
            "country": "Thailand",
            "latitude": 13.14891476267,
            "longitude": 100.95451583082,
            "street": "149/92 ต.สุรศักดิ์ อฺศรีราชา จฺชลบุรี",
            "zip": "20110"
        },
        "name": "D.D sports fitness จำหน่าย-ซ่อมเครื่องออกกำลังกาย ราคาถูก",
        "phone": "0949652598"
    },
    {
        "id": "1391475797827890",
        "location": {
            "city": "Bangkok",
            "country": "Thailand",
            "latitude": 13.6724901,
            "longitude": 100.4305496,
            "street": "เอกชัย 83/1",
            "zip": "10150"
        },
        "name": "บริษัท แอมรอด ชมรมช่างซ่อมเครื่องไฟฟ้า",
        "phone": "0958834701"
    },
    {
        "about": "รับเชื่อมเครื่องตีแป้ง-ตีไข่",
        "description": "รับซ่อมเครื่องตีแป้ง ตีไข่ และ อื่นๆ\nติดต่อช่างปอ\n49/49ม.3ซ.บุญศิริ18/1ต.บางเมืองอ.เมืองจ.สมุทรปราการ\nโทร 0814420347",
        "emails": [
            "suvit.por@hotmail.com"
        ],
        "id": "231367206933174",
        "location": {
            "city": "Bangkok",
            "country": "Thailand",
            "street": "49/49 ซ.บุญศิริ (18/1) ถ.สุขุมวิท ต.บางเมือง อ.เมือง จ.สมุทรปราการ 10270",
            "zip": "10270"
        },
        "name": "รับซ่อมเครื่องตีแป้ง-ตีไข่ (ช่างปอ)",
        "phone": "0814420347"
    },
    {
        "id": "166216360230218",
        "location": {
            "city": "Bangkok",
            "country": "Thailand",
            "street": "90/37 ซ.เปรมสมบติแยก3 ถ.ประชาสงเคราะห์  แขวง/เขต ดินแดง กรุงเทพ 10400",
            "zip": "10400"
        },
        "name": "รับซ่อมเก้าอี้นวดไฟฟ้าและเครื่องนวดโดยช่างมืออาชีพ",
        "phone": "089-0185040"
    },
    {
        "id": "1534181833470963",
        "location": {
            "city": "Chiang Mai",
            "country": "Thailand",
            "latitude": 18.7608929,
            "longitude": 98.9925537,
            "zip": "50100"
        },
        "name": "เครื่องชงกาแฟสดมือสอง/ซ่อมเครื่องบดเครื่อชงกาแฟ",
        "phone": "0850401272 0820375286"
    },
    {
        "about": "ล้างถังเครื่องซักผ้า ซ่อมกล่องหยอดเหรียญเครื่องซักผ้า",
        "id": "587006431357760",
        "location": {
            "city": "Nakhon Ratchasima",
            "country": "Thailand",
            "latitude": 14.959615474096,
            "longitude": 102.06066066906,
            "street": "สนามกีฬากลาง",
            "zip": "30000"
        },
        "name": "ล้างถังเครื่องซักผ้า\u0026ซ่อมเครื่องซักผ้าหยอดเหรียญ โคราช",
        "phone": "0830392766"
    },
    {
        "id": "874846462631570",
        "location": {
            "city": "Bangkok",
            "country": "Thailand",
            "latitude": 13.726211507777,
            "longitude": 100.29899597168,
            "street": "พุทธมณฑลสาย4",
            "zip": "74130"
        },
        "name": "ซ่อมล้างแอร์ตู้เย็นเครื่องซักผ้าบริการถึงบ้าน",
        "phone": "0890459559"
    },
    {
        "about": "บริการซ่อมและติดตั้งเครื่องกำเนิดไฟฟ้า genrator ทั้งรอบเร็วและรอบช้า  สนใจสอบถามได้นะค่ะ 0878160277 ",
        "id": "246394785507575",
        "name": "บริการซ่อมและติดตั้งเครื่องกำเนิดไฟฟ้า- Genarator"
    },
    {
        "id": "976060699094231",
        "name": "รับซ่อมเครื่องใช้ไฟฟ้า"
    },
    {
        "about": "รับขัดล้าง ชุบ ซ่อม ต่อ-ขยาย ขึ้นตัวเรือน และออกแบบเครื่องประดับทุกชนิด\nID Line:nualphan2556ja\nTel:089-0644748(นัท)",
        "description": "ID Line : nualphan2556ja\nIG :\nEmail : goldsmith.jewelryservice@gmail.com\n",
        "id": "542606125878883",
        "name": "Goldsmith รับชุบ ฝัง ซ่อม และขึ้นตัวเรือนเครื่องประดับทุกชนิด",
        "phone": "0890644748"
    },
    {
        "about": "ซ่อมเครื่องมือช่างทุกชนิด(ทุกยี่ห้อ)",
        "id": "608907009159544",
        "location": {
            "city": "Bangkok",
            "country": "Thailand",
            "latitude": 13.70283,
            "longitude": 100.67317,
            "street": "ม.ราม2",
            "zip": "10250"
        },
        "name": "รับซ่อมเครื่องมือช่าง",
        "phone": "0843253322"
    },
    {
        "about": "ซ่อม จำหน่าย อะไหล่เครื่องมือช่าง ",
        "emails": [
            "kosol_air@hotmail.com"
        ],
        "id": "1489193798065319",
        "location": {
            "city": "Krabi",
            "country": "Thailand",
            "street": "479 ถ.อุตรกิจ ต.กระบี่ใหญ่",
            "zip": "81000"
        },
        "name": "เครื่องมือช่าง ซ่อม จำหน่ายอะไหล่ K.n.เซอร์วิส 0878902277",
        "phone": "0878902277"
    },
    {
        "id": "895360867189557",
        "name": "ช่าง.P ซ่อมเครื่องช่วงล่าง"
    },
    {
        "about": "จำหน่าย ซ่อม เครื่องคั้นกะทิ\nเครื่องขูดมะพร้าว...",
        "id": "708785152585295",
        "name": "จำหน่ายและซ่อมเครื่องคั้นกะทิ"
    },
    {
        "about": "รับออกแบบ สร้าง ติดตั้ง ซ่อมบำรุง จำหน่าย ระบบไฟฟ้า PLC",
        "description": "รับออกแบบ สร้าง ติดตั้ง ซ่อมบำรุง จำหน่าย ระบบไฟฟ้า พีแอลซี ไฮโดรลิก และนิวเมติกคอนโทรล รวมถึงให้คำปรึกษาเกี่ยวกับงาน ด้วยความเต็มใจและบริการ",
        "emails": [
            "ntcontrol@yahoo.com"
        ],
        "id": "475212825896979",
        "name": "รับซ่อมเครื่องจักรและประกอบตู้ระบบไฟฟ้าคอนโทรลทุกชนิด"
    }
]