[
    {
        "about": "Line : rattanachat\ninbox มาก็ได้ครับ\n080-4486908 หน่องครับ",
        "description": "* เข็มทายรางคอมม่อนเรลสเปคใกล้เคียงของเดิม ผลิตจากสแตนเลสเกรดดีผ่านการชุบแข็ง \n* เม็ดลูกปืนท้ายราง\n** สินค้าที่นำมาขายในเพจส่วนใหญ่เป็นของผมและบ้างอยากเพื่อนฝากขาย   **\n * สินค้าขอผมถึงราคาไม่เท่ากันแต่ก็ลดได้ครับถ้าขายได้ก็ขาย *\nเข็มทายรางคอมม่อนเรลสเปคใกล้เคียงของเดิม ผลิตจากสแตนเลสเกรดดีผ่านการชุบแข็ง ใครหักหรือหายติดต่อมาได้นะครับ\n\nการทำท้ายราง ... คือการหนุนสปิงให้มีค่าKหรือแรงกดที่มากขึ้นเพื่อทำให้การคืนกลับของน้ำมันเชื้อเพลิงในหัวฉีดน้อยลงทำให้น้ำมันเชื้อเพลิงในหัวฉีดที่จะฉีดเข้าห้องเผ่าไหม้เพิ่มเยอะขึ้น ซึ่งเห็นได้ในรถกระบะ ... \n\nการดันราง คือ การเพิ่มแรงดันในระบบฉีดจ่ายน้ำมันแบบคอมมอนเรล",
        "emails": [
            "deksatan@hotmail.co.th"
        ],
        "id": "548439098599359",
        "location": {
            "city": "Samut Sakhon",
            "country": "Thailand",
            "street": "Ban Phaeo, Samut Sakhon, Thailand",
            "zip": "74120"
        },
        "name": "จำหน่ายอุปกรณ์เครื่องมือซ่อมรถทุกชนิดและอุปกรณ์แต่งรถ",
        "phone": "080-4486908"
    },
    {
        "id": "686175761471193",
        "location": {
            "city": "Uttaradit",
            "country": "Thailand",
            "latitude": 17.6693359,
            "longitude": 100.144554,
            "street": "132/2 Mob.1 Tambo ngio Ngam Miran Uttaradit",
            "zip": "53000"
        },
        "name": "รุ่งเรืองจำหน่าย-รับซ่อมเครื่องมือช่าง ราคาถูก",
        "phone": "0819514068"
    },
    {
        "id": "451673928354363",
        "location": {
            "city": "Bangkok",
            "country": "Thailand",
            "latitude": 13.8059502,
            "longitude": 100.7265472,
            "street": "54ซ.ใกล้เคียงรามคำแหง 172ถ.รามคำแหงแขวง มีนบุรี เขต มีนบุรี",
            "zip": "10510"
        },
        "name": "อู่ช่างชื่น - สาขา2รับซ่อมเครื่อง เบรค ครัทช์ ช่วงล่างรถยนต์ทุกชนิด",
        "phone": "0898100681+0878238083"
    },
    {
        "id": "1501215060192705",
        "name": "ซ่อมเครื่องฉีดพลาสติก"
    },
    {
        "about": "ราคา ขอรบกวนโทรสอบถาม T. 0823897272 ชัย",
        "id": "658226800977254",
        "location": {
            "city": "Chiang Mai",
            "country": "Thailand",
            "latitude": 18.7903,
            "longitude": 98.9817,
            "zip": "50300"
        },
        "name": "จำหน่ายอุปกรณ์เครื่องซ่อมรถยนต์",
        "phone": "0823897272"
    },
    {
        "about": "เป็นการดูแลติดตามลูกค้าเพื่อที่จะสะดวกต่อการติดต่อหลังการบริการ ขอบคุณครับ",
        "id": "687738364638054",
        "name": "J.N Fitness จำหน่าย-ซ่อมเครื่องออกกำลังกายทุกชนิด"
    },
    {
        "about": "จำหน่ายและซ่อมเครื่องออกกำลังกาย ในบ้านและฟิตเนส ประสบการณ์มากกว่า10ปี",
        "id": "1448980788734614",
        "name": "จำหน่ายและซ่อมเครื่องออกกำลังกาย"
    },
    {
        "about": "ขายเครื่องมือช่างและรับซ่อม",
        "id": "1631181533823135",
        "location": {
            "city": "Bangkok",
            "country": "Thailand",
            "latitude": 13.816515,
            "longitude": 100.5701599,
            "street": "ลาดพร้าว",
            "zip": "10240"
        },
        "name": "ขายเครื่องมือช่างและรับซ่อมทั่วไป",
        "phone": "0885055196"
    },
    {
        "emails": [
            "tom.fongthong@gmail.com"
        ],
        "id": "1013227368689022",
        "location": {
            "city": "อ.เมือง  จ.พิษณุโลก",
            "street": "699/22  ม.3  ต.อรัญญิก",
            "zip": "65000"
        },
        "name": "ให้บริการซ่อมบำรุง ระบบเครื่องทำความเย็นด้านการขนส่ง",
        "phone": "055007773"
    },
    {
        "id": "580202332105449",
        "location": {
            "city": "กทม",
            "street": "175,177 ถ.พระราม2 ซ.44 แขวงจอมทอง เขตจอมทอง กทม10150",
            "zip": "10150"
        },
        "name": "หจก.ทรัพย์นิรันทร์ เซอร์วิส รับซ่อมเครื่องออกกำลังกายทุกรุ่นทุกยี่ห้อ",
        "phone": "028985518"
    },
    {
        "id": "389075621218741",
        "location": {
            "city": "Bangkok",
            "country": "Thailand",
            "street": "18 ซอย บำบัด. ถ. เจริญกรุง.  อ พระนคร",
            "zip": "10200"
        },
        "name": "รับทำตัวเรือนทอง/ทองขาว และซ่อมเครื่องประดับด้วยเครื่องเลเซอร์จากต่างประเทศ",
        "phone": "0845522588"
    },
    {
        "id": "883770611675937",
        "location": {
            "city": "จังหวัดชลบุรี",
            "street": "42/19 หมู่12 ตำบลนาป่า อำเภอเมืองชลบุรี",
            "zip": "20000"
        },
        "name": "ธุรกิจเกี่ยวกับ ซ่อม สร้าง เครื่องจักรอุตหกรรมในโรงงาน",
        "phone": "038786677"
    },
    {
        "about": "รับซ่อมและให้คำปรึกษาเกี่ยวกับปัญหาการใช้งานเครื่องถ่ายเอกสาร Canon และ Konica ",
        "id": "410495602440425",
        "location": {
            "city": "Bangkok",
            "country": "Thailand",
            "latitude": 13.7522,
            "longitude": 100.494,
            "zip": "12120"
        },
        "name": "ซ่อมเครื่องถ่ายเอกสาร",
        "phone": "0860694651"
    },
    {
        "about": "ทีเอ็นที เซอร์วิส แอนด์ แพ็คเกจ",
        "emails": [
            "sale.tntservice@gmail.com"
        ],
        "id": "344280372440248",
        "name": "ทีเอ็นทีเซอร์วิส ซ่อมเครื่องรัดกล่อง",
        "phone": "099-8592492, 085-9034754"
    },
    {
        "id": "1643659459220958",
        "name": "รับซ่อมเครื่องautclave เครื่องปิดผนึกซอง sturdyติดต่อ061-4382326"
    },
    {
        "about": "บริการซ่อมอุปกรณ์เครื่องมือ ระบบไฮโดรลิค ระบบนิวเมติกส์(ระบบลม) ฯลฯ",
        "description": "ประสบการณ์การทำงานมากกว่า 30 ปี ในงานซ่อมบำรุงอุปกรณ์ประจำศูนย์บริการและอู่รถยนต์ และอุปกรณ์ต่างๆที่เกี่ยวข้องกับ ระบบไฮโดรลิด ระบบนิวเมติกส์(ระบบลม) ลูกค้าของเรามีทั้งอู่ขนาดเล็ก กลาง และใหญ่ ด้วยที่เราเป็นตัวแทนและพาร์ทเนอร์ของ \n   บริษัท วี.เยนเนอรัล โอโตกรุ๊ป จำกัด (www.vgeneral.com)\n   บริษัท ซีโกส (ประเทศไทย) จำกัด (www.ceegosth.com\n   บริษัท เอ็มเอสเอส เทรดดิ้ง แอนด์ เซอร์วิส จำกัด (บางเขน)\n   บริษัท เอ็มเอสเอส อิควิปเมนท์ แอนด์ เซอร์วิส จำกัด (ลำลูกกา)\nเราได้รับความไว้วางใจให้เข้าไปบริการในศูนย์บริการรถยนต์ โตโยต้า มิตซูบิชิ อีซูซุ ฟอร์ด มาสด้า และอื่นๆอีกมากมายในกรุงเทพมหานครและปริมณฑล ณ ปัจจุบันเรากำลังขยายงานบริการของเราออกสู่ต่างจังหวัดอย่างต่อเนื่อง ",
        "emails": [
            "venine.service@gmail.com"
        ],
        "id": "1426420104287429",
        "location": {
            "city": "กรุงเทพมหานคร",
            "street": "18 ซ.ลาดปลาเค้า50 ถ.ลาดปลาเค้า แขวงจรเข้บัว เขตลาดพร้าว",
            "zip": "10230"
        },
        "name": "V9 : วีไนน์ เซอร์วิส : ซ่อมเครื่องมือในอู่รถยนต์ทุกชนิด",
        "phone": "0899259250"
    },
    {
        "emails": [
            "arunee_phuk-on@hotmail.com"
        ],
        "id": "1894717257419640",
        "location": {
            "city": "Bangkok",
            "country": "Thailand",
            "latitude": 13.6392803,
            "longitude": 100.4384995,
            "street": "23 ซอย ท่าข้าม 28 แยก 36 แสมดำ บางขุนเทียน",
            "zip": "10150"
        },
        "name": "จำหน่าย/รับซ่อม เครื่องปั๊มลม, Air Dryer, อุปกรณ์ปั๊มลมทุกชนิด",
        "phone": "0940896991"
    },
    {
        "id": "512006432291354",
        "name": "ช่างซ่อมเครื่อง cummins ทุกรุ่น"
    },
    {
        "about": "ช่องทางการติดต่อนะคับ lD.toom1045 0946744981. รับซ่อมจริงคับ ที่อยู่ 15\\7 หมู่5 อ.เมือง จังหวัดอ่างทอง",
        "id": "109856196018876",
        "name": "รับซ่อมเครื่องปันนํ้าผลไม้ทุกรุ่น-และมีอะไหล่เปลี่ยนทุกรุ่น"
    },
    {
        "about": "ซ่อมครื่องซักผ้า  ทีวี-ดาวเทียม\nตู้เย็น  เครื่องชั่นนำทุกยี้ห้อ\n   092-719-9933\n",
        "description": "ซ่อมครื่องซักผ้า ทีวี-ดาวเทียม\nตู้เย็น เครื่องชั่นนำทุกยี้ห้อ\n092-719-9933",
        "id": "650387065000426",
        "name": "ช่างซ่อมเครื่องเสียงทุกชนิด"
    },
    {
        "about": "บริการ ติดตั้ง ซ่อม ล้าง แอร์บ้าน , ตู้เย็น , เครื่องซักผ้า ",
        "id": "1422661764707478",
        "location": {
            "city": "Bangkok",
            "country": "Thailand",
            "latitude": 13.79395343,
            "longitude": 100.58507685,
            "street": "ลาดพร้าว 48",
            "zip": "10310"
        },
        "name": "โชคชัยแอร์บ้าน บริการติดตั้ง ซ่อม ล้าง แอร์ ตู้เย็น เครื่องซักผ้า",
        "phone": "0876767986"
    },
    {
        "about": "รับเหมาก่อสร้างและงานซ่อมเครื่องจักรและอาคาร",
        "id": "933353336695489",
        "name": "งานซ่อมบำรุงเครื่องจักและอาคาร"
    },
    {
        "about": "จำหน่าย/ซ่อม/ล้างเครื่องปรับอากาศ",
        "emails": [
            "bunchaengineering@gmail.com"
        ],
        "id": "167184416783639",
        "location": {
            "city": "Suphan Buri",
            "country": "Thailand",
            "latitude": 14.4669908822,
            "longitude": 100.11760081482,
            "street": "1/10 ถ.โพธิ์อ้น - หวายสอ ต.สองพี่น้อง อ.สองพี่น้อง จ.สุพรรณบุรี",
            "zip": "72110"
        },
        "name": "บัญชา เอ็นจิเนียริ่ง จำหน่าย/ซ่อม/ล้างเครื่องปรับอากาศ",
        "phone": "0890152899"
    },
    {
        "id": "1415999668722269",
        "name": "จำหน่ายและบริการซ่อมเครื่องซักผ้าหยอดเหรียญ,ตู้นำ้ดื่ม"
    },
    {
        "about": "\"รวดเร็ว คุ้มค่า เราให้มากกว่าบริการ\"\nTel.02-1589599,080-7778651\nหรือที่ ID LINE: bmimedical",
        "emails": [
            "bmimedical11@gmail.com"
        ],
        "id": "656863121021421",
        "location": {
            "city": "กรุงเทพมหานคร",
            "street": "บริษัท บีเอ็มไอ เมดิคอล จำกัด 316/42 ลาดพร้าว 87 เเขวงคลองเจ้าคุณสิงห์, กรุงเทพมหานคร 10310"
        },
        "name": "รับซ่อมเครื่องมือแพทย์",
        "phone": " โทรศัพท์\tโทร. 02-1589599 , 080-7778651"
    }
]