[
    {
        "about": "1.Repair Computer and Electric Machine Serviceใ\n2.Design Network system and everything with IT.\n",
        "description": "รับซ่อมคอมพิวเตอร์ เครื่องใช้ไฟฟ้า และยังรับออกแบบระบบเน็ตเวิร์ค วางเซิฟเวอร์ มีบริการ รับส่งถึงสถานที่ในละแวก อำเภอ บ้านฉาง รับประกันคุณภาพงาน แจ้งราคาก่อนซ่อมทุกครั้ง สนใจติดต่อ โทร. 0868261628",
        "emails": [
            "ospongkung@gmail.com"
        ],
        "id": "168781079934255",
        "location": {
            "city": "Ban Chang Kham",
            "country": "Thailand",
            "zip": "21130"
        },
        "name": "ซ่อมคอม เครื่องใช้ไฟฟ้า บ้านฉาง",
        "phone": "0868261628"
    },
    {
        "about": "รับซ่อมพัดลมและ เครื่องใช้ไฟฟ้าในครัวเรือน\nLine : pongkm2",
        "description": "สวัสดีครับ. ร้านซ่อมพัดลม และ ขายอะไหล่ พัดลม ที่ใหญ่ที่สุดในย่านรามอินทรา เราบริการรับ ซ่อมพัดลม ตั้งโต๊ะ 12,14,16,18นิ้ว พัดลมฝาผนัง พัดลมโรงงาน และถ้ามีเป็นจำนวนมาก เช่น พัดลมตามหอพัก คอนโด หรือโรงแรม และ สำนักงาน หรือ หน่วยงานต่างๆ จะคิดราคาพิเศษตามจำนวน และเรายังมีบริการรับ สั่งอะไหล่พัดลม ขายส่งและขายปลีก อาทิ เช่น ใบพัดลม เฟื่องส่าย และอะไหล่ต่างๆ ส่ง ทาง ไปรษณีย์ ทั่วประเทศ ติดต่อสอบถาม ได้ครับ และเรามีบริการรับ ซ่อมเครื่องใช้ไฟฟ้า ต่างๆ เช่น เครื่องปั่นน้ำผลไม้ เตารีด เตาอบ หม้อหุ่งข้าว ที่หนีบผม ไดร์เป่าผม และเครื่องใช้ไฟฟ้า ในครัวเรือนต่างๆ และ TV  เปิดมานาน กว่า10ปี ร้านตั้งอยู่ที่ ตลาด รามอินทรา กม2(ตลาด ลาดปลาเค้า) ติดต่อปรึกษา ได้ที่086-887-3322   LINE ID : pongkm2\n\n*เปิดบริการแล้วครับ สาขาที่2 ถนน สุเหร่าคลองหนึ่ง(กีบหมู) แถวเส้นหมู่บ้านปัญญา กม8 ครับบ*\n",
        "id": "141008586048556",
        "location": {
            "latitude": 13.868311763173,
            "longitude": 100.61417857407,
            "zip": "10220"
        },
        "name": "รับซ่อมพัดลมและเครื่องใช้ไฟฟ้า",
        "phone": "0868873322"
    },
    {
        "about": "ให้คำปรึกษาและแก้ไขอาการเสียสำหรับเครื่องชงกาแฟชนิดแคปซูล0819177868",
        "id": "853245261376350",
        "location": {
            "city": "Non Buri",
            "country": "Thailand",
            "latitude": 13.924840970653,
            "longitude": 100.51154494286,
            "street": "100/1341 ม.8 หมู่บ้าน ลานทอง อ.ปากเกร็ด ต.บางพูด",
            "zip": "11120"
        },
        "name": "ซ่อมเครื่องชงกาแฟแคปซูล",
        "phone": "0819177868"
    },
    {
        "about": "กล้องวงจรปิด แอร์บ้าน-โรงงาน\n",
        "emails": [
            "aonprinter@gmail.com"
        ],
        "id": "474747962700446",
        "location": {
            "city": "Nakhon Nayok",
            "country": "Thailand",
            "latitude": 14.203057419238,
            "longitude": 101.21279776096,
            "street": "ข3-398/9 ถนนชลประสิทธิ์ ตำบลนครนายก",
            "zip": "26000"
        },
        "name": "ซ่อม อะไหล่ คอม ปริ้นเตอร์ กล้องวงจรปิด แอร์ เครื่องใช้ไฟฟ้า นครนายก",
        "phone": "037-314476, 084-1074744, 0849155295"
    },
    {
        "about": "https://www.facebook.com/anurakair",
        "description": "ที่ร้านให้บริการซ่อมแอร์ ติดตั้งเครื่องเสียงรถยนต์ อุปกรณ์ระบบแอร์รถยนต์มีอายุการใช้งาน ตามระยะปี ระยะกิโลเมตรที่วิ่งใช้งาน เช็คก่อนซ่อมก่อนก็ไม่เสียหายกลางทาง ไม่เสียหายมาก หากปล่อยให้แอร์เสียหยุดทำงานไปเฉยๆ หรือเปิดแอร์แล้วมีเสียงดังผิดปกติ เปิดแอร์แล้วมีกลิ่นเหม็นไหม้ เปิดแอร์แล้วน้ำรั่วในรถ แสดงว่าระบบแอร์มีความผิดปกติ มีการเสื่อมอายุของอุปกรณ์ในระบบ ควรหาร้านแอร์ที่ใก้ลบ้าน หรือที่คุณมั่นใจ พอใจในคุณภาพและราคา แล้วซ่อมให้ไวที่สุด เพราะแอร์เย็นไว ก็ประหยัดน้ำมันด้วยครับ",
        "emails": [
            "ais1175@gmail.com"
        ],
        "id": "245965355532564",
        "location": {
            "city": "Chiang Mai",
            "country": "Thailand",
            "street": "41 ถ.อนุวิถี  ซอยเจริญเมือง 5 ตำบลท่าศาลา",
            "zip": "50000"
        },
        "name": "ร้านอนุรักษ์แอร์ ซ่อมแอร์ ติดตั้งเครื่องเสียงรถยนต์เชียงใหม่",
        "phone": "094-6355505"
    },
    {
        "about": "เกมส์ PC อะไหร่คอมพิวเตอร์ Notebook หนัง อื่นๆอีกมากมาย",
        "description": "K\u0026J comservice \n\nรับซ่อมอัพเกรตคอมพิวเตอร์ Notebook Pc ทุกรุ่น ทุกยี่ห้อ\n\nรับซื้อขาย อะไหร่่ มือหนึ่ง มือสอง\n\nรับติดตั้ง เดินสายระบบ เซิร์ฟเวอร์ อาคาร ต่างๆ\n\nรับออกแบบกราฟฟิค 3D 2D\n\nรับพิมพ์งานทุกประเภท\n\n***บริการ รับซ่อมนอกสถานที่ ***\n\nร้านอยู่ที่ไป ศวพ (โรงแรมอมรินรากูล) ครับ\n\nสนใจโทร 0899607766 0925237771 0612073024",
        "id": "575849279180512",
        "location": {
            "city": "Bangkok",
            "country": "Thailand",
            "latitude": 16.83441,
            "longitude": 100.31658,
            "street": "73/111 ถ.พระองค์ขาว ต.ในเมือง อ.เมือง จ.พิษณุโลก",
            "zip": "65000"
        },
        "name": "รับซ่อมคอม พิษณุโลก อะไหร่คอมพิวเตอร์ Notebook PC เครื่องใช้ไฟฟ้า",
        "phone": "094-2083686"
    },
    {
        "about": "silver",
        "description": "จำหน่ายและซ่อม",
        "general_info": "ได้รับประกาศนียบัตร OTOP 4 ดาว",
        "id": "502191213128628",
        "location": {
            "city": "Amphoe Muang Suphan Buri",
            "country": "Thailand",
            "street": "18/3",
            "zip": "72000"
        },
        "name": "เครื่องเงินแท้ 92.5% ขาย-รับซ่อม",
        "phone": "0959104486"
    },
    {
        "about": "บริการซ่อมเครื่องดนตรี GUITAR,BASS,KEYBOARD,AMP และอื่นๆ\nโทร 081-793-9990,095,586-4683",
        "id": "511567402264095",
        "location": {
            "city": "ถนนบรมราชชนนี แขวงอรุณอมรินทร์ เขต บางพลัด กรุงเทพ",
            "street": "ฝั่งตรงข้ามเซ็นทรัลปิ่นเกล้า เลขที่262 ซอยบรมราชชนนี6 ถนน",
            "zip": "10700"
        },
        "name": "ซ่อมเครื่องดนตรีClassic Music shop",
        "phone": "081-793-9990"
    },
    {
        "about": "รับซ่อมมือถือ เปลี่ยนอะไหล่ ทัชกรีน จอแตก ขายมือถือเครื่องใหม่ มือ2 รับฝากมือถือ โน๊ตบุ๊ค ",
        "description": "รับซ่อมมือถือ เปลี่ยนอะไหล่ ทัชกรีน จอแตก ขายมือถือเครื่องใหม่ มือ2 รับฝากมือถือ โน๊ตบุ๊ค atmobilefortune",
        "emails": [
            "atmobile9999@gmail.com"
        ],
        "id": "891222434223593",
        "location": {
            "city": "พระราม 9",
            "street": "fortuneซ่อมมือถือทุกรุ่น"
        },
        "name": "ซ่อมมือถือฟอร์จูน พระราม9 ขายมือ2 ขายเครื่องใหม่",
        "phone": "0938892644"
    },
    {
        "about": "รับซ่อม และ โมดิฟายด์ เครื่องเกมส์ ",
        "description": "รับซ่อมและโมดิฟายเครื่องเกมส์พกพา \n\nและจำหน่ายอุปกรณ์ เครื่องเกมส์\n\nรวมทั้งจำหน่ายเครื่องเกมส์มือสง",
        "id": "633566580080246",
        "name": "รับซ่อมและโมดิฟาย เครื่องเกมส์พกพา",
        "phone": "0815579559"
    },
    {
        "id": "818394904934961",
        "location": {
            "city": "Ubon Ratchathani",
            "country": "Thailand",
            "latitude": 15.2281,
            "longitude": 104.859,
            "street": "อ.วารินชำราบ"
        },
        "name": "ร้านซ่อมทีวี แอร์ เครื่องใช้ไฟฟ้าทุกชนิด จ.อุบลราชธานี",
        "phone": "0821476762"
    },
    {
        "id": "1620892214840860",
        "name": "ศูนย์ซ่อมเครื่องใช้ไฟฟ้าทุกชนิด"
    },
    {
        "about": "ซ่อมเครื่องใช้ไฟฟ้าทุกชนิด",
        "id": "588522111290971",
        "location": {
            "city": "กรุงเทพมหานคร",
            "street": "นวลจันทร์ 36 แยก 14",
            "zip": "10230"
        },
        "name": "บริการซ่อมเครื่องใช้ไฟฟ้าทุกชนิด",
        "phone": "029497923"
    },
    {
        "about": "รับซื้อและจำหน่ายเครื่องเล่นเกมส์ อุปกรณ์ รับลงเกมส์ อัพเดตFW รวมถึงซ่อมและแก้ไขระบบต่างๆ",
        "id": "599308456834938",
        "name": "รับซื้อ ขาย ซ่อมเครื่องเกมส์ทุกชนิด",
        "phone": "0830076714"
    },
    {
        "about": "รับซ่อมเครื่องใช้ไฟฟ้าทุกชนิด",
        "id": "495088913981331",
        "location": {
            "city": "อ.หาดใหญ่ จ.สงขลา",
            "street": "71ซ.หมู่บ้านเนินทองพัฒนา ต.ควนลัง",
            "zip": "90110"
        },
        "name": "รับซ่อมเครื่องใช้ไฟฟ้าหาดใหญ่",
        "phone": "0883872541"
    },
    {
        "about": "บริการซ่อม, ให้คำปรึกษา และ ปรังปรุงคุณภาพอุปกรณ์ทางด้านเสียงทุกชนิดของท่านตามต้องการ.",
        "description": "\"AMP ELECTRONICS \u0026 MODIFY\"\n364/4, ถ.ประชาธิปัตย์-ซ.3\nต.หาดใหญ่, อ.หาดใหญ่\nจ.สงขลา 90110\nติดต่อ: วิศวกร (แอมป์)\nMobile: 081 189 6392",
        "id": "100685676747639",
        "name": "บริการซ่อม อัพเกรด โมดิฟายฯ และ D.I.Y อุปกรณ์เครื่องเสียง ลำโพง แบรนด์เนม"
    },
    {
        "about": "ซ่อมเครื่องซักผ้า เครื่องอบผ้า ปทุมธานี นนทบุรีพิ้นที่ใกล้เคียง บริการโดยช่างเฉพาะทาง ",
        "description": "ซ่อมเครื่องซักผ้าฝาหน้า เครื่องซักผ้าฝาบน ซ่อมโปรแกรมเครื่่องซักผ้า เครื่องอบผ้า ปทุมธานี นนทบุรี และพิ้นที่ใกล้เคียง บริการถึงบ้าน โดยช่างเทคนิคเฉพาะทาง ติดต่อ 080977010,028323791",
        "id": "451979288288576",
        "location": {
            "latitude": 14.0667,
            "longitude": 100.65,
            "street": "คลองสาม จังหวัดปทุมธานี",
            "zip": "12120"
        },
        "name": "ซ่อมเครื่องซักผ้า นำโชคอิเล็กทรอนิกส์",
        "phone": "0809770108"
    },
    {
        "about": "แจ้งซ่อม\nOffice : 02-0195930\nมือถือ : 086-8148819",
        "description": "Homeservice บริการซ่อมเครื่องใช้ไฟฟ้า, แอร์, เครื่องซักผ้า, เครื่องอบผ้า,ตู้เย็น, ตู้แช่ ในรูปแบบ home service แจ้งซ่อม/Office : 02-0195930, มือถือ : 086-8148819  หรือทาง Line id: konservice\n-------------------เฉพาะในเขตกทม.และปริมณฑล-------------------",
        "emails": [
            "sakonelec@gmail.com"
        ],
        "id": "124344584384025",
        "location": {
            "city": "Bangkok",
            "country": "Thailand",
            "street": "taksin road",
            "zip": "10600"
        },
        "name": "ซ่อมเครื่องซักผ้า ซ่อมตู้เย็น กรุงเทพและปริมณฑล",
        "phone": "02-0195930, 086-8148819"
    },
    {
        "about": "0854976656",
        "id": "609909025707217",
        "name": "เจ๊เพ็ญเครื่องปั๊มนม Medela freestyle/PIS มือสองของใหม่ ประกัน/เช่า/รับซ่อม",
        "phone": "0854976656"
    },
    {
        "about": "จำหน่ายและซ่อมจักรฯ และสินค้าเครื่องใช้ไฟฟ้า SINGER และอุปกรณ์เสริมจักรฯ",
        "description": "จำหน่าย :\nจักรเย็บผ้าทุกชนิด ทุกยี่ห้อ ทั้งใหม่และของมือสอง สภาพดี!! + อุปกรณ์อะไหล่เสริมทุกชนิด + สินค้าเครื่องใช้ไฟฟ้า SINGER ทุกชนิด + พร้อมการบริการหลังการขาย\nรับบริการซ่อมบำรุง - เปลี่ยนแปลง Upgrade :\nจักรเย็บผ้าทุกชนิด ทุกยี่ห้อ โดยช่างผู้ชำนาญ + รับแจ้งสินค้า SINGER มีปัญหา \nโดยท่านสามารถนำมาที่ร้านได้ทันที หรือติดต่อมาให้ช่างไปบริการถึงบ้าน โดยช่างศูนย์ SINGER ผู้ชำนาญเฉพาะทาง",
        "emails": [
            "britneynongyaya@hotmail.com"
        ],
        "id": "795342880532861",
        "location": {
            "city": "Amphoe Sadao",
            "country": "Thailand",
            "latitude": 6.6062,
            "longitude": 100.46921,
            "street": "108/29 ถนนปาดังเบซาร์ ตำบลสะเดา",
            "zip": "90120"
        },
        "name": "ร้าน ขาย-ซ่อมจักรเย็บผ้า และเครื่องใช้ไฟฟ้า บังนี Singer",
        "phone": "0899750794"
    },
    {
        "about": "จำหน่าย ขาย ซ่อม เครื่องออกกำลังกายทุกยี่ห้อ ราคาเป็นกันเอง การบริการเยี่ยม",
        "id": "297654317109910",
        "location": {
            "city": "ชลบุรี",
            "street": "74/19 ม.3 ต.บ้านสวน อ.เมือง จ.ชลบุรี",
            "zip": "20000"
        },
        "name": "ชลบุรี ฟิตเนส ขาย+ซ่อมเครื่องออกกำลังกายครบวงจร",
        "phone": "038283421 0815725927"
    },
    {
        "about": "รับซ่อม: LCD LED Plasma TV.\nเครื่องใช้ไฟฟ้าทุกชนิด\nรับประกอบ:คอมฯ. แอมป์กลางแจ้ง\nTel.085-0153798\nID Line:0850153798",
        "id": "508294765972591",
        "name": "ศูนย์ซ่อม LCD LED Plasma Tv เครื่องใช้ไฟฟ้าทุกชนิด สุรินทร์/บุรีรัมย์"
    },
    {
        "about": "รับซ่อม ครื่องซักผ้าฝาหน้า ฝาบน เครื่องอบผ้า \nโทร 0809770108, 028323791\nLine : numchokeservice",
        "description": "รับซ่อมเครื่องซักผ้า เครื่องอบผ้า บริการถึงบ้านกรุงเทพ ปทุมธานี นนทบุรี ปริมณฑล400 บาท 0809770108***รับประกันหลังการซ่อม*** \n\nรับซ่อมเครื่องซักผ้า เครื่องอบผ้า บริการถึงบ้านกรุงเทพและปริมณฑล400 บาท \n\nนำโชคอิเล็กทรอนิกส์เครื่องซักผ้า รับซ่อม/ล้างเครื่องซักผ้าทุกรุ่นทุกยี่ห้อ*ไม่ต้องยกเครื่อง*โดยช่างเทคนิคเชี่ยวชาญเฉพาะด้าน \n\nรับซ่อมล้างเครื่องซักผ้าเขต -นนทบุรี ปทุมธานีและพื้นที่ใกล้เคียง\n\n\n(รับประงาน 6 เดือน เฉพาะอะไหล่ตามช่างแจ้งเท่านั้น)\n\n(ประเมินราคาก่อนซ่อมถึงบ้านฟรีตามเขตพื้นที่ที่ระบุข้างต้น) \n\nสามารถเข้าซ่อมงานตั้งแต่ 09.00-21.00 น.ทุกวัน \n\nทำไมต้องล้างถังเครื่องซักผ้าฝาบน \nวิธีการดูว่าเครื่องของคุณถึงเวลาล้างใหญ่หรือยัง \n1. เวลาซักผ้าเสร็จจะมีคราบหรือจุดดำๆติดมากับผ้า \n2. ในถังเครื่องซักผ้ามีกลิ่นอับและติดผ้า(กรณีซักไม่ใช้น้ำยาปรับผ้านุ่ม) \n3. เปิดฝาหลังเครื่องดู \n3.1 ไขน๊อตออกจากฝาสังกะสี หลังเครื่อง 4 ตัว \n3.2 เมื่อแกะออกมาแล้วจะเห็นถังชั้นนอกสีขาวขุ่น แล้วดูว่ามีเงาเป็นคราบสีดำหรือไม่ \nถ้ามีต้องทำการล้างใหญ่ครับ (น้ำส้มสายชูไม่ออกครับเพราะช่างต้องใช้เกียงปาดออก \nข้อความนี้ได้มากจากประสบการณ์ตรงครับ อัตราการให้บริการ(เฉพาะฝาบน)\nอัตราล้างเครื่อง 500 บาท ล้างถังใน ถังนอก\n",
        "id": "297395196991943",
        "name": "ซ่อมเครื่องซักผ้า ร้านนำโชคอิเล็กทรอนิกส์",
        "phone": "0809770108"
    },
    {
        "about": "รับซ่อมเครื่องออกกำลังกาย รับซ่อมลู่วิ่งไฟฟ้า 0982979661",
        "description": "ซ่อมเครื่องออกกำลังกาย เครื่องออกกำลังกาย  นอกสถานที่ ซ่อมลู่วิ่งไฟฟ้า เปลี่ยนไม้กระดานลู่วิ่ง เปลี่ยนสายพานลู่วิ่ง รับซ่อมเครื่องออกกำลังกายทุกยี่ห้อ",
        "id": "663318513710585",
        "name": "ซ่อมเครื่องออกกำลังกาย ซ่อมแอร์เครื่องซักผ้า",
        "phone": "098-297-9661"
    },
    {
        "about": "บริการด้วยใจ ยินดีตอบทุกคำถาม",
        "description": "รับซ่อม เครื่องใช้ไฟฟ้าอิเล็กทรอนิกส์ รับทำโปรเจ็กไฟฟ้า\u0026อิเล็กทรอนิกส์พร้อมให้คำปรึกษาก่อนทำ",
        "emails": [
            "wirayut090@gmail.com"
        ],
        "general_info": "รับซ่อม เครื่องใช้ไฟฟ้าอิเล็กทรอนิกส์ ทุกชนิด รับทำโปรเจ็กด้านไฟฟ้า\u0026อิเล็กทรอนิกส์ และอื่นๆ",
        "id": "1627264420845902",
        "location": {
            "city": "Amphoe Kantharalak",
            "country": "Thailand",
            "latitude": 14.55,
            "longitude": 104.617,
            "street": "211 หมู่ 17 บ.นากันตม ต.สังเม็ก อ.กันทรลักษ์ จ.ศรีสะเกษ",
            "zip": "33110"
        },
        "name": "รับซ่อม เครื่องใช้ไฟฟ้าอิเล็กทรอนิกส์",
        "phone": "0945047494"
    }
]