[
    {
        "id": "139673779716666",
        "name": "นายสิบตรี ช่างซ่อมเครื่องกำเนิดไฟฟ้า"
    },
    {
        "about": "รับซ่อมเครื่องครัวอุตสาหกรรม โรงแรม และอุปกรณ์เครื่องครัวทุกชนิด",
        "id": "1425676017724904",
        "name": "ซ่อม ขาย ออกแบบ เครื่องครัวสแตนเลส"
    },
    {
        "about": "จำหน่าย-ซ่อมลู่วิ่งไฟฟ้า,จักรยาน,ชุดโฮมยิม,อุปกรณ์กลางแจ้ง,และเครื่องออกกำลังกายทุกชนิด",
        "id": "433674130132766",
        "location": {
            "street": "อ.เมืองจ.พิษณุโลก",
            "zip": "65000"
        },
        "name": "จำหน่าย-ซ่อมเครื่องออกกำลังกายทุกชนิด",
        "phone": "0891339229"
    },
    {
        "about": "ติดต่อใช้บริการได้ที่ ช่างยุ0870022183\nช่างหนึ่ง0856756520",
        "id": "1481029658777699",
        "location": {
            "city": "Nadi",
            "country": "Thailand",
            "latitude": 14.120965,
            "longitude": 101.7573749,
            "street": "บ้านโคกกระจง ม.6 ต.สำพันตา อ.นาดี",
            "zip": "25220"
        },
        "name": "ยุ-หนึ่ง ไฟฟ้าบริการ ให้เช่าไฟประดับและเครื่องเสียง ติดตั้งซ่อมล้างแอร์บ้าน",
        "phone": "0870022183"
    },
    {
        "id": "188350687932961",
        "name": "กองร้อย  ทหารช่างเครื่องมือเเละซ่อมบำรุง"
    },
    {
        "id": "858508164218489",
        "location": {
            "city": "Bangkok",
            "country": "Thailand",
            "latitude": 13.69878,
            "longitude": 100.42106,
            "street": "บางแค",
            "zip": "10160"
        },
        "name": "บางแคซาวด์ Bangkea Sound ขายเครื่องเสียงบ้าน-รถยนต์ รับซ่อมลำโพงทุกชนิด",
        "phone": "0830235275"
    },
    {
        "id": "919642521410267",
        "name": "คนสายช่างดาวเทียมซ่อมเครื่องไช้ไฟฟ้า"
    },
    {
        "about": "ซื้อ,ขาย,ซ่อม,เครื่องฉีดพลาสติก,เครื่องบด,เคลื่องผสมสี,ตู้อบ,ระบบการผลิตในโรงงาน",
        "description": "ซื้อ ขาย ซ่อม สร้าง เครื่องจักรสำหรับอุตสาหกรรม\nนำเข้าเครื่องจักรทุกชนิดทั่วโลก",
        "emails": [
            "redlinetech01@gmail.com"
        ],
        "id": "1569193940017143",
        "location": {
            "city": "Samut Sakhon",
            "country": "Thailand",
            "street": "11/10 , 5 ดอนไก่ดี กระทุ่มแบน",
            "zip": "74110"
        },
        "name": "ซื้อ ขาย ซ่อม เครื่องฉีดพลาสติก และ อุปกรณ์",
        "phone": "0890221669"
    },
    {
        "about": "thesotusfitness รับซ่อมเครื่องออกกำลังกายและจำหน่ายเครื่องออกกำลังกาย",
        "id": "339479146197343",
        "location": {
            "street": "259 หมู่4 ต.หนองผึ้ง อ.สารภี จ.เชียงใหม่",
            "zip": "50140"
        },
        "name": "รับซ่อมและจำหน่ายเครื่องออกกำลังกาย",
        "phone": "053424599 ,0940184560"
    },
    {
        "id": "840176829428746",
        "name": "ช่างเครื่องมือกล ซ้อมบำรุง"
    },
    {
        "about": "ร้านเซฟแอร์เซอร์วิส จำหน่ายแอร์พร้อมติดตั้ง ล้างซ่อมเช็ค เติมน้ำยา ",
        "id": "888672687876401",
        "location": {
            "city": "Udon Thani",
            "country": "Thailand",
            "latitude": 17.42029,
            "longitude": 102.7702637,
            "street": "อุดร"
        },
        "name": "แอร์บ้านอุดร ร้านเซฟแอร์เซอร์วิส จำหน่ายเครื่องปรับอากาศ ซ่อม ติดตั้ง",
        "phone": "0833322318,0883256871"
    },
    {
        "about": "รับซ่อมเครื่อง ซ่อมช่วงล่าง ศูนย์เปลี่ยนถ่ายน้ำมันเครื่องคลาสตอล",
        "description": "รับซ่อมเครื่องยนต์ รับซ่อมช่วงล่างเบรค ครัช ศูนย์เปลี่ยนถ่ายน้ำมันเครื่องคลาสตอ\nขายกรองเครื่องราคาพิเศษ ยินดีให้คำแนะนำปัญหาเครื่องยนต์\n\nรับรองค่าแรงถูกกว่าที่อื่นมาก\n",
        "emails": [
            "kul03@msn.com"
        ],
        "id": "525846854138413",
        "location": {
            "city": "Bangkok",
            "country": "Thailand",
            "latitude": 13.8081303,
            "longitude": 100.6544724,
            "street": "73/13 ถ.เสรีไทย ระหว่าง ซอย 12 กับ 14 คลองกุ่ม บึงกุ่ม",
            "zip": "10240"
        },
        "name": "อู่ช่างกอล์ฟ ซ่อมช่วงล่าง ซ่อมเครื่อง เปลี่ยนถ่ายน้ำมันเครื่อง",
        "phone": "0898801913"
    },
    {
        "id": "1385057921780803",
        "location": {
            "city": "Ayutthaya",
            "country": "Thailand",
            "latitude": 14.16894,
            "longitude": 100.34007,
            "street": "33/219 ม.3 ต.สามเมือง อ.ลาดบัวหลวง",
            "zip": "13230"
        },
        "name": "Procom ลาดบัวหลวงจำหน่ายอุปกรณ์ไอที บริการซ่อมคอมพิวเตอร์เครื่องปริ้น",
        "phone": "035379631"
    },
    {
        "about": "จำหน่ายเครื่องถ่ายเอกสารและอะไหล่พร้อมติดตั้ง รับถ่ายเอกสาร ทำเล่มและอื่นๆ",
        "id": "156552904550662",
        "location": {
            "city": "Kanchanaburi",
            "country": "Thailand",
            "latitude": 13.93725,
            "longitude": 99.30342,
            "street": "เมือง",
            "zip": "71000"
        },
        "name": "รับซ่อม ถ่ายเอกสารและจำหน่ายเครื่องถ่ายเอกสารพร้อมอะไหล่",
        "phone": "0852504205"
    },
    {
        "about": "รับซ่อมเครื่องเชื่อมอินเวอร์เตอร์ และเครื่องเชื่อมเลเซอร์",
        "id": "766282366851416",
        "name": "รับซ่อมเครื่องเชื่อมทุกชนิด 0890569198"
    },
    {
        "about": "รับจ้างทาสี , ปูกระเบื้อง , รับซ่อมเครื่องพ่นสีราคาถูก",
        "id": "653627801317524",
        "location": {
            "city": "Bangkok",
            "country": "Thailand",
            "latitude": 13.89633,
            "longitude": 100.63934,
            "street": "กรุงเทพ",
            "zip": "10220"
        },
        "name": "รับทาสีบ้าน ปูกระเบื้อง และรับซ่อมเครื่องพ่นสีราคาถูกๆ",
        "phone": "0819088659"
    },
    {
        "id": "891958067535733",
        "location": {
            "city": "Chai Nat",
            "country": "Thailand",
            "latitude": 15.09464,
            "longitude": 99.94923,
            "street": "182 หมู่7 ตำบลห้วยงู อำเภอ หันคา จังหวัด ชัยนาท",
            "zip": "17160"
        },
        "name": "รับซ่อมทีวีซีดีตู้เย็นเครื่องซักผ้าติดตั้งเครื่องเสียงแอร์เตาไมโครเวฟ",
        "phone": "0830830525 "
    },
    {
        "about": "bkcservice@hotmail.co.th",
        "description": "BKC Service.Com บริการซ่อมคอมพิวเตอร์นอกสถานที่ ดูแลระบบคอมพิวเตอร์รายเดือน รายปี ,ระบบอินเตอร์เน็ต wireless , Windows Server ,ออกแบบเว็บไซด์ โปรแกรมต่างๆ ซ่อมคอม ราคา ประหยัด 087 248 9696",
        "emails": [
            "bkcservice@hotmail.co.th"
        ],
        "id": "461405733878207",
        "location": {
            "city": "Surin",
            "country": "Thailand",
            "zip": "32000"
        },
        "name": "บริการรับซ่อม เครื่องคอมพิวเตอร์ถึงบ้าน ฯลฯ",
        "phone": "0872489696"
    },
    {
        "about": "สิ่งพิมพ์ทุกชนิด /รับซ่อมเครื่องหลังงานพิมพ์08-44992231",
        "id": "777421385633746",
        "location": {
            "city": "อุดรธานี"
        },
        "name": "ก็อปปี้พริ้นต์แอนด์เซอร์วิส_งานพิมพ์และงานซ่อมเครื่อง",
        "phone": "0844992231"
    },
    {
        "about": "ซ่อมรองเท้า กระเป๋า เครื่องหนังทุกชนิด",
        "description": "เป็นทางเลือกสำหรับคนที่มองหาร้านซ่อมรองเท้าอีกซัก 1 ร้านในเมืองแม่สะเรียง เราสามารถซ่อมรองเท้า กระเป๋า เครื่องหนัง ทุกชนิด โดยให้บริการโดยช่างที่ละเอียดและใส่ใจกับชิ้นงานที่รับซ่อมมากที่สุด สามารถให้คำปรึกษาในการซ่อมและไม่ดองงานไว้ที่เราสามารถติดต่อกับทางร้านได้หลายช่องทางที่ 0837664212 , อีเมล์ nontc.10@hotmail.com\n",
        "emails": [
            "nontc.10@hotmail.com"
        ],
        "id": "296605383684000",
        "location": {
            "city": "Chiang Mai",
            "country": "Thailand",
            "street": "แม่สะเรียง",
            "zip": "58110"
        },
        "name": "ร้านซ่อมร้องเท้าและเครื่องหนัง",
        "phone": "0837664212"
    },
    {
        "about": "ซ่อมพระ หรือศัลยกรรมพระ",
        "id": "1490313944612756",
        "location": {
            "city": "Doem Bang",
            "country": "Thailand",
            "latitude": 14.85,
            "longitude": 100.1,
            "street": "จังหวัดสุพรรณบุรี",
            "zip": "72120"
        },
        "name": "ช่างนกซ่อมพระเครื่อง",
        "phone": "0871205096"
    },
    {
        "about": "บริการซ่อมคอมพิวเตอร์  และอัพเกรดคอม ทั้ง PC NotBOok",
        "description": "บริการลงวินโดว์ 300บาท โปรแกรมครบ สามารถเลือกได้ xp win7 \nบริการซ่อมคอมพิวเตอร์และอัพเกรดคอม ทั้ง PC NotBOok\n2 ม.3  ต.ท่าราบ  อ.เมือง ราชบุรี 70000\nโทร 080-1139643 และ   085-3242439",
        "emails": [
            "godbaby39@gmail.com"
        ],
        "general_info": "เปิดบริการ ซ่อมคอม รับลงวินโดว์ xp win7 \nรับให้คำปรึกษา อัพเกรดเครื่อง\nอุปกรณ์ คอมซื้อมีประกันทุกชิ้น \nรับบริการ ซ่อมทั้ง นอกสถานที่ \nสนใจติดต่อ 080-1139643 ",
        "id": "185908391554870",
        "location": {
            "city": "Amphoe Muang Rat Buri",
            "country": "Thailand",
            "latitude": 13.593541474756,
            "longitude": 99.811415481518,
            "street": "2 หมู่ 3 ต.ท่าราบ",
            "zip": "70000"
        },
        "name": "COM.Service บริการซ่อมคอมพิวเตอร์ อัพเกรดเครื่อง",
        "phone": "080-1139643,085-3242439"
    },
    {
        "id": "983190315076547",
        "location": {
            "city": "Kalasin",
            "country": "Thailand",
            "latitude": 16.42877,
            "longitude": 103.510696
        },
        "name": "โรงซ่อมบำรุงเครื่องจัรกกลหนัก อบจ.กส"
    },
    {
        "about": "ศูนย์ซ่อมเครื่องมือแพทย์ โรงพยาบาลอำนาจเจริญ",
        "description": "เป็นหน่วยงานหนึ่ง ใน โรงพยาบาลอำนาเจริญ มีหน้าที่ หลักๆ คือ \n1.ซ่อมเครื่องมือแพทย์ทุกชนิด \n2.บำรุงรักษาเครื่องมือ \n3.สอบเทียบความแม่นยำของเครื่องมือทุกชนิดให้ได้มาตรฐาน อยู่ตลอดเวลา ",
        "id": "531803933556367",
        "location": {
            "city": "เมือง",
            "street": "โรงพยาบาลอำนาจเจริญ",
            "zip": "37000"
        },
        "name": "ศูนย์ซ่อมเครื่องมือแพทย์ รพ.อำนาจเจริญ",
        "phone": "045511940 ต่อ 1264"
    },
    {
        "about": "บริการถึงบ้านรับประกันทุกชิ้นงานที่ช่อม 3เดือน 6เดือน นัดล่วงหน้า 1 วัน ติดต่อ 087-9769945",
        "description": "เปลี่ยนสายพานลู่วิง  เปลี่ยนแผงวงจรล่าง บน  มอร์เตอร์  ไม้กระดาน  สายสลิง  สเปร์ดูแลสายพาน ",
        "emails": [
            "marathon.22@msn.com"
        ],
        "id": "425089590922088",
        "location": {
            "city": "Bangkok",
            "country": "Thailand",
            "latitude": 18.78603,
            "longitude": 99.02265,
            "street": "เลขที่ 8/2 ต้ชั ตำบลท่าศาลา อำเภอเมือง จังหวัดเชียงใหม่",
            "zip": "50000"
        },
        "name": "รับซ่อมเครื่องออกกำลังกายทุกชนิด ทุกยี่ห้อ",
        "phone": "0879769945"
    }
]