[
    {
        "about": "ซ่อมเครื่องจักรกลหนัก  แมคโคร แทรกเตอร์ รถบูมลิฟท์ ฟิตเครื่องปั๊มไฮดรอลิก รถโฟล์คลิฟ",
        "description": "รับซ่อมเครื่องจักรกลหนักทุกชนิด  เช่น  แมคโคร  แทรกเตอร์  ตัก บูมลิฟท์ ฟิตเครื่อง ปั๊มไฮดรอลิกและขายเช่า  แมคโคร แทรกเตอร์",
        "emails": [
            "tpk.adisak@gmail.com",
            "tpk.panrapee@gmail.com"
        ],
        "id": "1013750048649662",
        "location": {
            "city": "ชลบุรี (Chonburi)",
            "street": "23/99หมู่4 ต.บ่อวิน อ.ศรีราชา จ.ชลบุรี",
            "zip": "20230"
        },
        "name": "ซ่อมเครื่องจักรกลหนัก  แม๊คโคร แทรกเตอร์ บูมลิฟท์ โฟล์คลิฟ ฟิตเครื่อง",
        "phone": "0811554743(คุณอดิศักดิ์),0852050214(คุณปานระพี)"
    },
    {
        "about": "ผู้ให้บริการ ติดตั้งแก้ไขซ่อมแซมจานดาวเทียม ทุกระบบ",
        "description": "เอ็มแอนด์เอ็ม แซทคอม\n60/8 หมู่ 10 ต.บึง อ.ศรีราชา จ.ชลบุรี\nโทร. 038-182101มือถือ 081-3146260",
        "emails": [
            "amorn_2500@yahoo.co.th"
        ],
        "id": "123248311052642",
        "location": {
            "city": "Si Racha",
            "country": "Thailand",
            "latitude": 13.0787002,
            "longitude": 100.9584356,
            "street": "60/8 หมู่ 10 ต.บึง อ.ศรีราชา",
            "zip": "20230"
        },
        "name": "ร้าน เอ็มแอนด์เอ็ม แซทคอม    จำหน่ายจานดาวเทียม ซ่อมเครื่องใช้ไฟฟ้า",
        "phone": "0813146260"
    },
    {
        "about": "รับซ่อมรถกลอฟ์และเครื่องยนต์ไฟฟ้า(ช่างหรั่ง)0832249839",
        "id": "290779947777366",
        "location": {
            "city": "Nakon Lampang",
            "country": "Thailand",
            "latitude": 13.99861,
            "longitude": 100.53008,
            "street": "อ.ลำลูกกา. ต.คูคต772/856",
            "zip": "12000"
        },
        "name": "รับซ่อมรถกลอฟ์และเครื่องยนต์ไฟฟ้า",
        "phone": "0832249839"
    },
    {
        "about": "ติดตั้งตู้หยอดเหรียญ บริการ ซ่อม ล้างเครื่องซักผ้า เครื่องใช้อิเล็คทรอนิกส์ จ.ภูเก็ต ",
        "description": "จำหน่ายตู้น้ำหยอดเหรียญ เครื่องซักผ้าหยอดเหรียญ ตู้หยอดเหรียญ บริการ ซ่อม ล้าง ในพื้นที่ จ.ภูเก็ต และใกล้เคียง",
        "emails": [
            "tsnmarket@gmail.com"
        ],
        "id": "1400813163465719",
        "location": {
            "city": "ประเทศไทย",
            "street": "54/32 ต.กะทู้ อ.กะทู้ จ.ภูเก็ต",
            "zip": "83000"
        },
        "name": "เครื่องซักผ้า หยอดเหรียญ ซ่อมเครื่องซักผ้า ล้างเครื่องซักผ้า ภูเก็ต",
        "phone": "095-4039204"
    },
    {
        "about": "ขายของเล่น เฮลิคอปเตอร์  รถดริฟท์ บิ๊กฟุต  เครื่องบินบังคับ",
        "description": "ร้านรับซ่อม ขายเครื่องบิน เฮลิคอปเตอร์ รถน้ำมัน รถไฟฟ้า  สอนบินฟรี ",
        "emails": [
            "jeffrey.huahin@gmail.com"
        ],
        "id": "472644562790475",
        "location": {
            "city": "Prachuap Khiri Khan",
            "country": "Thailand",
            "latitude": 12.49705,
            "longitude": 99.69309,
            "street": "2/193 ถ.หัวหิน-ห้วยมงคล ซ.10 อ.หัวหิน  จ.ประจวบคีรีขันธ์",
            "zip": "77110"
        },
        "name": "ร้านรับซ่อมและจำหน่าย เฮลิคอปเตอร์และรถบังคับ เครื่องบินในประจวบ หัวหิน",
        "phone": "0835391897   0910067510"
    },
    {
        "about": "ช่างกิต บริการรับซ่อมเครื่องออกกำลังกายทุกชนิดนอกสถานที่ ราคาเป็นกันเองโทร 083-7743377, 081-1975559",
        "description": "รับซ่อมเครื่องออกกำลังกาย,รับซ่อมลู่วิ่งไฟฟ้า, รับตัดสายพาน ลู่วิ่ง, รับซ่อมแผงคอนโทรล\nและเครื่องออกกำลังกายทุกรุ่นทุกยี่ห้อ ทั้งในกรุงเทพและปริมณฑล นครปฐม ราชบุรี รับตัดสายพานพื้น เปลี่ยนลวดสลิง ซ่อมแผงคอนโทรลจากประสบการณ์กว่า 10 ปีราคาเป็นกันเองไม่ต้องไปรอบริษัท ซ่อมเสร็จแล้วมีรับประกัน นานกว่าบริษัท รับซ่อมทั้ง ลู่วิ่ง ชุดยิม เครื่องนวดสะโพก จักรยานไฟฟ้า และจำหน่ายสเปรย์ซิลิโคลนหล่อลื่นสายพาน มีโปรโมชั่นมากมาย ซ่อมเสร็จใช้ไม่ได้ไม่คิดเงินบริการทุกระดับประทับใจ อัธยาศัยดี บริการถึงบ้านทั้งในและนอกเวลางาน\n\nโดย  ช่าง กิต เบอร์โทร 083-7743377 หรือ 081-1975559   fitness_service@hotmail.com\nเรายินดีให้บริการติดต่อได้ตลอด 24 ชม.\n",
        "emails": [
            "fitness_service@hotmail.com"
        ],
        "id": "188560714504232",
        "location": {
            "street": "ทั้งในกรุงเทพและปริมณฑล นครปฐม ราชบุรี"
        },
        "name": "ช่างกิตเซอร์วิส รับซ่อมเครื่องออกกำลังกาย",
        "phone": "083-7743377 , 081-1975559"
    },
    {
        "about": "รับซ่อมเครื่องใช้ไฟฟ้าทุกชนิด จ.สมุทรสาคร\nติดต่อสอบถามได้ที่ 090-4392617 และ 081-7051509\n\n",
        "id": "1621751368080689",
        "name": "ศูนย์ซ่อมเครื่องใช้ไฟฟ้ามหาชัย"
    },
    {
        "about": "รับติดตั้งระบบปฏิบัติการคอมพิวเตอร์ โปรแกรมคอมพิวเตอร์ PC , Notebook",
        "description": "**ข้อแนะนำสำหรับผู้ที่จะใช้บริการ Life computer (#‵′)凸 \n\n1. ผมรับลงวินโดว์,รับติดตั้งโปรแกรมพื้นฐานต่างๆที่คอมพิวเตอร์ทั่วไปควรจะมี หากต้องการลงโปรแกรมใดเพิ่มเติม สามารถสอบถามได้ครับ (-__-)b\n\n2. อัตราค่าบริการ\n    - Windows 7   + โปรแกรมพื้นฐาน(ที่คอมฯควรจะมีติดเครื่อง)   \u003e\u003e\u003e 450 ฿\n                                                                                                                     \n    - Windows XP + โปรแกรมพื้นฐาน(ที่คอมฯควรจะมีติดเครื่อง)   \u003e\u003e\u003e 450 ฿ \n\n    - Windows 8.1   + โปรแกรมพื้นฐาน(ที่คอมฯควรจะมีติดเครื่อง)   \u003e\u003e\u003e 450 ฿\n\n    - ต้องการลงโปรแกรมอย่างเดียว/โปรแกรมเฉพาะต่างๆ  \u003e\u003e\u003e  ฟรี - 100 ฿ /1โปรแกรม\n\n       ###ถ้าท่านมีแผ่น driver กรุณานำมาด้วย จะขอบคุณมากครับ \n|\n|\n|\n+\"ราคา\" ไม่ใช่ตัวชี้วัดถึง \"คุณภาพ\" __,,__ \"คุณภาพ\" ไม่ได้วัดกันที่ \"ราคา\"+\n\n|\n|\n|\n_______________________________________________________\n||Life Computer ผมไม่มีหน้าร้านนะครับ ผมรับงานเฉพาะที่บ้าน(ผม) เท่านั้น | ใครมาไม่ถูก ก็ถามมาทาง inbox นะครับ อิอิ|| ^^\"\n_______________________________________________________\n       บริการอื่นๆ \n                       - วิเคราะห์อาการเสียของเครื่องคอมพิวเตอร์\n                       - ซ่อม (Basic)\n                       - จัดสเป็ค ประกอบคอมพ์ อัพเกรด\n       \n                                                                                                          \n                                                 ♡. (O ^ ~ ^ O)\n\n3. สำหรับเพื่อนๆ พี่พี่ น้องน้อง คนไหนที่อยากใช้บริการ ยกคอมฯของท่านมาที่บ้านผมได้เลย  \n\n4 ขอบคุณลูกค้าทุกท่านที่วางใจใน Life computer (‵▽′)ψ \n\n5. สำหรับใครคนไหนอ่านแล้ว ไม่ถูกใจ ไม่โดนใจ ผ่านได้เลยครับ ไม่ว่ากันครับ ╮(‵▽′)╭\n_______________________________________________________\nเครื่องคอมพิวเตอร์ที่ท่านนำมาให้ผม ลงวินโดว์,โปรแกรม ฯ ผมขอใช้เวลาในการดำเนินการซัก 2 วันนะครับ ท่านจึงมารับเครื่องฯคืนได้ เพราะ จันทร์-ศุกร์ (ในช่วงเวลาราชการ) ผมไม่สะดวกนะครับ\n \nติดต่อ สอบถาม ทุกปัญหา :: https://www.facebook.com/messages/lifecomputer.xoxo\n\n_______________________________________________________\n..ขอบคุณครับที่อ่านจนจบค๊าบบบบบบ.. \n\n░░░░░░░░░░░░░░░░░░░░░░█████████\n░░███████░░░░░░░░░░███▒▒▒▒▒▒▒▒███\n░░█▒▒▒▒▒▒█░░░░░░░███▒▒▒▒▒▒▒▒▒▒▒▒▒███\n░░░█▒▒▒▒▒▒█░░░░██▒▒▒▒▒▒▒▒▒▒▒▒▒▒▒▒▒▒▒██\n░░░░█▒▒▒▒▒█░░░██▒▒▒▒▒██▒▒▒▒▒▒██▒▒▒▒▒███\n░░░░░█▒▒▒█░░░█▒▒▒▒▒▒████▒▒▒▒████▒▒▒▒▒▒██\n░░░█████████████▒▒▒▒▒▒▒▒▒▒▒▒▒▒▒▒▒▒▒▒▒▒██\n░░░█▒▒▒▒▒▒▒▒▒▒▒▒█▒▒▒▒▒▒▒▒▒█▒▒▒▒▒▒▒▒▒▒▒██\n░██▒▒▒▒▒▒▒▒▒▒▒▒▒█▒▒▒██▒▒▒▒▒▒▒▒▒▒██▒▒▒▒██\n██▒▒▒███████████▒▒▒▒▒██▒▒▒▒▒▒▒▒██▒▒▒▒▒██\n█▒▒▒▒▒▒▒▒▒▒▒▒▒▒▒█▒▒▒▒▒▒████████▒▒▒▒▒▒▒██\n██▒▒▒▒▒▒▒▒▒▒▒▒▒▒█▒▒▒▒▒▒▒▒▒▒▒▒▒▒▒▒▒▒▒▒██\n░█▒▒▒███████████▒▒▒▒▒▒▒▒▒▒▒▒▒▒▒▒▒▒▒██\n░██▒▒▒▒▒▒▒▒▒▒████▒▒▒▒▒▒▒▒▒▒▒▒▒▒▒▒▒█\n░░████████████░░░█████████████████",
        "emails": [
            "com79service@hotmail.com"
        ],
        "id": "306045726097018",
        "location": {
            "street": "ซอยอาคารเอนกประสงค์ ม.9",
            "zip": "92120"
        },
        "name": "Life computer รับซ่อม-ติดตั้งโปรแกรมคอมพิวเตอร์ สำหรับเครื่องพีซี โน๊ตบุ๊ค"
    },
    {
        "description": "ซ่อม จำหน่ายให้เช่า เครื่องถ่ายเอกสาร/ปริ้นเตอร์ พร้อมทั้งอุปกรณ์ IT ทุกชนิดรวมไปถึง ระบบ lan ครับ ราคาย่อมเยา",
        "id": "729070800476674",
        "name": "ซ่อมจำหน่ายให้เช่าเครื่องถ่ายเอกสารโคราช โชคดีก๊อปปี้"
    },
    {
        "id": "867855643226813",
        "name": "ซ่อมเครื่องชงกาแฟ Iguazu Coffee \u0026 Service"
    },
    {
        "id": "1446005235637622",
        "location": {
            "city": "Chumporn",
            "country": "Thailand",
            "latitude": 10.47766,
            "longitude": 99.17175,
            "street": "71/9  ซ.เตี้ยหมอตู้  ถ.ใกล้บ่อนไก่ ต.ตากแดด  อ.เมือง  จ.ชุมพร",
            "zip": "86000"
        },
        "name": "Moomobi ซ่อมมือถือ คอมพิวเตอร์  เครื่องใช้ไฟฟ้าทุกชนิด",
        "phone": "0869443426"
    },
    {
        "about": "บริการซ่อมเครื่องชงกาแฟ จำหน่ายเมล็ดกาแฟ และอุปกรณร้านกาแฟทุกชนิด",
        "emails": [
            "thaicoffeebubby@gmail.com"
        ],
        "id": "1378021575849184",
        "location": {
            "city": "Ratchaburi",
            "country": "Thailand",
            "latitude": 13.54313,
            "longitude": 99.75721,
            "street": "ราชบุรี เชียงใหม่",
            "zip": "70000"
        },
        "name": "ซ่อมเครื่องชงกาแฟ ราชบุรี นครปฐม หัวหิน ชะอำ ชุมพร ประจวป",
        "phone": "66813660841 0909782704"
    },
    {
        "about": "ซ่อมเครื่องตัดหญ้า",
        "id": "464872986900634",
        "location": {
            "city": "บ้านแพง",
            "street": "นครพนม",
            "zip": "48140"
        },
        "name": "ซ่อมเครื่องตัดหญ้าและรับจ้างตัดหญ้า",
        "phone": "0935581369"
    },
    {
        "about": "รับซ่อมบำรุงระบบเครื่องผลิตน้ำแข็งโอเวอร์ฮอลคอมเพลสเซอร์และติดตั้งห้องเย็น",
        "id": "599978063472512",
        "location": {
            "city": "กาญจนบุรี",
            "street": "90ม.5ต.ท่าตะคร้อ อ.ท่าม่วง",
            "zip": "71130"
        },
        "name": "ซ่อมโอเวอร์ฮอล เครื่องผลิตน้ำแข็ง ห้องเย็น",
        "phone": "0822475587"
    },
    {
        "about": "ช่างเทวดา",
        "id": "1463359857295811",
        "location": {
            "city": "Nakhon Ratchasima",
            "country": "Thailand",
            "latitude": 14.9509096,
            "longitude": 102.0605011,
            "street": "32หมู่5 ซอยสืบศิริ36",
            "zip": "30000"
        },
        "name": "รับซ่อมและติดตั้ง แอร์เครื่องใช้ฟ้าทุกชนิดทั้งในและนอกสถานที่",
        "phone": "0847595734"
    },
    {
        "about": "เครื่องมือวัด Instrument\nRepair \u0026 Calibration \n    Service \u0026 Sell\n\nyomashiro@gmail.com\n08-00807304\nID Line : yomashiro",
        "description": "บริการรับซ่อมบอร์ดอิเล็กทรอนิกส์ แผงวงจรอิเล็กทรอนิกส์ เครื่องมือวัด Instrument ในงานอุตสาหกรรม หลากหลายชนิด \n\n  นอกจากงานซ่อมแล้ว ยังมีการบริการด้านงาน\n- ขายเครื่องมือวัด Instrument หลากหลายชนิด\n- สอบเทียบเครื่องมือวัด Instrument หลากหลายชนิด\n\nสนใจติดต่อสอบถามรายละเอียดเพิ่มเติมได้ที่\nyomashiro@gmail.com\n08-00807304\nID Line : yo2528yo",
        "emails": [
            "yomashiro@gmail.com"
        ],
        "id": "774719485897799",
        "location": {
            "city": "Bangkok",
            "country": "Thailand",
            "latitude": 13.7522,
            "longitude": 100.494,
            "zip": "10250"
        },
        "name": "รับซ่อมบอร์ด แผงวงจรอิเล็กทรอนิกส์ เครื่องมือวัด ในงานอุตสาหกรรม",
        "phone": "0800807304"
    },
    {
        "id": "1532355420385537",
        "location": {
            "city": "Phitsanulok",
            "country": "Thailand",
            "latitude": 16.835535449442,
            "longitude": 100.24163961411,
            "street": "260/7 ตำบล บ้านคลอง",
            "zip": "65000"
        },
        "name": "จำหน่าย-ซ่อม เครื่องออกกำลังกายทุกชนิด พิษณุโลก,พิจิตร,นครสวรรค์,กำเแพงเพชร",
        "phone": "0891339229"
    },
    {
        "about": "จำหน่าย ซ่อม ปั๊มลม puma swan fusheng พูม่า สวอน ฟูเช็ง",
        "id": "339910076211473",
        "name": "จำหน่าย-ซ่อม เครื่องเชื่อมไฟฟ้า ตู้เชื่อมไฟฟ้า Wellpro Jasic"
    },
    {
        "about": "facebook ใหม่เข้าไปดูได้ที่ www.facebook.com/pnsupply.sparepart\n\n092-5695963 / 081-4259459",
        "description": "เราขายอะไหล่เครื่องถ่ายเอกสาร ทุกรุ่น อะไหล่ใหม่ และ อะไหล่ถอดจากเครื่อง สป็อง ผ้าเวป ผงหมึกทุกรุ่น  ลูกยาง ลูกบน ลูกล่าง มีครบ ยางดึงกระดาษ ฝาฝีด ชุดดรัม มอเตอร์ สายไฟ วงจร",
        "id": "379218482208038",
        "name": "อะไหล่เครื่องถ่าย ผงหมึก ช่างซ่อม ครบทุกอย่าง"
    },
    {
        "about": "รับซ่อมเครื่องซักผ้า",
        "emails": [
            "woranut_service@hotmail.com"
        ],
        "id": "157781064397130",
        "location": {
            "city": "Bangkok",
            "country": "Thailand",
            "latitude": 13.860446927199,
            "longitude": 100.61461055679,
            "street": "13/17 ซอยวัดเกาะ พหลโยธิน54/1 แขวงคลองถนน เขตสายไหม",
            "zip": "10220"
        },
        "name": "วรณัฐเซอร์วิส - ศูนย์บริการรับซ่อมเครื่องซักผ้า",
        "phone": "0851649200"
    },
    {
        "about": "รับซ่อมเครื่องออกกำลังกาย 098-471-1235 ช่างพัน",
        "description": "รับซ่อมจำหน่ายเครื่องออกกำลังกายทุกชนิด ซ่ิอมลู่วิ่งไฟฟ้า เปลี่ยนสายพานลู่วิ่งไฟ้า เปลี่ยนสายสลิงชูดโฮมยิม ซ่อมเครื่องเดินวงรี",
        "id": "1450097055222506",
        "location": {
            "city": "เชียงใหม่ ลำพูน ลำปาง แพร่ กรุงเทพ ชลบุรี ระยอง นนบุรี ปทุม ทั่วประเทศ"
        },
        "name": "รับซ่อมลู่วิ่งไฟฟ้า รับซ่อมเครื่องออกกำลังกาย",
        "phone": "0984711235"
    },
    {
        "id": "273802632674862",
        "location": {
            "city": "Bangkok",
            "country": "Thailand",
            "latitude": 13.64821,
            "longitude": 100.4965,
            "street": "ถนนประชาอุทิศ อยู่ตรงปากซอยประชาอุทิศ 21",
            "zip": "10140"
        },
        "name": "โอปอเซอร์วิส ร้านซ่อมเครื่องซักผ้า ตู้เย็น แอร์",
        "phone": "024286051"
    },
    {
        "about": "หน่วยขึ้นตรงกรมการทหารสื่อสาร กองทัพบก",
        "id": "498095636938122",
        "location": {
            "city": "กรุงเทพ",
            "street": "ถ.พหลโยธิน แขวงอนุสาวรีย์ เขตบางเขน",
            "zip": "1.220"
        },
        "name": "กองซ่อมเครื่องสื่อสาร-อิเล็กทรอนิกส์ กรมการทหารสื่อสาร"
    },
    {
        "about": "บริการซ่อมเครื่องใช้ไฟฟ้า",
        "id": "724787440959384",
        "location": {
            "city": "Bangkok",
            "country": "Thailand",
            "latitude": 13.7232904,
            "longitude": 100.5775986,
            "street": "กทม",
            "zip": "10110"
        },
        "name": "ซ่อมเครื่องใช้ไฟฟ้า",
        "phone": "0812488995"
    },
    {
        "id": "624456800990740",
        "name": "ซ่อมเครื่องเสียงรถยนต์"
    }
]