[
    {
        "about": "ศูนย์ซ่อมเครื่องใช้ไฟฟ้า บ่อวิน",
        "id": "1411420279165596",
        "location": {
            "city": "Chon Buri",
            "country": "Thailand",
            "latitude": 13.194908287097,
            "longitude": 101.01585388184,
            "street": "120/123 ม.3 ต.บ่อวิน อำเภอศรีราชา จังหวัดชลบุรี",
            "zip": "20000"
        },
        "name": "บริการซ่อมเครื่องใช้ไฟฟ้า ฯลฯ บ่อวิน สะพานสี่ มาบยางพร ปลวกแดง",
        "phone": "080-093-6694,090-980-0834"
    },
    {
        "about": "แอร์ ตู้เย็น เครื่องซักผ้า ระบบไฟฟ้า",
        "id": "1705631406330617",
        "location": {
            "city": "Phuket",
            "country": "Thailand",
            "latitude": 7.8682783186113,
            "longitude": 98.396039317261,
            "street": "32/39 ม.2 ต.รัษฎา",
            "zip": "83000"
        },
        "name": "รับดูแล ซ่อม ติดตั้ง รื้อถอน เครื่องใช้ไฟฟ้าและระบบไฟฟ้าในบ้าน",
        "phone": "0900689599"
    },
    {
        "about": "ติดต่อ 0954463147",
        "id": "1682826501950865",
        "location": {
            "city": "Amphoe Fang",
            "country": "Thailand",
            "latitude": 19.8833,
            "longitude": 99.1833,
            "street": "บ้านสบมาว",
            "zip": "50110"
        },
        "name": "ช่างต้นรับติดตั้งจานดาวเทียมและซ่อมเครื่องใช้ไฟฟ้าทุกชนิด",
        "phone": "0954463147"
    },
    {
        "about": "รับซ่อมเครื่องถ่ายเอกสารและจำหน่าย\r\nสอบถามและปรึกษาปัญหาเครื่องถ่ายเอกสาร",
        "id": "1402649876652876",
        "location": {
            "city": "Nakhon Pathom",
            "country": "Thailand",
            "latitude": 13.81103,
            "longitude": 100.01429,
            "street": "24/3 ต.สามง่าม อ.ดอนตูม จ.นครปฐม",
            "zip": "73150"
        },
        "name": "รับซ่อมเครื่องถ่ายเอกสารและจำหน่าย",
        "phone": "082-0892052  ( Line 082-0892052 ช่างตั้ม )"
    },
    {
        "about": "55/1 ถ.พิมพสุต ต.ในเมือง อ.เมือง จ.ขอนแก่น 40000 โทร. 043-245169,081-6629957",
        "description": "ร้านใจดี 3 ผู้แทนจำหน่าย เครื่องไฟฟ้าชั้นนำ มากีต้า บ๊อช มาคเทค เจบสัน เครื่องเลื่อยวงเดือน หินเจีย เครื่องตัดไฟเบอร์ ปั้มน้ำ ปั้มลม ตู้เชื่อมไฟฟ้า และมอเตอร์มิตซู\nจำหน่าย/บริการ ลับคมใบเลื่อย ดอกเล้าเตอร์ คัดเตอร์ รอรับได้เลย\nบริการรับซ่อม เครื่องมือไฟฟ้าทุกชนิด รับพันทุ่น พันฟิลย์คอยมอเตอร์\nราคาย่อมเยา\n",
        "id": "660664850645136",
        "name": "บริษัทใจดี3 จำหน่าย เครื่องมือไฟฟ้าและบริการรับซ่อม"
    },
    {
        "id": "1590789814490794",
        "location": {
            "city": "Surat Thani",
            "country": "Thailand",
            "latitude": 9.09542,
            "longitude": 99.3073,
            "street": "226/14 ซ.7 ถ.อำเภอ ต.มะขามเตี้ย",
            "zip": "84000"
        },
        "name": "รับซ่อมรถเด็กเล่นไฟฟ้า เครื่องใช้ไฟฟ้า",
        "phone": "0842495014"
    },
    {
        "about": "ซ่อมเครื่องใช้ไฟฟ้าทั่วไป เช่น ทีวี power amp พัดลม เตารีด หม้อหุ้งข้าว",
        "description": "ร้านซ่อมเครื่องใช้ไฟฟ้าทุกชนิด เช่น ทีวี เตารีด พัดลม DVD  ที่รีดผม เป็นต้น",
        "id": "279994255540409",
        "location": {
            "city": "Nakhon Ratchasima",
            "country": "Thailand",
            "latitude": 14.98880193039,
            "longitude": 102.11617166683,
            "street": "ซอย 11 หน้า มทร.อีสาน",
            "zip": "30000"
        },
        "name": "ร้านtelab-eng รับซ่อมเครื่องใช้ไฟฟ้า หลังเซเว่นเก่าซอย11",
        "phone": "0853350213"
    },
    {
        "about": "คอนเดส นอลสัน ช็อป นครศรีธรรมราช ",
        "description": "ซ่อมกีต้ารเครื่องดนตรีไทย-สากลทุกชนิด นครศรีธรรมราช ",
        "emails": [
            "somyos_naulsri@hotmail.com"
        ],
        "id": "409673342428064",
        "location": {
            "city": "ไทย",
            "street": "1/15 ซ.ตาปู่นุช ถ.พัฒนาการคูขวาง อ.เมือง จ.นครศรีธรรมราช",
            "zip": "80000"
        },
        "name": "ซ่อมกีต้ารเครื่องดนตรีไทย-สากลทุกชนิด นครศรีธรรมราช",
        "phone": "081-7418171"
    },
    {
        "about": "ห้องซ้อมดนตรี  Catzilla Studio บางบัวทอง  ห้องอัดเสียง รับทำเพลง บริการเช่าเครื่องเสียง เครื่องดนตรี",
        "description": "Studio Recording Project\n\nบันทึกเสียงร้อง,เครื่องดนตรี Acostic และ Electric ทั้งแบบอัดรวมและอัดแยกในระบบ Muti-Track\nบันทึกเสียง Demo เพื่อการประกวดต่างๆ และเพื่อเสนอค่ายเพลง\nบันทึกเสียงพากษ์ การ์ตูน,สารคดี และภาพยนตร์\nบันทึกเสียงการแสดงสด\nบันทึกเสียงเพื่อใช้เป็นสื่อการเรียนการสอน\n\n\nMusic Creation Project\n\nแต่งเพลง คำร้อง,ทำนอง,Melody,Pattern Chord และMidi\nทำ Backing-Track\nทำเพลงประกอบภาพยนตร์,หนังสั้น,โฆษณา,การ์ตูน,Animation,Presentation\nทำเพลงงานวิวาห์ และงานมงคลต่างๆ\nทำเพลงสำหรับหน่วยงาน,องค์กรต่างๆ\nทำ Spot โฆษณา\nทำอัลบัมส่วนตัว\nเรียบเรียงดนตรีใหม่ Re-Arange\nเรียบเรียงเสียงประสานสำหรับวงขับร้องประสานเสียงหรือวงดนตรี\n\n\nTraining Project\n\nสอนเปียโน\nสอนอูคูเลเล่\nสอนไวโอลิน\nสอนทฤษฎีดนตรี\nสอนโสตทักษะ\nสอนเรียบเรียงเสียงประสาน\nสอนการใช้ Mac และโปรแกรมประจำเครื่อง\nเตรียมสอบเข้ามหาวิทยาลัย(ดนตรี)\n\n\nSystem Project\n\nวางระบบเสียงในร้านอาหาร,Night Club\nวางระบบเวทีการแสดงสด,งาน Event ต่างๆ\nออกแบบ,สร้าง ห้องซ้อมและห้องบันทึกเสียง ตามงบประมาณ\n\n\nSound Engineer Project\nควบคุมเสียงเวทีการแสดงสด\n\n\n***สามารถใช้บริการได้ทั้งในและนอกสถานที่ ติดต่อที่ โทร. 086-980-5875 เอ็ม***",
        "emails": [
            "catzilla_studio@hotmail.com"
        ],
        "id": "516767665072999",
        "location": {
            "city": "Amphoe Bang Bua Thong",
            "country": "Thailand",
            "latitude": 13.91274085,
            "longitude": 100.42403741,
            "street": "บางบัวทอง",
            "zip": "11110"
        },
        "name": "Catzilla Studio ห้องซ้อมดนตรี อัดเสียง เช่าเครื่องเสียง บางบัวทอง",
        "phone": "091-423-0535 , 086-980-5875"
    },
    {
        "about": "#. ศูนย์ซ่อมเครื่องใช้ไฟฟ้าและจำหน่ายอุปกรณ์ \"ไอที\" ทุกชนิด.",
        "description": "#. เรืองพณเลคทริค ศูนย์ซ่อมเครื่องใช้ไฟฟ้า และจำหน่ายอุปกรณ์ไอที , เครื่องคอมพิวเตอร์ \nมือหนึ่ง มือสอง ขายส่งและขายปลีก \nราคากันเองสบายระเป๋า ! !! :)\nติดต่อสอบถามตามเบอร์โทรศัพท์ที่ได้ระบุไว้.",
        "emails": [
            "ryoma_158@hotmail.com"
        ],
        "id": "551662378269829",
        "location": {
            "city": "Phangnga",
            "country": "Thailand",
            "latitude": 8.87224,
            "longitude": 98.35183,
            "street": "62 ถ.ศรีเมีอง ต.ตะกั่วป่า อ.ตะกั่วป่า จ.พังงา",
            "zip": "82110"
        },
        "name": "เรืองพณอิเลคทริค ศูนย์ซ่อมเครื่องใช้ไฟฟ้าและจำหน่าย อุปกรณ์ไอที ปลีกส่ง",
        "phone": "0986254451"
    },
    {
        "about": "ขาย/ซ่อม เครื่องตัดหญ้าพร้อมอุปกรณ์และเครื่องมือไฟฟ้า",
        "description": "ขาย เครื่องตัดหญ้า เครื่องมือการเกษตร เครื่องพ่นยา เครื่องพ่นปุ๋ย เครื่องสูบน้ำ เครื่องมือไฟฟ้าและอุปกรณ์ไฟฟ้า ฯลฯ",
        "id": "302246683218175",
        "location": {
            "city": "Bangkok",
            "country": "Thailand",
            "latitude": 13.89633,
            "longitude": 100.63934,
            "street": "111/18-19 ถนนสุขาภิบาล5 ตลาดออเงิน แขวงออเงิน เขตสายไหม",
            "zip": "10220"
        },
        "name": "S\u0026N ขาย/ซ่อม เครื่องตัดหญ้าและเครื่องมือไฟฟ้า",
        "phone": "0886660998"
    },
    {
        "about": "ซ่อมตู้เย็น  ซ่อมตู้แช่ ซ่อมเครื่องซักผ้า ทุกอาการเสีย 0861226684",
        "emails": [
            "electrical-air@hotmail.com"
        ],
        "id": "609828805722313",
        "location": {
            "city": "Ayuthaya",
            "country": "Thailand",
            "latitude": 14.23928,
            "longitude": 100.71865,
            "street": "27",
            "zip": "13170"
        },
        "name": "ซ่อม ตู้เย็น ซ่อมตู้แช่ ซ่อมเครื่องซักผ้า จ.อยุธยา 0861226684",
        "phone": "0861226684"
    },
    {
        "id": "387287391467983",
        "name": "ซ่อมเครื่องชงกาแฟสด เครื่องบดเมล็ดกาแฟ เครื่องปั่นสมูทตี้"
    },
    {
        "about": "รับซ่อม อิเล็กทรอนิกส์,คอมพิวเตอร์,โทรศัพท์มือถือ,เครื่องเสียง, ไมค์ลอย รับเขียนเว็บ",
        "id": "663552853705614",
        "name": "รับซ่อมไมค์ลอย รับซ่อมเครื่องเสียง รับซ่อมคอมพิวเตอร์ รับซ่อมโทรศัพท์"
    },
    {
        "id": "1499040216977885",
        "location": {
            "city": "Meota",
            "country": "Canada",
            "state": "SK"
        },
        "name": "ซ่อมเครื่องออกกำลังกายทุกรุ่น ช่าง Meo - 0856512141"
    },
    {
        "about": "ให้บริการซ่อมเครื่องจักรในอุตสาหกรรมการ์เม้นท์ และให้คำปรึกษาในการบำรุงรักษาครบวงจร",
        "id": "625591080832887",
        "location": {
            "city": "Bangkok",
            "country": "Thailand",
            "latitude": 13.70426,
            "longitude": 100.40088,
            "street": "เพชรเกษม หนองแขม",
            "zip": "10160"
        },
        "name": "ซ่อมเครื่องตัดผ้า แผนกช่างบริการ รุ่งเรืองวงษ์",
        "phone": "028098224"
    },
    {
        "about": "ศูนย์บริการซ่อมตู้เย็น เครื่องซักผ้า เครื่องอบผ้า เตาอบไฟฟ้า เครื่องใช้ไฟฟ้าแบนด์นำเข้า",
        "description": "ศูนย์บริการซ่อมตู้เย็น เครื่องซักผ้า เครื่องอบผ้า เตาอบไฟฟ้า เครื่องใช้ไฟฟ้าแบรนด์นำเข้า Maytag Ge Whirlpool Hoover Electrolux Speedqueen etc อะไหล่แท้นำเข้า รับประกันงานซ่อม โดยช่างมีความรู้และชำนาญงาน  ติดต่อคุณปฐมพงศ์ 089-282-9755, 086-664-1799\n\nRepair service center for refrigerator freezer washer dryer oven for all imported brands : Maytag Ge Whirlpool Hoover Electrolux speedqueen etc, imported genuine parts, service waranteed by our engineer\ncall to appoint our visit: Khun Pathompong 089-282-9755, 086-664-1799",
        "emails": [
            "trustservice99@gmail.com"
        ],
        "id": "744771058909310",
        "location": {
            "city": "Bangkok",
            "country": "Thailand"
        },
        "name": "ศูนย์บริการซ่อม Maytag GE Whirlpool Hoover เครื่องนำเข้าทุกแบรนด์",
        "phone": "089-282-9755"
    },
    {
        "emails": [
            "wirat_11@outlook.com"
        ],
        "id": "682062108547093",
        "location": {
            "street": "40/6 หมู่15 ซ.สุขสวัสดิ์ 70/14 ต.บางครุ อ.พระประเเดง จ.สมุทรปราการ 10130"
        },
        "name": "ซ่อม-ขายเครื่องออกกำลังกาย",
        "phone": "0859199075"
    },
    {
        "emails": [
            "nawacnex@gmail.com"
        ],
        "id": "400544220017016",
        "location": {
            "city": "Bangkok",
            "country": "Thailand",
            "latitude": 13.774,
            "longitude": 100.65728,
            "street": "อู่สถาพรรับซ่อม 187 ถนนราษฎร์พัฒนา แขวงสะพานสูง เขตสะพานสูง",
            "zip": "10240"
        },
        "name": "อู่สถาพร รับซ่อมเครื่องยนต์ วางเครื่อง ท่อไอเสีย ช่วงล่างเบรคครัช",
        "phone": "0868609099"
    },
    {
        "about": "รับซ่อมลู่วิ่งไฟฟ้าและเครื่องออกกำลังกายทุกชนิด",
        "description": "รับซ่อมลู่วิ่งไฟฟ้า เครื่องเดินวงรี จักรยานนั่งปั่น -เอนปั่น เครื่องออกกำลังกายทุกประเภท ทุกยี่ห้อ อาทิเช่นTECHNOGYM, STAR TRAC, JOHNSON BODY DYNAMIX HELO SAUNA \u0026 STEAM , BCUBE VISION FITNESS , BODY SOLID โดยช่างผู้ชำนาญเฉพาะด้านประสบการณ์มากกว่า 7 ปี บริการถึงที่ ไม่ว่าจะเป็นในกรุงเทพ ปริมณฑลหรือต่างจังหวัดทั่วประเทศ \nรับเปลี่ยนผ้ายางลู่วิ่ง, แผงวงจรไฟฟ้าลู่วิ่ง, แผงคอนโทรล, ซ่อม-เปลี่ยนมอเตอร์ รับ Maintenance และบำรุงรักษา เครื่องออกกำลังกาย ตามบ้าน ฟิตเนส สปอร์ตคลับ โรงเรียน สโมสรกีฬา สำนักงานต่างๆ \nรับติดตั้ง-ขนย้าย เครื่องออกกำลังกาย \nให้คำแนะนำ ปรึกษาเกี่ยวกับการใช้งานเครื่องออกกำลังกาย อุปกรณ์ฟิตเนส ที่ถูกต้อง ฟรี \n\nNPservices2u Exercise Machine Repair \u0026 Maintenance Services \n\nOur expertise includes on-site repair of treadmills, electronic control panels and motors from all brands including Brands Brands throughout Bangkok and Thailand. \nCommercial customers including Health Clubs \u0026 Fitness Centres, Work places, Recreation Centres, Military, Hotels / Resorts / Apartments, Government, Schools, Emergency Services are welcome to discuss our \"Scheduled Maintenance\" service which guarantees trouble free operations all year round. \nCall us now to discuss your specific requirements with one of our \"Expert Fitness Machine Consultants free of charge. \n\n",
        "emails": [
            "npservices2u@hotmail.com"
        ],
        "id": "274048652699896",
        "location": {
            "city": "Bangkok",
            "country": "Thailand",
            "latitude": 13.631987526538,
            "longitude": 100.6518398389,
            "street": "229 ซ.พึ่งมี  แขวงบางจาก  เขตพระโขนง",
            "zip": "10260"
        },
        "name": "NP Services2U รับซ่อมเครื่องออกกำลังกาย",
        "phone": "0895252366,0857337975[AIS]"
    },
    {
        "about": "รับซ่อม จำหน่าย ฝากขาย เครื่องออกกำลังกาย ทุกประเภท 350 บาท",
        "description": "\nรับซ่อม จำหน่าย ฝากขาย เครื่องออกกำลังกาย ทุกประเภท ยะลา ปัตตาน นราธิวาส และจังหวัดใกล้เคียง ทุกจังหวัด\nสำหรับใช้ในบัาน ฟิตเนสเซ็นเตอร์ สำนักงาน หน่วยงานราชการ\n-ลู่วิ่งไฟฟ้า\n-จักรยาน\n-เครื่องเดินวงรี\n-ชุดโฮมยิม เครื่องบริการกล้ามเนื้อ\n-ซิทอัพ\n-บาร์เบล\nยินดีให้คำปรึกษา \"ฟรี\"\nสนใจติดต่อสอบถาม คุณ เดช 081-7386905\n14 ซอย17 ถนนราษฎร์อุทิศ ตำบลหาดใหญ่ อำเภอหาดใหญ่ จังหวัดสงขลา 90110\nLine Id : dach-0505\nE-mail : dachng05@gmail.com\nFanpage : https://www.facebook.com/dachngadchunuy\nWebsite : http://bdservice.lnwshop.com http://fitness2555.blogspot.com/",
        "emails": [
            "de_dach@hotmail.com"
        ],
        "general_info": "ขายอุปกรณ์เครื่องออกกำลังกายมากมายให้ท่านสามารถเลือกซื้อ ซึ่งภายในร้านของเรา มีอุปกรณ์เครื่องออกกำลังกายฟิตเนสกับทางหน่วยงานราชการ อทิเช่น ศูนย์กีฬา โรงพยาบาล สาธารณะสุข สำนักงานเทศบาล หมู่บ้านและโรงเรียน และภาคเอกชน ฯลฯ\n\nติดต่อสอบถามข้อมูลเพิ่มเติมได้ที่  084-8573728 081-7386905 (เดช)\nหรือทดลองสินค้าจริงได้ที่ เคาท์เตอร์ เครื่องออกกำลังกาย JOHNSON\nROBINSON สาขาหาดใหญ่ ชั้น 2 แผนก Supersports",
        "id": "319288038085656",
        "location": {
            "city": "Had Yai",
            "country": "Thailand",
            "latitude": 7.0061796609091,
            "longitude": 100.45979964818,
            "zip": "90110"
        },
        "name": "ซ่อม จำหน่าย ฝากขาย เครื่องออกกำลังกาย ทุกประเภท 350 บาท",
        "phone": "081-738-6905"
    },
    {
        "about": "สอนซ่อมลำโพง สอนโมลำโพง ซ่อมสอนโมลำโพง สอนทำลำโพง สอนประกอบลำโพง รับผลิตลำโพง ซ่อมลำโพง",
        "description": "CarAudioTraining สอนซ่อมลำโพง สอนโมลำโพง ซ่อมสอนโมลำโพง สอนทำลำโพง สอนประกอบลำโพง โรงงานผลิตลำโพง ซ่อมลำโพง โมลำโพง\n\nCarAudioTraining เปิดอบรมหลักสูตรการประกอบลำโพงอย่างมืออาชีพ ด้วย 2 หลักสูตรมาตรฐาน \n\n     1. หลักสูตรช่างซ่อม-ประกอบลำโพง เป็นหลักสูตรพื้นฐานที่จะทำให้ผู้เรียนสามารถซ่อมและประกอบลำโพงได้อย่างมีมาตรฐาน \n\n     2. หลักสูตรวิศวกรลำโพง เป็นหลักสูตรระดับสูง ที่จะต่อยอดให้ผู้เรียนหลักสูตรพื้นฐาน สามารถออกแบบ-สร้าง-โม-ทดสอบ-พัฒนาลำโพงได้ด้วยตนเอง โดยใช้โปรแกรมและเครื่องมือวัดในระดับอุตสาหกรรม ที่เป็นมาตรฐานระดับโลก\n\nCarAudioTraining ให้บริการออกแบบ-ผลิต-จำหน่าย-ซ่อม-โมลำโพงทุกชนิด\n\nCarAudioTraining จำหน่ายอะไหล่ลำโพงทุกชนิด จากโรงงานผู้ผลิตโดยตรง",
        "emails": [
            "vr_audio@hotmail.com"
        ],
        "id": "332854813432384",
        "location": {
            "city": "Bangkok",
            "country": "Thailand",
            "street": "93 ซ.จันทน์ 43 ถนนจันทน์ แขวงทุ่งวัดดอน เขตสาทร",
            "zip": "10120"
        },
        "name": "เครื่องเสียงรถยนต์ ซ่อมสอนโมลำโพง",
        "phone": "084-733-5235"
    },
    {
        "about": "ตัวแทนจำหน่ายของ เครื่องตัดหญ้า HONDA และ บริการ ซ่อมเครื่องตัดหญ้า ขายเครื่องตัดหญ้า\n",
        "description": "ขาย เครื่องตัดหญ้า HONDA และ ยี่ห้ออื่นๆ\nซ่อมเครื่องตัดหญ้า ปั้มน้ำ เครื่องปั่นไฟ และเลื่อยยนต์\nลับคมกรรไกรตัดหญ้า ตัดกิ่งไม้\nพร้อมอะไหล่เครื่องตัดหญ้าทุกชนิด สอบถาม ราคาเครื่องตัดหญ้า ได้ตลอดนะคะ\n\nมีปัญหาเรื่อง เครื่องตัดหญ้า\nติดต่อเราโดยตรงได้ที่นี่ หรือ www.ponchaiyont.com",
        "id": "607246052670496",
        "location": {
            "city": "Bangkok",
            "country": "Thailand",
            "latitude": 13.7427502,
            "longitude": 100.5712204,
            "street": "Sukhumvit 71",
            "zip": "10110"
        },
        "name": "พรชัย์ยนต์ เครื่องตัดหญ้า และ ซ่อมเครื่องตัดหญ้า",
        "phone": "66616966141"
    },
    {
        "about": "รับซ่อมทีวี-เครื่องไช้ไฟฟ้าภายในบ้าน-รับซื้อทีวี LCD-LED-PLASMAจอแตก-เครื่อวงซักผ้าเก่า",
        "id": "373450559511183",
        "location": {
            "city": "Chiang Khong",
            "country": "Thailand",
            "latitude": 20.2833,
            "longitude": 100.4,
            "street": "19 ม.11 ต.สถาน  ข้างวัดทุ่งงิ้ว",
            "zip": "57140"
        },
        "name": "ร้านบรรจบอิเล็กทรอนิกส์ - ซ่อมทีวี+เครื่องไช้ไฟฟ้า",
        "phone": "089-5557193"
    },
    {
        "about": "รับซ่อมเครื่องมือวัดและทดสอบทุกชนิด\nwww.cbr.co.th",
        "id": "215470478464739",
        "name": "รับซ่อมเครื่องมือวัดทุกชนิด"
    }
]