[
    {
        "emails": [
            "jobker147@gmail.com"
        ],
        "id": "626844447426403",
        "location": {
            "city": "Chiang Mai",
            "country": "Thailand",
            "latitude": 18.83117,
            "longitude": 98.95191,
            "street": "หลัง \"โปลิ\"",
            "zip": "50300"
        },
        "name": "รับซ่อมเครื่องใช้ไฟฟ้าซ่อมทีวี มือถือ เดลิเวอร์รี่",
        "phone": "0979422098"
    },
    {
        "about": "งานดีอยู่ที่ฝีมือ หาใช่ที่ร้านโต",
        "description": "งานดี กาวแน่นไม่เลอะเรือ ลองมาพิสูจน์ได้ครับ",
        "emails": [
            "singha_seka@outlook.co.th"
        ],
        "id": "1404609399835333",
        "location": {
            "city": "Bangkok",
            "country": "Thailand",
            "latitude": 13.77024,
            "longitude": 100.39874,
            "street": "talingchan bangkok",
            "zip": "10170"
        },
        "name": "ขายซ่อมเรือยางเครื่องเรืออุปกรณ์เรือยางเครื่องเล่นพองลมทุกชนิด",
        "phone": "0934414982"
    },
    {
        "id": "739524189452033",
        "name": "รับซ่อม - จำหน่ายเครื่องเซื่อม ,หม้อแปลง ,เครื่องสปอต พร้อมอุปกรณ์การเชื่อม"
    },
    {
        "about": "ขายซ่อมให้เช่าเครื่องถ่ายเอกสาร ขายซ่อมให้เช่าเครื่องปริ้นเตอร์\n",
        "description": "จำหน่าย ขาย ซ่อม เช่าเครื่องถ่ายเอกสาร ขาย ซ่อม เช่าเครื่องปริ้นเตอร์ เครื่องใช้สำนักงานทุกชนิด\nจำหน่าย ขาย หมึกถ่ายเอกสาร หมึกปริ้นเตอร์  CANON XEROX BROTHER \nSAMSUNG HP ทุกยี่ห้อ\n**ยินดีรับบริการทุกเงื่อนไข**\n089-8450055  044-957335",
        "emails": [
            "korat_copy@hotmail.co.th"
        ],
        "id": "273738842833753",
        "location": {
            "street": "102/5 ถ.เดชอุดม ต.ในเมือง อ.เมือง จ.นครราชสีมา",
            "zip": "30000"
        },
        "name": "โคราช - เครื่องถ่ายเอกสาร ขาย ซ่อม เช่าเครื่องถ่ายเอกสาร เครื่องปริ้นเตอร์",
        "phone": "0898450055"
    },
    {
        "id": "170690966371528",
        "name": "เครื่องมือกลซ่อมบำรุง"
    },
    {
        "id": "1424089751246986",
        "location": {
            "city": "Amphoe Khlong Luang",
            "country": "Thailand",
            "latitude": 14.0036869,
            "longitude": 100.6099854,
            "street": "8/385 ม.16 ต.คลอง4 อ.คลองหลวง จ.ปทุมธานี",
            "zip": "12120"
        },
        "name": "รับซ่อมเครื่องยนตเบนซินขนาดเล็ก เครื่องพ่นยาพ่นปุ๋ย เครื่องตัดหญ้า__/\\__",
        "phone": "0948524760"
    },
    {
        "about": "บริการซ่อมเครื่องเสียง ติดตั้งเครื่องเสียง ",
        "id": "965819270156322",
        "location": {
            "city": "Bangkok",
            "country": "Thailand",
            "street": "bangkok noi",
            "zip": "10700"
        },
        "name": "บริการซ่อมเครื่องเสียง",
        "phone": "0625498559"
    },
    {
        "id": "521845651305552",
        "location": {
            "city": "Nonthaburi",
            "country": "Thailand",
            "latitude": 13.8611,
            "longitude": 100.513,
            "street": "ทั่วราชอาณาจักรไทย",
            "zip": "11150"
        },
        "name": "ณัฐพงษ์ เครื่องเย็นซ่อมเปลี่ยนขอบยางตู้เย็น ตู้เเช่ทุกชนิด",
        "phone": "081-0375196"
    },
    {
        "id": "1523482481217672",
        "location": {
            "city": "Samut Prakan",
            "country": "Thailand",
            "latitude": 13.61248,
            "longitude": 100.74425,
            "street": "ชลเทพ",
            "zip": "10540"
        },
        "name": "รับซ่อมเครื่องใช้ไฟฟ้าทุกชนิดรับเดินไฟบ้านติดตั้งแอร์บ้านราคาถูกครับ",
        "phone": "082-975-9103"
    },
    {
        "id": "420955804769047",
        "location": {
            "city": "Bang Khen",
            "country": "Thailand",
            "latitude": 13.67097,
            "longitude": 100.6059189,
            "street": "3/1185 ม.8 แขวงอนุสาวรีย์",
            "zip": "10220"
        },
        "name": "อู่บรรเจิด ซ่อมรถ VOLVO และรับเปลี่ยนถ่ายน้ำมันเครื่องรถทุกยี่ฮ้อ",
        "phone": "0817149084"
    },
    {
        "id": "1434095226884953",
        "location": {
            "city": "Amphoe Sam Phran",
            "country": "Thailand",
            "latitude": 13.7167,
            "longitude": 100.217,
            "street": "สิวารัตน์2",
            "zip": "73210"
        },
        "name": "รับซ่อมรับทำ ตู้เย็น เครื่องครัวสแตนเลส",
        "phone": "0892161999"
    },
    {
        "about": "อู่ชางกี่ อ.จักราช จ.นครราชสีมา 098-1253263 081-0635327",
        "emails": [
            "love_doraemon222@hotmail.com"
        ],
        "id": "600946103383378",
        "location": {
            "city": "Amphoe Chakkarat",
            "country": "Thailand",
            "street": "อ.จักราช จ.นครราชสีมา",
            "zip": "30230"
        },
        "name": "รับซ่อมเครื่องยนต์ทุกชนิด  เครื่องปั้มลมสกรู เจาะน้ำบาดาล",
        "phone": "0981253263"
    },
    {
        "about": "ซ่อมรถยนต์ ช่วงล่าง เบรค/คลัช ติดตั้งแก๊สLPG NGV จูนย์แก๊ส",
        "id": "1491267084532599",
        "location": {
            "city": "Pattaya",
            "country": "Thailand",
            "latitude": 12.9736252,
            "longitude": 100.9082489,
            "street": "271/9 ม.4 ต.นาเกลือ อ.บางละมุง จ.ชลบุรี 20150",
            "zip": "20150"
        },
        "name": "อู่ ปัญญาแก๊สเซอร์วิส พัทยา - ซ่อมเครื่อง ช่วงล่างติดแก๊สlpg/ngv",
        "phone": "0811615192"
    },
    {
        "about": "ซ่อมเครื่องออกกำลังกายนอกสถาณที่",
        "description": "รับซ่อมเครื่องออกกำลังกาย เปลี่ยนสายพาน แผงวงจร ลู่วิ่ง ชุดโฮมยิม จักรยาน โดยทีมช่างผู้ชำนาญกว่าสิบปี ",
        "id": "692036497488265",
        "location": {
            "city": "Bangkok",
            "country": "Thailand",
            "latitude": 13.774,
            "longitude": 100.65728,
            "street": "รามคำแหง 22",
            "zip": "10240"
        },
        "name": "ซ่อมเครื่องออกกำลังกาย",
        "phone": "0823347491  0826801166"
    },
    {
        "id": "975449105799279",
        "location": {
            "city": "Nang Rong",
            "country": "Thailand",
            "latitude": 14.65327,
            "longitude": 102.72372,
            "street": "อาร์.เอส.เซนเตอร์เซอร์วิส",
            "zip": "31110"
        },
        "name": "ขาย-ซ่อม-ให้เช่า เครื่องถ่ายเอกสาร เครื่องพิมพ์สำเนา ก๊อปปี้ปริ้น",
        "phone": "044632138"
    },
    {
        "about": "จำหน่าย เครื่องอัดอิฐบล็อก แบบท่อ แบบเสา แบบรองน้ำ แบบเหล้กทุกชนิด \nสนใจติดต่อ . 089-9107898, 089-9110906",
        "description": "รับทำเครื่องอัฐอิฐบล็อก แบบเสา แบบท่อ แบบรองน้ำ แบบเหล็กทุกชนิด เครื่องอัดอิฐบล็อคแบบธรรมดา/ไฮดรอลิก แบบพิมพ์อิฐบล็อคลวดลายต่างๆ \n\n\nที่อยู่ 29/3 ม.1 ต.พิหารแดง อ.เมืองสุพรรณบุรี จ.สุพรรณบุรี\nสนใจติดต่อเบอร์โทรศัพท์ \n089-910-7898 , 089-911-0906  หรือ ID Line : 26074",
        "emails": [
            "mmm_4567@hotmail.com"
        ],
        "id": "141704752646800",
        "location": {
            "city": "Muang Suphan",
            "country": "Thailand"
        },
        "name": "โรงงานกำลังการช่าง จำหน่าย-ซ่อม เครื่องอัดอิฐบล็อก",
        "phone": "0899110906"
    },
    {
        "about": "ชื่อตรง จริงใจ ไม่ทิ้งงาน และเชื่อถือได้คะ  ช่างไม่ดื่มสุราคะ รับงานในกรุงเทพและปริมณฑล ",
        "id": "1762057604021086",
        "location": {
            "city": "Nonthaburi",
            "country": "Thailand",
            "latitude": 13.8611,
            "longitude": 100.513,
            "street": "อ.ไทรน้อย จ.นนทบุรี",
            "zip": "11150"
        },
        "name": "รับปูกระเบื้อง ทาสี ไฟฟ้า ประปา เครื่องปรับอากาศ ต่อเติม ซ่อมประตูเหล็ก ฯลฯ",
        "phone": "0811403199"
    },
    {
        "about": "หจก.MN เซอร์วิส ให้บริการ จำหน่าย ให้เช่า รับซ่อม รับซื้อ",
        "emails": [
            "moommam_maw@hotmail.com"
        ],
        "id": "301071576709967",
        "location": {
            "city": "Bangkok",
            "country": "Thailand",
            "latitude": 13.99219,
            "longitude": 100.78867,
            "street": "15/10 หมู่11 ต.บึงคำพร้อย อ.ลำลูกกา จ.ปทุมธานี",
            "zip": "12150"
        },
        "name": "จำหน่าย/ให้เช่า/รับซ่อม/รับซื้อ เครื่องมือก่อสร้าง",
        "phone": "0847875969"
    },
    {
        "about": "รับซ่อมเครื่องใช้ไฟ้ฟ้า,  TV ,  LCD, LED",
        "id": "814018702044872",
        "name": "รับซ่อมเครื่องใช้ไฟ้ฟ้า TV  LCD LED"
    },
    {
        "about": "บริการติดตั้งเครื่องทำน้ำอุ่นกล่อง หยอดเหรียญ เดินระบบไฟฟ้าบ้าน ปั้มน้ำ แอร์",
        "id": "968073986544377",
        "location": {
            "city": "Bangkok",
            "country": "Thailand",
            "latitude": 13.66847,
            "longitude": 100.352925
        },
        "name": "บริการติดตั้ง ซ่อม ล้าง แอร์  เครื่องซักผ้า เครื่องทำน้ำอุ่น",
        "phone": "0928579232"
    },
    {
        "about": "ซ่อมเครื่องยนต์,เบรค,คลัช,ช่วงล่าง,ราคากันเอง",
        "id": "1620852664822467",
        "location": {
            "city": "Chiang Mai",
            "country": "Thailand",
            "latitude": 18.8118534,
            "longitude": 99.0112762,
            "street": "86/8 ม.1 ต.ต้นเปา อ.สันกำแพง จ.เชียงใหม่",
            "zip": "50130"
        },
        "name": "ต้นเปา ซ่อมเครื่อง เบรค คลัช ช่วงล่าง-ช่างห่วง",
        "phone": "0895580905"
    },
    {
        "id": "1654343998135877",
        "name": "เครื่องมือช่างอู่ซ่อมรถ"
    },
    {
        "about": "ประกอบเพาเวอร์แอมป์",
        "id": "680892372031426",
        "location": {
            "city": "Surin",
            "country": "Thailand",
            "latitude": 15.03308,
            "longitude": 103.93518,
            "street": "Surin",
            "zip": "32170"
        },
        "name": "T D S ตู้แดงซาวด์ ซ่อมเครื่องใช้ไฟฟ้า",
        "phone": "0828707946"
    },
    {
        "about": "ซ่อม เครื่องทำความเย็นทุกชนิด จ.เชียงไหม่ และ จังหวัดไกล้เคียง  087-1808014 ช่าง วิทย์",
        "id": "1512638145670584",
        "name": "รับซ่อม ตู้เย็น เครื่องทำความเย็นทุกชนิด chiang mai"
    },
    {
        "emails": [
            "spy88best@gmail.com"
        ],
        "id": "103005956701097",
        "location": {
            "city": "Bangkok",
            "country": "Thailand",
            "latitude": 13.8129749,
            "longitude": 100.703392,
            "street": "ซอย คู้บอน6  ถนน รามอินทรา เขต/แขวงคันนายาว",
            "zip": "10230"
        },
        "name": "รับซ่อมรองเท้า และเครื่องหนังทุกชนิด",
        "phone": "0954590627"
    }
]