[
    {
        "id": "353312594834149",
        "location": {
            "city": "สมุทรปราการ"
        },
        "name": "ล้านน้ำใส จำหน่ายและบริการซ่อมเครื่องกรองน้ำตู้น้ำดื่มหยอดเหรียญ",
        "phone": "0983230047"
    },
    {
        "id": "1442186556071578",
        "location": {
            "city": "Bang Pa-in",
            "country": "Thailand",
            "latitude": 14.23619,
            "longitude": 100.5954,
            "street": "35/5",
            "zip": "13160"
        },
        "name": "รับซ่อม มอเตอรไซค์ทุกยี่ห้อ รับทำเครื่อง",
        "phone": "0994277554"
    },
    {
        "id": "689941714440872",
        "location": {
            "city": "Ban Noen Kham",
            "country": "Thailand",
            "latitude": 14.950655,
            "longitude": 99.931853333333,
            "zip": "17130"
        },
        "name": "ร้านซ่อมเครื่องฉีดยา หน้า ธกส เนินขาม"
    },
    {
        "id": "393686140836232",
        "name": "ช่างซ่อมบำรุง (Shuttler)เครื่องจักน"
    },
    {
        "id": "197388830274908",
        "name": "ช่างซ่อมเครื่องถ่ายเอกสาร"
    },
    {
        "about": "รับติดตั้งระบบ E85  และ รับเดินสายไฟรถยนต์ งานวางเครื่อง ",
        "id": "775260389205505",
        "location": {
            "city": "Bangkok",
            "country": "Thailand",
            "latitude": 13.774,
            "longitude": 100.65728,
            "street": "กรุงเทพ",
            "zip": "10240"
        },
        "name": "บริการซ่อมรถ  รับวางเครื่อง เดินสายไฟรถยนต์ ติดแก๊ต  ถอดชุดแก๊ต",
        "phone": "0854204773"
    },
    {
        "id": "926034907469958",
        "location": {
            "city": "Nakhon Ratchasima",
            "country": "Thailand"
        },
        "name": "N\u0026Tรับซ่อมตู้เย็น เครื่องซักผ้า"
    },
    {
        "id": "1664782143741592",
        "name": "รับซ่อมเครื่องตัดหญ้า ที่วิษณุ มอเตอร์"
    },
    {
        "id": "1473722219591417",
        "location": {
            "city": "Non Buri",
            "country": "Thailand",
            "latitude": 13.8830099,
            "longitude": 100.3708191,
            "street": "บางบัวทอง บางใหญ่ นนทบุรี",
            "zip": "11110"
        },
        "name": "รับซ่อมเครื่องมือช่าง ปั๊มน้ำ บางบัวทอง บางใหญ่ นนทบุรี",
        "phone": "029279838,0805893990"
    },
    {
        "id": "146848358661257",
        "name": "ช่างซ่อมเครื่องบิน"
    },
    {
        "id": "918186864869193",
        "location": {
            "city": "Maha Sarakham",
            "country": "Thailand",
            "latitude": 16.1833,
            "longitude": 103.3,
            "street": "51 ม.13 ต.หนองเรือ อ.นาเชือก จ.มหาสารคาม",
            "zip": "44170"
        },
        "name": "ขาย-ซ่อมเครื่องมือไฮดรอลิค",
        "phone": "0932768799"
    },
    {
        "id": "443975089121589",
        "location": {
            "city": "Cha-am",
            "country": "Thailand",
            "latitude": 12.74545,
            "longitude": 99.9601933,
            "street": "บ่อแขม",
            "zip": "76120"
        },
        "name": "อู่ซ่อมรถเครื่อง ตรงข้ามวัดบ่อแขม ชะอำ"
    },
    {
        "id": "748158768639117",
        "location": {
            "city": "Bangkok",
            "country": "Thailand",
            "latitude": 13.7522,
            "longitude": 100.494,
            "street": "สะพานใหม่",
            "zip": "10220"
        },
        "name": "รับซ่อมเครื่องนวดหน้าหัวทอง- ชุบทอง24เคใหม่",
        "phone": "0959613417"
    },
    {
        "about": "รับซ่อม ซื้อ ขาย ให้เช่า เครื่องมือก่อสร้างทุกชนิด",
        "emails": [
            "nopparat17@outlook.com"
        ],
        "id": "1664204777135622",
        "location": {
            "city": "Min Buri",
            "country": "Thailand",
            "latitude": 13.8167,
            "longitude": 100.733,
            "street": "กรุงเทพมหานคร",
            "zip": "10510"
        },
        "name": "รับซ่อม ซื้อ ขาย ให้เช่า เครื่องมือก่อสร้าง",
        "phone": "0988834276"
    },
    {
        "id": "1243233892369580",
        "name": "นุ มอเตอร์ไซค์  รับซ่อมมอเตอร์ไซค์ทุกชนิด เครื่องตัดญ่า เครื่องสูบน้ำ"
    },
    {
        "about": "ซ่อมคอมพิวเตอร์ และโทรศัพท์",
        "id": "479000032253640",
        "name": "รับซ่อมคอมพิวเตอร์ แก้ไอคราวไอโฟนอัพเครื่องลงโปรแกรม"
    },
    {
        "about": "ซ่อมเครื่องเบนซิล ดีเซล",
        "id": "334253776763132",
        "location": {
            "city": "Nakhon Sawan",
            "country": "Thailand",
            "latitude": 15.59171567,
            "longitude": 100.37401425,
            "street": "174 ม.14 ต.เขากะลา อ.พยุหะคีรี",
            "zip": "60130"
        },
        "name": "เอส.เค.เซอร์วิส บริการซ่อมเครื่องเบนซิล ดีเซล",
        "phone": "0921146576"
    },
    {
        "about": "อู่ทำสีรถยนต์ ซ่อม ต่อเติม ตัวถัง วางเครื่อง ติดตั้งหลังคาmoonroof ครบวงจร โทร 081-0181463",
        "id": "381760001948580",
        "name": "อู่ซ่อมตัวถัง สี 2k วางเครื่อง ซ่อม ปะผุ รับติดตั้งหลังคาmoonroof ครบวงจร"
    },
    {
        "id": "1485483011752489",
        "location": {
            "city": "Suphan Buri",
            "country": "Thailand",
            "latitude": 14.4667,
            "longitude": 100.117,
            "street": "ใต้สะพานวัดราฏสามัคคี",
            "zip": "72000"
        },
        "name": "NTP รับซ่อม โทรทัศน์ เครื่องเสียง",
        "phone": "0853844835"
    },
    {
        "id": "1669772299905687",
        "location": {
            "city": "Amphoe Det Udom",
            "country": "Thailand"
        },
        "name": "ศูนย์ซ่อมบริการแอร์บ้าน   เครื่องชักผ้า  ทีวี   ตู้เย็น"
    },
    {
        "id": "1406820869559198",
        "location": {
            "city": "Thai Chang",
            "country": "Thailand",
            "latitude": 13.53437,
            "longitude": 100.23551,
            "street": "189/45 ม.6 ต.บางกระเจ้า",
            "zip": "74000"
        },
        "name": "รับซ่อมมือถือ จัดหาเครื่องมือสอง อะไหลมือหนึ่ง อะไหลมือสอง ทุกชนิด",
        "phone": "0970524114"
    },
    {
        "id": "1700450946845475",
        "name": "ขายและซ่อมเครื่องออกกำลังกาย"
    },
    {
        "id": "524348154378733",
        "location": {
            "city": "กรุงเทพมหานคร",
            "street": "65/2 อาคารเทคโนโลยีโฮม บู๊ท G1 G2 ถ พาหุรัต วังบูรพา",
            "zip": "10200"
        },
        "name": "ESS   รับซ่อมเครื่องกลางแจ้ง  ติดตั้ง   วงดนตรี",
        "phone": "0804355492"
    },
    {
        "about": "แก้ไขปัญหาระบบไฟเครื่องคอมม่อนเรล.   เบนชิล",
        "id": "324408371102073",
        "location": {
            "city": "Buriram",
            "country": "Thailand",
            "latitude": 14.99706,
            "longitude": 103.12157,
            "street": "215 ม. 8  ต. อิสาน",
            "zip": "31000"
        },
        "name": "อู่ช่างโน่ ซ่อมเครื่องยนต์ ช่วงล่าง แอร์ ระบบไฟเครื่องคอมมอ่นเรล.  เบนซิล",
        "phone": "0857715658"
    },
    {
        "about": "ซ่อมและให้คำปรึกษาปัญหาเรื่องเครื่องถ่ายเอกสาร Canon และ Konica ",
        "description": "ให้คำปรึกษาเกี่ยวกะปัญหาการใช้งาน สอบถามวิธีแก้ไขเบื้องต้น พร้อมรับซ่อมราคาพิเศษ",
        "id": "806052829434126",
        "name": "รับซ่อมเครื่องถ่ายเอกสาร",
        "phone": "0860694651"
    }
]