[
    {
        "id": "209802479064153",
        "location": {
            "street": "ริมคลองลาดพร้าว",
            "zip": "10310"
        },
        "name": "สอนซ่อม TV DVD เครื่องเสียง",
        "phone": "085-8399978"
    },
    {
        "id": "174037849389931",
        "location": {
            "city": "Bangkok",
            "country": "Thailand",
            "latitude": 13.746048869647,
            "longitude": 100.5001401713
        },
        "name": "ศูนย์ซ่อมเครื่องใช้ไฟฟ้าอมร"
    },
    {
        "about": "http://www.ruamsubair.com/",
        "description": "จำหน่าย ติดตั้ง ซ่อม ล้างทำความสะอาด แอร์ เครื่องปรับอากาศ ทุกยี่ห้อ\n\n--------------------------------------------------------------------------------\n\nห้างหุ้นส่วนจำกัด รวมทรัพย์แอร์เซอร์วิส \nเลขที่ 14/3055  หมู่ 14  ถนนกาญจนาภิเษก  ตำบลบางบัวทอง \nอำเภอบางบัวทอง จังหวัดนนทบุรี 11110  \nโทร. 0-2922-7788 , 02-922-7585 , 086-319-4167 \n\n--------------------------------------------------------------------------------\n\nสาขาสุพรรณบุรี \nเลขที่ 294 หมู่ 13 ตำบลวังลึก อำเภอสามชุก จังหวัดสุพรรณบุรี \nโทร.083-818-8836 , 086-319-4167\n\n--------------------------------------------------------------------------------\n\nยินดีให้คำปรึกษา ราคาต่อรองได้ค่ะ หน่อย หรือ\n\n E-mail ruamsubair@yahoo.co.th \n\nยินดีรับบัตรเครดิตทุกธนาคาร , รับผ่อนบัตร First Choice\n\nรับติดตั้งกรุงเทพฯ ปริมลฑล และ จังหวัดใกล้เคียง ปทุมธานี สุพรรณบุรี อยุธยา\n",
        "id": "112926648829796",
        "location": {
            "city": "Nonthaburi",
            "country": "Thailand",
            "street": "14/3055",
            "zip": "11110"
        },
        "name": "จำหน่าย ติดตั้ง ซ่อม ล้างทำความสะอาด แอร์ เครื่องปรับอากาศ ทุกยี่ห้อ",
        "phone": "0-2922-7788 , 02-922-7585 , 086-319-4167"
    },
    {
        "about": "รวมข้อมูล เกี่ยวกับรถยนต์ รถมอไซค์ เครื่องเสียง ซื้อ ขาย เช่า แต่งรถ ดูแล ซ่อม ในระยอง",
        "description": "เน้นเรื่องรถ! โดยเฉพาะ ติดตามข้อมูลกด like ไว้นะคะ ขอบคุณคะ #เป็นการรวมกลุ่มธุรกิจของไทยระยองที่ให้บริการซ่อม ดูแล รถ แต่งรถ คะ https://www.facebook.com/Car.Rayong",
        "id": "1451524561830067",
        "name": "รถยนต์ รถมอไซค์ เครื่องเสียง ซื้อ ขาย เช่า แต่งรถ ดูแล ซ่อม ระยอง"
    },
    {
        "about": "ร้านขายอุปกรณ์ก่อสร้าง",
        "emails": [
            "besthome.th@gmail.com"
        ],
        "id": "404496446368828",
        "location": {
            "city": "Nong Bua Lamphu",
            "country": "Thailand",
            "latitude": 17.211264451111,
            "longitude": 102.43544263778,
            "street": "208 ม.3 ต.ลำภู อ.เมือง จ.หนองบัวลำภู",
            "zip": "39000"
        },
        "name": "เบสท์โฮม ครบเครื่องเรื่องซ่อมสร้าง",
        "phone": "042312690 ถึง 2"
    },
    {
        "about": "ร้านการช่าง 70 บริการ รับซ่อมและขายเครื่องทุ่นแรงทุกชนิด ",
        "description": "ร้านการช่าง 70 บริการ รับซ่อมและขายเครื่องทุ่นแรง ทุกชนิด เช่น แม่แรง ตะเข้ รถยก รอก บล๊อคลม ไฮโดรลิค และ อื่นๆ\nรับงานกลึง ทุกชนิด โดยช่างผู้เชี่ยวชาญ\n",
        "emails": [
            "hydo_70service@hotmail.com"
        ],
        "id": "572649946193796",
        "location": {
            "city": "กรุงเทพฯ",
            "street": "70 ซ.บ้านบาตร ถ. บำรุงเมือง แขวง บ้านบาตร เขต ป้อมปราบฯ",
            "zip": "10100"
        },
        "name": "ร้านการช่าง 70 บริการ ซ่อมแม่แรง เครื่องทุ่นแรงทุกชนิด",
        "phone": "02-223-7637 / 081-919-2550"
    },
    {
        "about": "รับ ลงโปรแกรมล้างเครื่อง ซ่อมคอม อัพเกรด แก้ไวรัส ประกอบคอม",
        "description": "รับลงโปรแกรมซ่อมคอม ล้างเครื่อง อัพเกรด แก้ไวรัส",
        "id": "517542354960597",
        "location": {
            "city": "Nong Sua",
            "country": "Thailand",
            "latitude": 14.16009,
            "longitude": 100.85354,
            "street": "61/2 ม.2 ถ.เลียบคลอง11 ต.บึงกาสาม อ.หนองเสือ จ.ปทุมธานี 12170",
            "zip": "12170"
        },
        "name": "รับลงโปรแกรมล้างเครื่องซ่อมคอม",
        "phone": "0891648625"
    },
    {
        "id": "154331174623237",
        "name": "เครื่องมือกลเเละซ่อมบำรุง"
    },
    {
        "about": "ซ่อมเครื่องดนตรีทั้งไทยและสากล ปรับแต่งเสียง เปลี่ยนสาย ซ่อมแซม ทำสีใหม่",
        "emails": [
            "vezpaviva@gmail.com"
        ],
        "id": "433935310125298",
        "location": {
            "city": "Bangkok",
            "country": "Thailand"
        },
        "name": "ซ่อมเครื่องดนตรีไทยและสากล",
        "phone": "0921920057"
    },
    {
        "id": "901211976630646",
        "name": "ซ่อมเครื่องงัย#บอกหลายรอบ"
    },
    {
        "about": "เชียงใหม่ แคลวคิวเลเทอ รับซ่อม เครื่องคำนวณเลข เครื่องบันทึกเงินสด CASIO SHARP OLYMPIA \nCANON",
        "id": "1427126110842942",
        "location": {
            "city": "Chiang Mai",
            "country": "Thailand",
            "latitude": 18.785954308339,
            "longitude": 98.990352479533,
            "street": "95 ถ.ราชภาคินัย ต.พระสิงห์ อ.เมือง จ.เชียงใหม่",
            "zip": "50200"
        },
        "name": "Cct เชียงใหม่ แคลคิวเลเทอ - รับซ่อมเครื่องคิดเลข เครื่องบันทึกเงินสด",
        "phone": "0875774655"
    },
    {
        "about": "รับซ่อมทีวี เครื่องเสียง เครื่องใช้ไฟฟ้า 087-081-8576 / 090-910-8677",
        "description": "ที่ตั้ง :\nอยู่ในหมู่บ้านเอื้ออาทรระยอง อ.เมือง ไกล้ๆหมู่บ้านเพลินใจ 2 ",
        "emails": [
            "tono_0110@hotmail.com"
        ],
        "id": "408985252512488",
        "location": {
            "city": "ระยอง",
            "street": "143/หมู่2 ถนนสุขุมวิท ตำบลเนินพระ อำเภอเมืองระยอง จังหวัดระยอง 21000",
            "zip": "21000"
        },
        "name": "สองเสี่ยวการช่าง รับซ่อมถึงบ้าน ทีวี เครื่องเสียง",
        "phone": "087-081-8576"
    },
    {
        "id": "1404200689797641",
        "name": "จำหน่าย เครื่อง Lifan ไลฟาน และ อะไหร่ซ่อมบำรุง BY อุดมชัย"
    },
    {
        "about": "ศูนย์บริการซ่อมเครื่องชั่ง,เครื่องมือแพทย์,เครื่องมือวิทยาศาสตร์",
        "description": "จำหน่ายและซ่อมเครื่องชั่งทุกยี่ห้อ \nรับซ่อมเครื่องมือแพทย์,เครื่องมือวิทยาศาสตร์,เครื่องมือในห้องปฎิบัติการต่างๆ ทั้งในโรงพยาบาล โรงงาน ต่างๆ  ",
        "emails": [
            "phongnete@gmail.com"
        ],
        "id": "157063504364372",
        "location": {
            "street": "97 ซอยพึ่งมี9 สุขุมวิท93 แขวงบางจาก เขตพระโขนง",
            "zip": "10260"
        },
        "name": "ศูนย์บริการซ่อมเครื่องชั่ง,เครื่องมือแพทย์และเครื่องมือวิทยาศาสตร์",
        "phone": "081-776-7232"
    },
    {
        "emails": [
            "jeng_111@hotmail.com"
        ],
        "id": "1573963286158855",
        "location": {
            "city": "Bangkok",
            "country": "Thailand",
            "latitude": 13.774,
            "longitude": 100.65728,
            "street": "260/7ต.บ้านคลอง อ.เมือง จ.พิษณุโลก",
            "zip": "10240"
        },
        "name": "Surachai fitness and service จำหน่ายและซ่อมเครื่องออกกำลังกาย",
        "phone": "  66894591148"
    },
    {
        "about": "รับบริการซ่อมถึงบ้านทั่วอำเภอพนมไพร",
        "id": "1630493710557950",
        "location": {
            "city": "Amphoe Phanom Phrai",
            "country": "Thailand",
            "latitude": 15.6833,
            "longitude": 104.117,
            "street": "63ม.5บ้านดอนกลาง"
        },
        "name": "พนมไพรช่างต้ารับซ่อมเครื่องใช้ไฟฟ้าทุกชนิดบริการถึงบ้านติดตั้งจานดาวเทียม",
        "phone": "0810572705"
    },
    {
        "about": "มาคุยกันสิ... :)",
        "description": "รับสอนงานผลิตภัณต์เครื่องหนังแฮนเมด\nรับซ่อมบำรุง และรักษาผลิตภัณต์เครื่องหนัง\nรับผลิตชิ้นงานเครื่องหนัง อีกทั้งของชำร่วย ฯลฯ ตามออเดอร์\n",
        "id": "393148924227719",
        "name": "Saiant shop สอนเย็บเครื่องหนัง รับซ่อม รับผลิตงาน"
    },
    {
        "about": "ทำสีทั้งคัน 4900 ครับดูสภาพอีกทีครับ งานหนักก็ทำนะครับราคาถูกปรึกษาเราก่อนได้ครับ",
        "id": "1658807157672398",
        "location": {
            "city": "Chiang Mai",
            "country": "Thailand",
            "latitude": 18.7622604,
            "longitude": 98.9929581,
            "street": "เชียงใหม่",
            "zip": "50140"
        },
        "name": "รับเปลี่ยนถ่ายน้ำมันเครื่อง ซ่อมบำรุงทั่วไปนอกสถานที่24 ชมเชียงใหม่คับ",
        "phone": "0962606100"
    },
    {
        "id": "604105129725069",
        "location": {
            "city": "Bangkok",
            "country": "Thailand",
            "latitude": 13.7522,
            "longitude": 100.494,
            "street": "311ถ.เจริญกรุง แขวงป้อมปราบ เขตป้อมปราบ",
            "zip": "10100"
        },
        "name": "ขายส่งอุปกรณ์มือถือ เครื่องมือซ่อม แบตเตอรี่ ทุกรุ่น",
        "phone": "0804598860"
    },
    {
        "about": "*บริการติดตั้ง ซ่อมเครื่องcnc",
        "id": "581278711916034",
        "name": "บริการ ติดตั้ง ซ่อมเครื่อง cnc"
    },
    {
        "about": "รับประกอบเพาเวอร์แอมป์สวิทชิ่งหม้อแปลงเครื่องเสียงกลางแจ้ง รับซ่อม โทร0823308368",
        "id": "315795618594549",
        "name": "ช่างเล็ก95รับซ่อมเครื่องเสียงกลางแจ้งสวิทชิ่งแอมป์ประกอบ"
    },
    {
        "about": "บริการ อะไหล่ ตรวจเช็ค ซ่อมเครื่องเรือยามาฮ่า",
        "id": "1428780120739071",
        "location": {
            "city": "Krabi",
            "country": "Thailand",
            "latitude": 8.032407816507,
            "longitude": 98.869479987862,
            "street": "217/2 ม.5 ต.ไสไทย",
            "zip": "81000"
        },
        "name": "กระบี่มารีน บริการตรวจเช็ค ซ่อมเครื่องเรือยามาฮ่า",
        "phone": "0954281555"
    },
    {
        "id": "1797520423807383",
        "name": "นิคม รับเหมาเดินสายไฟฟ้าภายในบ้าน รับเหมาต่อเติมบ้าน ซ่อมเครื่องใช้ไฟฟ้า"
    },
    {
        "id": "281102618752550",
        "location": {
            "city": "Bangkok",
            "country": "Thailand",
            "latitude": 13.70426,
            "longitude": 100.40088,
            "street": "127/3",
            "zip": "10160"
        },
        "name": "AP air sell \u0026 service   บริการ ขาย ล้าง ซ่อม เครื่องปรับอากาศ ทุกชนิด",
        "phone": "0809006821"
    },
    {
        "about": "ศูนย์ผลิต จำหน่าย และบริการซ่อมแซม สายจี้ปูน, ปั้มน้ำ, มอเตอร์, ไดโว่, สว่าน เป็นต้น",
        "description": "ศูนย์ผลิต จำหน่าย และบริการซ่อมแซม สายจี้ปูน, สายปั้มน้ำ, ปั้มน้ำ, มอเตอร์(ปรับรอบ 1-500HP), หินเจียร, ลูกหมู, สกัด, สว่าน, ไดโว่, เครื่องตัด/ดัดเหล็ก, รอกไฟฟ้า, เลื่อยไฟฟ้า, ตู้เชื่อมไฟฟ้า, เครื่องมือก่อสร้างทั่วไป, เครื่องจักรกลเบา เป็นต้น",
        "emails": [
            "st.pro.complex@gmail.com"
        ],
        "id": "370462316469789",
        "location": {
            "city": "Bangkok",
            "country": "Thailand",
            "latitude": 13.78472,
            "longitude": 100.713035,
            "street": "88/197 หมู่บ้านกลางเมือง ซ.อ่อนนุช 46 ถ.อ่อนนุช ข.สวนหลวง",
            "zip": "10250"
        },
        "name": "บริษัท เอสที.โปร. คอมเพล็กซ์ จำกัด จำหน่ายและซ่อมเครื่องมือก่อสร้าง",
        "phone": "02-7211964, 081-6678036, 084-7022906, 084-1124991, 089-5148874"
    }
]