[
    {
        "about": "รับซ่อมเครื่องเรือประมงไทย",
        "id": "429443293827683",
        "name": "รับซ่อมเครื่องเรือประมงไทย"
    },
    {
        "about": "รับติดตั้ง แก้ไขจานดาวเเทียมทุกยี่ห้อ รับซ่อมเครื่องใช้ไฟฟ้าทุกชนิด",
        "id": "801264913324108",
        "location": {
            "city": "Amphoe Kaset Wisai",
            "country": "Thailand",
            "street": "387หมู่2 ตำบลเกษตรวิสัย",
            "zip": "45150"
        },
        "name": "ช่างป้อ บริการซ่อมเครื่องใช้ไฟฟ้าครับ",
        "phone": "0834187136"
    },
    {
        "emails": [
            "nuttawutsound@hotmail.com"
        ],
        "id": "1639777679596526",
        "location": {
            "city": "Photharam",
            "country": "Thailand",
            "latitude": 13.6619196,
            "longitude": 99.8696823,
            "street": "114 ม.4 ต.บ้านสิงห์ อ.โพธาราม",
            "zip": "70120"
        },
        "name": "ซ่อมแอร์ ติดตั้ง ล้าง ย้าย ระบบไฟฟ้าในบ้าน ระบบน้ำประปา เครื่องซักผ้า",
        "phone": "088-0223804"
    },
    {
        "about": "3 ซ.วิวัฒน์เวียง ถ.หมาจักร แขวง/เขต สัมพันธ์วงศ์ กทม.10100 \n\nTel : 02-622-8302  \n      : 094-553-5653\nFax : 02-622-8302\nLine ID : Poom46499",
        "description": "ร้านเอกสถาพร ขายเครื่องมือช่างทุกชนิด ช่างไม้ ช่างเหล็ก อุปกรณ์ซ่อมรถ อุปกรณ์ตกแต่งสวน ปั๊มน้ำ ไดโว่ รอก เครื่องมือเจาะ เครื่องขัดกระดาษทราย และอุปกรณือื่นๆเช่น กระทาษทราย ใบเลื่อยจิ๊กซอว์ รวมทั้งเครื่องมือต่างๆที่ใช้ในโรงงาน และไซส์งานก่อสร้าง         และด้วยราคาที่ย่อมเยา จึงเป็นที่ไว้วางใจ มามากกว่า 10 ปี ในคลองถม แถมพ่อค้า แม่ค้าใจดีด้วยครับ\n\n-ติดต่อได้ที่ 081-581-1065\n-line: panupun45710\n-email: babe_ac129@hotmail.com\n-whatapps: 0815811065",
        "id": "201386913362048",
        "name": "เอกสถาพร : เครื่องมือช่าง เครื่องมือซ่อมรถ เครื่องมือไฟฟ้า คลองถม"
    },
    {
        "about": "รับซ่อมและจำหน่ายอะไหล่ Kitchen Aid ราคาพิเศษ \nจำหน่ายเครื่อง Kitchen Aid",
        "description": "รับซ่อม\nจำหน่ายอะไหล่ Kitchen Aid \nจำหน่ายเครื่อง Kitchen Aid\nและอะไหล่ สินค้าตัวอื่นสอบถามค่ะ ",
        "id": "390773451114616",
        "location": {
            "city": "Bangkok",
            "country": "Thailand",
            "latitude": 13.7522,
            "located_in": "110585945628334",
            "longitude": 100.494,
            "zip": "10150"
        },
        "name": "รับซ่อมเครื่อง และ จำหน่ายอะไหล่ Kitchen Aid",
        "phone": "+66986618819"
    },
    {
        "about": "ห้องซ้อมดนตรีและขายเครื่องดนตรี ราคาส่ง\nwww.fandontree.com",
        "description": "บริการห้องซ้อมดนตรีคุณภาพและจำหน่ายเครื่องดนตรีของใหม่ เกรด A ราคาส่ง เช่น กีต้าร์ไฟฟ้า กีต้าร์โปร่ง เบส กลอง อุปกรณ์เครื่องดนตรีอีกมากมาย เชิญแวะมาเทสและชมก่อนนะครับ",
        "emails": [
            "chansom.nat@gmail.com"
        ],
        "id": "1420588514868834",
        "location": {
            "city": "Rayong",
            "country": "Thailand",
            "latitude": 12.68957,
            "longitude": 101.29684,
            "street": "100/29",
            "zip": "21000"
        },
        "name": "ร้านขายเครื่องดนตรี กีต้าร์ เบส กลอง ห้องซ้อมดนตรี คอร์ดเพลง"
    },
    {
        "emails": [
            "serviceweld80@gmail.com"
        ],
        "id": "568490173246608",
        "location": {
            "city": "มีนบุรี",
            "street": "ข้างโลตัสมีนบุรี",
            "zip": "10310"
        },
        "name": "รับซ่อม-จำหน่าย เครื่องเชื่อมโลหะ เครื่องตัดโลหะ ทุกรุ่น ทุกยี่ห้อ",
        "phone": "0814255506"
    },
    {
        "about": "รับซ่อมเครื่องพ่นยุง ทุกรุ่น ทุกยี่ห้อ ",
        "description": "รับซ่อมเครื่องพ่นยุง ทุกรุ่น ทุกยี่ห้อ ทุกระบบ ทั้งแบบสะพายข้าง  แบบสะพายหลัง แบบติดรถยนต์ เราสามารถดูแลได้ทั้งหมด พร้อมรับประกันหลังซ่อม อีก3 เดือน และดูแลตลอดอายุการใช้งาน \n\nช่างของเราผ่านการซ่อมเครื่องและศึกษาระบบเครื่องมาเกือบ10 ปี และผ่านการซ่อมเครื่องมามากกว่า 1000 ตัว ท่านจึงวางใจได้ว่าไม่ว่าเครื่องของท่านจะเป็นอะไร เราสามารถ แก้ปัญหาได้ทั้งหมด",
        "emails": [
            "tsn-service@hotmail.com"
        ],
        "id": "351570811522435",
        "location": {
            "city": "สมุทรสาคร",
            "latitude": 13.6532032475,
            "longitude": 100.3159301925,
            "street": "35 หมู่3 ตำบลแคราย อำเภอกระทุ่มแบน",
            "zip": "74110"
        },
        "name": "รับซ่อมเครื่องพ่นยุง ทุกยี่ห้อ ทุกระบบ โดย หสม.ทิพย์สำเนียง",
        "phone": "0819414861,094-1649496, 034-476390 "
    },
    {
        "about": "บริการซ่อมบำรุงเครื่องชงกาแฟ 0989528544 และ 0869009997 (แอดมิน เปรม)",
        "description": "บริการซ่อมบำรุงเครื่องชงกาแฟ ให้คำปรึกษาและแนะนำ\nรวดเร็ว ราคาถูกใจ  0989528544 (เตี้ย) บริการทั่วกรุงเทพ\n\nประสานงาน 0839990015 (เอก)\n\nCoffee Machine Service \u0026 Advise BKK",
        "id": "1514032408820937",
        "name": "Luckycoff ซ่อมเครื่องชงกาแฟสด ราคาถูก"
    },
    {
        "emails": [
            "song39electronic@gmail.com"
        ],
        "id": "714218848611201",
        "location": {
            "city": "Bangkok",
            "country": "Thailand",
            "latitude": 13.93149,
            "longitude": 100.39004,
            "street": "17/5 ถ.บ้านกล้วย-ไทรน้อย ต.พิมลราช อ.บางบัวทอง จ.นนทบุรี (หน้าเทศบาลพิมลราช)",
            "zip": "11110"
        },
        "name": "ร้านซ่อมทีวี และเครื่องใช้ไฟฟ้าอื่นๆ",
        "phone": "086-8867808"
    },
    {
        "about": "จำหน่ายอะไหล่เครื่องจักรกล  CUMMINS  คัมมินส์\n\nhttp://www.prompt-center.com/",
        "description": "จำหน่าย : อะไหล่เครื่องจักรกลทุกชนิด โดยเฉพาะใน Brand CUMMINS\n\nจำหน่าย : ครัชหัวเครื่อง ทุกขนาด\n\nจำหน่าย : ไส้กรอง Fleetguard \n- น้ำยาเติมหม้อน้ำ เช่น ES complete , DCA-4\n- ท่อยาง Gates ขนาดตั้งแต่ 3/4\"-4\"\n\nรับซ่อม : ปั้มน้ำ เครื่อง K19 , K50 , NT , K38 โดยใช้อะไหล่ CUMMINS แท้\n\nรับซ่อม : ฝาสูบ K19 โดยใช้อะไหล่ CUMMINS แท้\n\nและให้คำปรึกษาเกี่ยวกับอะไหล่ในเครื่องเรือ และเครื่องยนต์ดีเซลอื่นๆ .\n\nhttp://www.prompt-center.com/",
        "emails": [
            "suttiwat.s@prompt-center.com"
        ],
        "id": "167649913410893",
        "location": {
            "city": "Samut Songkhram",
            "country": "Thailand",
            "latitude": 13.41360914062,
            "longitude": 99.990386962891,
            "zip": "75000"
        },
        "name": "Prompt Centerจำหน่ายอะไหล่เครื่องยนต์คัมมิ่นส์ และรับซ่อมฝาสูบ",
        "phone": "087-6749685 , 098-4307308 (ศุทธิวัต)"
    },
    {
        "emails": [
            "pupea25310@windowslive.com"
        ],
        "id": "343562425836039",
        "location": {
            "street": "บ้านโนนสมบูรณ์    ตำบลแก้งเหนือ"
        },
        "name": "รับซ่อมเครื่องใช้ไฟฟ้า"
    },
    {
        "about": "ซ่อมและประกอบเครื่องเสียงกลางแจ้ง(เป็นตัวแทนจำหน่ายบอร์ดไดร์จาก อ.น้อยครับ)",
        "id": "821874524529077",
        "location": {
            "city": "จ.ปทุมธานี",
            "street": "20/26หมู่13ต.คลองสองอ.คลองหลวง",
            "zip": "12120"
        },
        "name": "ซ่อม-สร้างเครื่องเสียงทุกชนิด",
        "phone": "0868958442"
    },
    {
        "about": "ฝากซื้อ ฝากขาย รับซ่อม รับซื้อ เครื่องถ่ายเอกสาร บริการด้านเครื่องถ่าย อะไหล่เครื่องถ่าย",
        "description": "บริการจัดซื้อจัดหาบริการด้านเครื่องถ่ายเอกสาร\nรับซื้อ ฝากขาย จำหน่ายอุปกรณ์สิ้นเปลื่องเครื่องถ่ายเอกสาร ให้เช่า ซ่อม",
        "emails": [
            "nanva101@gmail.com"
        ],
        "id": "128948677452539",
        "location": {
            "city": "กรุงเทพฯ",
            "street": "709 ลาดพร้าว 101 คลองเจ้าคุณสิงห์ วังทองหลาง กรุงเทพฯ 10310",
            "zip": "10310"
        },
        "name": "อยากซ่อมอยากซื้ออยากขายอะไหล่และเครื่องถ่ายเอกสาร",
        "phone": "081-838-5858 - 081-637-4158 02-370-2628"
    },
    {
        "about": "จำหน่ายอะไหล่เครื่องคัมมิ่นส์และรับซ่อมฝาสูบ",
        "description": "โชคไพบูลย์การช่าง\nบริการซ่อมเครื่องยนต์คัมมิ่นส์ (Cummins) พร้อมอะไหล่เครื่องยนต์คัมมิ่นส์\nบริการซ่อมฝาสูบเครื่องคัมมิ่นส์ เครื่องญี่ปุ่น และเครื่องรถ\nจำหน่ายเครื่องยนต์คัมมิ่นส์ใหม่และเครื่องยนต์มือสอง",
        "emails": [
            "cpb-karnchang@hotmail.com"
        ],
        "id": "657625940970617",
        "location": {
            "city": "Phuket",
            "country": "Thailand",
            "latitude": 7.8852030410096,
            "longitude": 98.40704237452,
            "street": "2/14 ถ.ศรีเสนา ต.ตลาดใหญ่",
            "zip": "83000"
        },
        "name": "CPB Karnchang จำหน่ายอะไหล่เครื่องยนต์คัมมิ่นส์ และรับซ่อมฝาสูบ",
        "phone": "0872767272"
    },
    {
        "about": "บริการให้ช่า/ซ๋อม/ซื้อ/ขายเครื่องถ่ายเอกสารอุปกรณ์สำนักงาน",
        "description": "จากประสบการณ์มากกว่า 20 ปี\n \nซื่อสัตย์ มุ่งมั่น พัฒนาในวิชาชีพไม่จําเป็นต้องเป็นองค์กรใหญ่ พอเพียงหล่อเลี้ยงได้ด้วยตัวเอง เพียงพอแล้วสําหรับเรา นี้คือหลักการคิดการทํางานบริหารจัดการของเรา หจก.นันวาเซอร์วิส จากประสบการณ์การทํางานมากกว่า 20 ปี และได้เข้าระบบจดทะเบียนการค้ากระทรวงพาณิชย์เป็นนิติบุคคลตั่งแต่ 27 มีนาคม 2541 เพื่อความเชื่อมั่นในการดําเนินธุรกิจให้แก่ลูกค้าเก่าและลูกค้าใหม่ เราจึงมีฐานลูกค้าหลากหลายระดับตั่งแต่ หน่วยงานราชการ บริษัท ห้างร้าน และเอกชน มากพอที่จะดําเนินธุรกิจได้อย่างต่อเนื่อง ขอบพระคุณลูกค้าเก่าและลูกค้าใหม่ที่ให้ความไว้วางใจที่สนับสนุนเราด้วยดีตลอดมาที่ทําให้เราได้มีที่ยืนและเดินได้อย่างภาคภูมิ\n\n\nรายละเอียด\nเช่าเครื่องถ่ายเอกสาร, จำหน่ายเครื่องถ่ายเอกสาร, จำหน่ายอะไหล่เครื่องถ่ายเอกสาร, รับซ่อมเครื่องถ่ายเอกสาร",
        "emails": [
            "nanva101@gmail.com"
        ],
        "id": "562998850476176",
        "location": {
            "city": "กรุงเทพฯ",
            "street": "709 ลาดพร้าว 101 แขวงคลองเจ้าคุณสิงห์ เขตวังทองหลาง กรุงเทพฯ",
            "zip": "10310"
        },
        "name": "หจก.นันวาเซอร์วิส ซัพพลาย -บริการรับซ่อมเครื่องถ่ายเอกสาร,รับซื้อ,ให้เช่า",
        "phone": "02-370-2628 , Fax.02-731-5429, 081-838-5858"
    },
    {
        "about": "รับซ่อม iphone samsung มือถือทุกรุ่น",
        "id": "332429186959577",
        "location": {
            "city": "Khon Kaen",
            "country": "Thailand",
            "latitude": 16.421262700844,
            "longitude": 102.81328458191,
            "street": "499/3 หมู่7 ต.บ้านเป็ด ม.ภาค",
            "zip": "40000"
        },
        "name": "คิมล็อค เทเลคอม ซ่อมไอโฟน ซัมซุง ปลดล็อคเครื่องนอก icloud",
        "phone": "0878688998"
    },
    {
        "about": "ซ่อมเครื่องเสียงรถยนต์ และ ติดตั้งเครื่องเสียง รวมทั้งปัญหาเกี่ยวกับเครื่องเสียง",
        "id": "790315217697419",
        "location": {
            "city": "Prachin Buri",
            "country": "Thailand",
            "latitude": 13.899258695634,
            "longitude": 101.58351123333,
            "street": "23/2 ม.10 ต.ท่าตูม อ.ศรีมหาโพธิ จ.ปราจีน",
            "zip": "25140"
        },
        "name": "รับซ่อมเครื่องเสียง พังแค่ไหนก็ซ่อมได้",
        "phone": "0801912795 , 0821089899"
    },
    {
        "about": "รับซ่อมเครื่องจักรกลหนักทุกชนิด เซอร์วิสถึงที่",
        "description": "รับซ่อมเครื่องจักรกลหนัก ทุกชนิด เครื่องยนต์ ช่วงล่าง ปั้มไฮดรอลิค ระบบไฟฟ้า ตั้งเพรสเชอร์ รับสั่งอะไหล่ ใหม่ เก่า จากญี่ปุ่น ทุกยี่ห้อ",
        "emails": [
            "soonton_thonglor@hotmail.com"
        ],
        "id": "578886388837810",
        "location": {
            "city": "ชลบุรี",
            "street": "ชลบุรี",
            "zip": "22000"
        },
        "name": "ซ่อมเครื่องจักรกลหนัก แม็คโค แทรกเตอร์ ฟิตเครื่อง ปั้มไฮดรอลิค",
        "phone": "0901346844"
    },
    {
        "about": "081-854-8792",
        "description": "บริการซ่อมเครื่องเรือ ROTAX,JELO,HONDA,เครื่องตัดหญ้า,อัดข้อเหวี่ยง,สูบเดียว,2สูบ",
        "id": "193608397381152",
        "location": {
            "city": "กรุงเทพ",
            "street": "ซ.วัดยายร่ม ถ.พระราม2",
            "zip": "10150"
        },
        "name": "ต๋อง บางมดซ่อมเครื่องเรือ",
        "phone": "0818548792"
    },
    {
        "id": "892011604183446",
        "location": {
            "city": "Phuket",
            "country": "Thailand",
            "latitude": 7.88418,
            "longitude": 98.39429,
            "street": "3/29 ถ.ศรีเสนา ต.ตลาดใหญ่ อ.เมือง จ.ภูเก็ต",
            "zip": "83000"
        },
        "name": "อู่ชัยการไฟฟ้า บริการซ่อมระบบไฟรถ-เปลี่ยนถ่ายน้ำมันเครื่อง",
        "phone": "0833883139"
    },
    {
        "emails": [
            "winai54122@gmail.com"
        ],
        "id": "1592955847609845",
        "name": "อะไหล่ ซ่อม เครื่องพ่นยา ตัดหญ้า เครื่องมือไฟฟ้า และอุปกรณ์ เกษตร",
        "phone": "0856855587"
    },
    {
        "about": "เครื่องออกกำลังกาย บริการซ่อมเครื่องออกกำลังกาย",
        "description": "เครื่องออกกำลังกาย บริการซ่อมเครื่องออกกำลังกาย\nจำหน่ายเครื่องออกกำลังกายทุกชนิด ทั้งใช้ในบ้าน ในฟิตเนต ในสปอตส์คลับ และอีกมากมายเช่น อุปกร์ลดหน้าท้อง อุปกรณ์บริหารกล้ามเนื้อทุกสัดส่วน อุปกรณ์บริหารกล้ามเนื้อหัวใจ ฯลฯ บริการซ่อมเครื่องออกกำลังกายทุกชนิด ทุกยี่ห้อ และบริการดูแลสปอตส์คลับหรือฟิตเนทแบบหลายปีหรือรายครั้งก็ได้ครับ",
        "emails": [
            "poomipak28@gmail.com"
        ],
        "id": "559254750797406",
        "location": {
            "city": "แขวงตลิ่งชัน  เขตตลิ่งชัน กรุงเทพมหานคร",
            "street": "56/39 หมู่ที่ 6 ถนน บรมราชชนนี 26",
            "zip": "10170"
        },
        "name": "จำหน่าย ให้เช่า ซ่อมเครื่องออกกำลังกาย",
        "phone": "089-0415107,024338075 คุณ สุขสันต์"
    },
    {
        "about": "เอามาเช็คกันได้ครับ มานั่งพูดคุยยินดีเลยครับ",
        "id": "311179629012912",
        "name": "ร้านเเต่เเรก:รับซ่อมเช็คระบบไฟเครื่องรถเก่า/รับจัดหาอะไหล่แท้เทียมรถแต่แรก"
    },
    {
        "id": "208248359190790",
        "name": "ช่างซ่อมเครื่องใช้ไฟฟ้า"
    }
]