[
    {
        "emails": [
            "www.dacha99@gmail.com"
        ],
        "id": "324214494349334",
        "location": {
            "city": "Bangkok",
            "country": "Thailand",
            "latitude": 13.7973967,
            "longitude": 100.7116776,
            "street": "16/18 ถนนรามคำแหง แขวงหัวหมาก เขตบางกะบิ",
            "zip": "10240"
        },
        "name": "รับติดตั้ง ซ่อม จำหน่าย เครื่องซักผ้าหยอดเหรียญ ตู้น้ำหยอดเหรียญ",
        "phone": "085-130-9770/083-701-1734"
    },
    {
        "description": "- รับติดแผ่นยาง Turcite B\n- ซ่อมเครื่อง CNC\n- ขายอะไหล่ ชิ้นส่วนอุปกรณ์ และ รับติดตั้งเครื่องจักร์ NIIGATA\n- สนใจติดต่อ คุณปรีดา โทร. 0819042065",
        "id": "1395897920635029",
        "name": "รับติดแผ่นยาง Turcite B - ซ่อมเครื่อง CNC"
    },
    {
        "about": "รับซ่อม และจำหน่ายเครื่องดนตรีไทยทุกชนิด",
        "id": "1488090374761208",
        "location": {
            "city": "Bangkok",
            "country": "Thailand",
            "latitude": 13.81362,
            "longitude": 100.18295,
            "street": "nakhonpathom",
            "zip": "73120"
        },
        "name": "รับซ่อมและจำหน่ายเครื่องดนตรีไทยทุกชนิด",
        "phone": "\u003c\u003cnot-applicable\u003e\u003e"
    },
    {
        "id": "1488279141472226",
        "location": {
            "city": "Lamphun",
            "country": "Thailand"
        },
        "name": "อู่ รุ่งกิจซ่อมเครื่องยนต์ เปลี่ยนถ่ายน้ำมันเครื่อง เกียร์ เฟืองท้าย"
    },
    {
        "id": "1514005248882990",
        "location": {
            "city": "Nonthaburi",
            "country": "Thailand",
            "latitude": 13.86281,
            "longitude": 100.51451,
            "street": "90/133  ม.12  ต.บางบัวทอง อ.ไทรน้อย  จ.นนทบุรี",
            "zip": "11160"
        },
        "name": "รับซ่อม สว่าน มอเตอร์ หินเจียร ปั้มนำ้  เครื่องมือช่าง  บางใหญ่",
        "phone": "0909280544"
    },
    {
        "about": "ซ่อมปริ้นเตอร์ เติมหมึก ติดตั้ง Ink Tank ฟรีค่าตรวจเช็ค\nโทร.081-0369678",
        "id": "1568116096743124",
        "location": {
            "city": "Nakhon Sawan",
            "country": "Thailand",
            "latitude": 15.69823,
            "longitude": 100.17683,
            "street": "อ.เมืองนครสวรรค์",
            "zip": "60000"
        },
        "name": "รับซ่อมเครื่องปริ้นเตอร์ นครสวรรค์",
        "phone": "081-036-9678"
    },
    {
        "about": "ลงเครื่องถ่ายเอกสาร เครื่องปริ้นเตอร์ให้ใช้ฟรี  เพียงสั่งซื้อหมึก",
        "description": "ขาย-เช่า-ซ่อม เครื่องใช้สำนักงาน เช่นเครื่องถ่ายเอกสารลงเครื่องไม่ค่าเช่ารายเดือนเพียงซื้อหมึก เครื่องเลเซอร์ให้ฟรีเพียงซื้อหมึก เครื่องเคลือบให้เช่ารายวัน เครื่องแฟกซ์ให้เช่ารายวัน",
        "emails": [
            "fahnong@yahoo.com"
        ],
        "id": "133238906810575",
        "location": {
            "city": "Chon Buri",
            "country": "Thailand"
        },
        "name": "Fa copy ขาย เช่า ซ่อมเครื่องถ่ายเอกสารเครื่องพริ้นท์",
        "phone": "038-146672  038-146544"
    },
    {
        "about": "เครื่องปรับอากาศภายในบ้าน ตู้เย็น ตู้แช่ และระบบไฟฟ้าภายในบ้านทุกชนิด",
        "emails": [
            "siam.air.service@gmail.com"
        ],
        "id": "797278380348244",
        "location": {
            "city": "Chon Buri",
            "country": "Thailand",
            "latitude": 13.01711304,
            "longitude": 100.978599954,
            "street": "เลขที1/24 ม.3 ถนน โรงโป๊ะเขาไม้แก้ว    ตำบล ตะเคียนเตี้ย  อำเภอ บางละมุง   จังหวัด ชลบุรี",
            "zip": "20150"
        },
        "name": "สยามแอร์ เซอร์วิส ติดตั้ง ซ่อม ย้าย ล้าง เครื่องปรับอากาศทุกยี่ห้อ",
        "phone": "098-3377780, 089-3377781,033-640399"
    },
    {
        "about": "รับซ่อมเครื่องเสียง อุปกรณ์ไฟฟ้าทุกชนิด",
        "description": "ซ่อมเครื่องเสียงกลางแจ้ง และอุปกรณ์ไฟฟ้าทุกชนิดโดยช่างชำนาญงานมากกว่า 20 ปี",
        "id": "362336773960138",
        "name": "สุพจน์เซอร์วิสพัทลุง ซ่อมเครื่องเสียงกลางแจ้ง"
    },
    {
        "about": "ซื้อขายเครื่องยนต์เล็กทุกชนิด",
        "id": "1077364252280009",
        "location": {
            "city": "Udon Thani",
            "country": "Thailand",
            "latitude": 17.39122,
            "longitude": 102.77796,
            "street": "111/2บ้านบงคำ ตำบลหนองบัว อำเภอเมือง จังหวัดอุดธานี 41000",
            "zip": "41000"
        },
        "name": "รับซ่อมชื้อขายเครื่องตัดหญ้าทุกชนิด อุดรธานี",
        "phone": "0828475114"
    },
    {
        "about": "บริการรับซ่อมและจำหน่ายอะไหล่เครื่องซักผ้า",
        "id": "365794336961700",
        "location": {
            "city": "Udon Thani",
            "country": "Thailand",
            "latitude": 17.4167,
            "longitude": 102.75,
            "street": "หน้ารพค่ายประจักษ์",
            "zip": "41000"
        },
        "name": "ร้าน NP รับซ่อมและจำหน่ายเครื่องซักผ้าอุดรธานี",
        "phone": "0810544144"
    },
    {
        "about": "บริการ  ซ่อม  ติดตั้ง  ล้าง  อะไหล่เครื่องปรับอากาศ  ห้องเย็น  ตู้แช่แข็ง  ตลอด  24 ชั่วโมง",
        "id": "297696443675968",
        "name": "ร้านแอร์เชียงใหม่ จำหน่าย ติดตั้ง ย้าย ล้าง ซ่อม เครื่องปรับอากาศ ทุกชนิด"
    },
    {
        "id": "384832225038051",
        "location": {
            "city": "Bangkok",
            "country": "Thailand",
            "latitude": 13.6696865,
            "longitude": 100.4108403,
            "street": "3/201พฤกษาวิลล่า53/2ซ.สะแกงาม14แขวงแสมดำ เตบางขุนเทียน",
            "zip": "10150"
        },
        "name": "ช่างอั๋น ซ่อมเครื่องดนตรี พันธ์ุทิพย์ประตูน้ำ",
        "phone": "0907900197"
    },
    {
        "about": "รับซ่อม changprayuth",
        "description": "บรืการ รับซ่อมเครื่องฉีดพลาสติก บริการด้วยใจ ซื้อตรง ไม่โกง ไม่เอาเปรียบ ให้คำแนะนำ สนใจติดต่อ-0811311721",
        "emails": [
            "pongjun111@gmail.com"
        ],
        "id": "1441058712822275",
        "location": {
            "city": "Bangkok",
            "country": "Thailand"
        },
        "name": "รับซ่อมเครื่องฉีดพลาสติก",
        "phone": "0811311721"
    },
    {
        "about": "รับปรึกษา ปัญหาตู้เย็น เครื่องซักผ้า",
        "description": "รับปรึกษา ปัญหา ตู้เย็นเครื่องซักผ้า",
        "id": "1662687190634016",
        "location": {
            "city": "Nakhon Phanom",
            "country": "Thailand",
            "latitude": 17.4,
            "longitude": 104.783,
            "street": "119 Renunakhon",
            "zip": "48170"
        },
        "name": "เรณูนคร ซ่อม ขาย - มือสอง ตู้เย็น เครื่องซักผ้า",
        "phone": "0872233683"
    },
    {
        "about": "บริการซ่อมเครื่องใช้ไฟฟ้า",
        "id": "473995866025334",
        "name": "ซ่อมเครื่องมือแพทย์"
    },
    {
        "about": "รับเชื่อม กลึง ซ่อมเครื่องเชื่อม",
        "emails": [
            "suriyon@siampart.com"
        ],
        "id": "1432876493693186",
        "location": {
            "city": "Amphoe Bang Kruai",
            "country": "Thailand",
            "latitude": 13.8239336,
            "longitude": 100.4406891,
            "street": "ถนนนครอินทร์ ซอยวัดบางไกรใน",
            "zip": "11130"
        },
        "name": "รับเชื่อม กลึง ซ่อมเครื่องเชื่อม ทุกชนิด",
        "phone": "0891939799"
    },
    {
        "id": "776763572450221",
        "location": {
            "city": "Amphoe Si Racha",
            "country": "Thailand",
            "latitude": 13.1667,
            "longitude": 100.933,
            "street": "ศรีราชา",
            "zip": "20110"
        },
        "name": "บริการซ่อมรถ นอกสถานที่ เปลี่ยน-ถ่ายน้ำมันเครื่องถูกๆ",
        "phone": "0896645634"
    },
    {
        "about": "ด",
        "id": "186229274877371",
        "location": {
            "city": "Bangkok",
            "country": "Thailand",
            "street": "111 / 575 หมู่ 1 ต.เสม็ด",
            "zip": "20000"
        },
        "name": "เครื่องถ่ายเอกสาร ให้เช่า ซ่อม ขาย ผงหมึกอะไหล่",
        "phone": "0810888269"
    },
    {
        "about": "รับซ่อมเครื่องใช้ไฟฟ้าทุกชนิด คอมพิวเตอร์ มอเตอร์ เครื่องซักผ้า ซ่อมไฟบ้าน อื่นๆ ฯลฯ",
        "id": "1572167749672822",
        "location": {
            "city": "ชลบุรี",
            "street": "ตำบลท่าบุญมี อำเภอเกาะจันทร์",
            "zip": "20240"
        },
        "name": "โต้ง อิเล็คทรอนิคส์ รับซ่อมเครื่องใช้ไฟฟ้าทุกชนิด"
    },
    {
        "about": "รับติดตั้ง  ซ่อม ล้างแอร์ ล้างเครื่องซักผ้า ซ่อมตู้เย็น บริการถึงบ้าน  กรุงเทพฯและปริมฑล ",
        "description": "บริการ ติดตั้ง ย้าย ซ่อม ล้างแอร์ ล้างเครื่องซักผ้า ซ่อมตู้เย็น โดยช่างผู้ชำนาญ ราคาเป็นกันเอง โทร 086-5644325 ติดต่อช่างโอ้ ",
        "emails": [
            "mesaair44@gmail.com"
        ],
        "id": "217355168454208",
        "location": {
            "city": "Bangkok",
            "country": "Thailand",
            "street": "20/412กำนันแม้น บางบอน",
            "zip": "10150"
        },
        "name": "บริการ  ติดตั้ง ซ่อม  ย้าย ล้างแอร์เครื่องซักผ้า ซ่อมตู้เย็น",
        "phone": "0856544325  024511139"
    },
    {
        "id": "978397128845709",
        "location": {
            "city": "Nonthaburi",
            "country": "Thailand",
            "latitude": 13.8611,
            "longitude": 100.513,
            "street": "80ม.5ต.บางกรวยอ.บางกรวยจ.นนทบุรี",
            "zip": "11130"
        },
        "name": "รับซ่อมเครื่องซักผ้าบริการถึงบ้าน",
        "phone": "0955248909"
    },
    {
        "about": "รับติดตัง ล้าง ซ่อม เครื่องปรับอากาศทุกชนิด",
        "description": "มงคลเซอร์วิส รับให้คำปรึกษาเรื่องเครื่องปรับอากาศ  ติดตั้ง ซ่อม ล้าง เครื่องปรับอากาศทุกชนิด รับเติมน้ำยาแอร์ ให้บริการจากช่างที่มีประสบการณ์",
        "emails": [
            "na_condition@hotmail.com"
        ],
        "id": "470385693051371",
        "location": {
            "city": "Samut Prakan",
            "country": "Thailand",
            "latitude": 13.6,
            "longitude": 100.6,
            "zip": "10270"
        },
        "name": "Mongkol survice ติดตั้ง ซ่อม ล้างเครื่องปรับอากาศ เติมน้ำยาแอร์ 0840123203",
        "phone": "0840123203"
    },
    {
        "id": "946450538726433",
        "name": "ประธานบริษัท (ร้านขายอะไหล่-รับซ่อมเครื่องใช้ไฟฟ้า)"
    },
    {
        "id": "907046486000532",
        "location": {
            "city": "Ayutthaya",
            "country": "Thailand",
            "latitude": 14.35,
            "longitude": 100.55,
            "street": "29/8 ถ.ท่าเรือ-ท่าลาน อ.ท่าเรือ จ.อยุธยา",
            "zip": "13130"
        },
        "name": "ปูเป้ก็อปปี้ เซอร์วิส ขาย/ให้เช่า/ซ่อมเครื่องถ่ายเอกสาร",
        "phone": "035-342323"
    }
]