[
    {
        "about": "รับซ่อม ซื้อขาย แลกเปลี่ยน เทิร์นเครื่องใช้ไฟฟ้า ",
        "id": "178892265622113",
        "location": {
            "city": "เมือง",
            "street": "6/31  ถนน พิชัยฯ",
            "zip": "18000"
        },
        "name": "รับซ่อมซื้อ-ขาย เครื่องใช้ไฟฟ้า",
        "phone": "0883301502"
    },
    {
        "about": "ซ่อมเครื่องใช้ไฟฟ้า เช่น ซ่อมเครื่องซักผ้า ตู้เย็น ทีวี คอมพิวเตอร์ แอร์รถยนต์",
        "description": "ซ่อมทีวี ซ่อมตู้เย็น ซ่อมเครื่องซักผ้า ซ่อมพัดลม ซ่อมเครื่องเสียง ซ่อมจักรเย็บผ้าไฟฟ้า\nซ่อมไมโครเวฟ ซ่อมกระติกน้ำร้อน ซ่อมหม้อหุงข้าวไฟฟ้า ซ่อมเครื่องทำกาแฟสด\nซ่อมคอมพิวเตอร์ ซ่อมโน๊คบุ๊ค ซ่อมพริ้นเตอร์ ซ่อมแท็บแล็ต\nซ่อมแอร์รถยนต์ ล้างแอร์รถยนต์ เติมน้ำยาแอร์รถยนต์ ซ่อมเครื่องเสียงรถยนต์\nและ ซ่อมเครื่องใช้ไฟฟ้า อื่นๆ",
        "emails": [
            "sale@itpathshop.com"
        ],
        "id": "309025142618542",
        "location": {
            "city": "Kalasin",
            "country": "Thailand",
            "latitude": 16.74082,
            "longitude": 103.32338,
            "street": "หนองกุงศรี",
            "zip": "46220"
        },
        "name": "ซ่อมเครื่องใช้ไฟฟ้า",
        "phone": "0866318313"
    },
    {
        "about": "รับซ่อมทีวี,ซ่อมตู้เย็น,ซ่อมแช่,ซ่อมเครื่องซักผ้า",
        "id": "324194154399579",
        "location": {
            "city": "Amphoe Kamphaeng Saen",
            "country": "Thailand",
            "latitude": 14.065911626801,
            "longitude": 100.01743912697,
            "street": "บ้านโคก,สระสี่มุม",
            "zip": "73140"
        },
        "name": "ร้านช่างโอ๊คซ่อมเครื่องใช้ไฟฟ้า",
        "phone": "087-8399566"
    },
    {
        "about": "รับซ่อมเครื่องใช้ไฟฟ้าทุกชนิด",
        "id": "1646702385564197",
        "location": {
            "city": "Khon Kaen",
            "country": "Thailand",
            "latitude": 16.4333,
            "longitude": 102.833,
            "street": "บ้านหนองคู ต.บ้านหว้า",
            "zip": "40000"
        },
        "name": "ซ่อมเครื่องใช้ไฟฟ้าขอนแก่น",
        "phone": "0803538511"
    },
    {
        "about": "ศูนย์บริการแต่งตั้งโดยบริษัท พานาโซนิค เอ. พี. เซลส์ (ประเทศไทย) จำกัด",
        "description": "บริการซ่อมเครื่องใช้ไฟฟ้าภายในครัวเรือนเช่น เครื่องปรับอากาศ ทีวี ตู้เย็น\nเครื่องซักผ้า ฯลฯ โดยทีมช่างที่มีประสบการณ์มากกว่า 20 ปี\nรับประกันงานซ่อมทุกชิ้น  \nโทร.0-2922-7296, 083-717-1963",
        "id": "277075212450797",
        "location": {
            "street": "68/22 ม.6ถ.บางกรวย-ไทรน้อย ต.บางบัวทอง อ.บางบัวทอง จ.นนทบุรี",
            "zip": "11110"
        },
        "name": "ซ่อม จำหน่ายอะไหล่เครื่องใช้ไฟฟ้า จำหน่ายเครื่องปรับอากาศพร้อมติดตั้ง",
        "phone": "โทร. 0-2903-6045, 083-717-1963 โทรสาร. 0-2903-6044"
    },
    {
        "about": "รับซ่อมจอ tv lcd-led",
        "id": "1476065106006393",
        "location": {
            "city": "Thai Chang",
            "country": "Thailand",
            "latitude": 8.45358,
            "longitude": 98.53896,
            "street": "37/63 ถ.สุวินทวงศ์7แยก5"
        },
        "name": "รับซ่อมทีวี lcd เครื่องใช้ไฟฟ้า",
        "phone": "0875197645"
    },
    {
        "id": "416263798556654",
        "location": {
            "city": "Lop Buri",
            "country": "Thailand",
            "latitude": 14.8,
            "longitude": 100.617,
            "street": "ลพบุรี",
            "zip": "15000"
        },
        "name": "ซ่อมเครื่องใช้ไฟฟ้าทุกชนิด",
        "phone": "0886171617"
    },
    {
        "about": "ร้าน ดี.เอส. แอร์ แอนด์ เซอร์วิส",
        "description": "ร้าน ดี.เอส. แอร์ แอนด์ เซอร์วิส\n\nบริการ\nซ่อมบำรุงจำหน่ายแอร์และเครื่องใช้ไฟฟ้า ทุกรุ่น รับซ่อมเครื่องใช้ไฟฟ้าทุกประเภท และ รับซ่อมคอมพิวเตอร์ และ ลงโปรแกรมราคาถูก\n\nล้างแอร์ 400 บาท\nเติมน้ำยาแอร์ 20 บาท/ปอน\nซ่อมคอมพิวเตอร์ทุกอาการ 350 บาท\n",
        "emails": [
            "sanya_2513@hotmail.com"
        ],
        "general_info": "เราทำงานกันเป็นทีม และมีความชำนาญการ เพราะเราคือครอบครัวช่างซ่อม ที่ไม่ธรรมดา คือเราให้บริการลูกค้าทุกท่านด้วยหัวใจและคิดเสมอว่าคุณคือครอบครัวของเรา",
        "id": "1384744811767049",
        "location": {
            "city": "อยุธยา",
            "street": "51/4 หมู่ 3 ม.เจษฏา6 ต.ลำไทร อ.วังน้อย",
            "zip": "13170"
        },
        "name": "รับซ่อมติดตั้งแอร์บ้าน เครื่องใช้ไฟฟ้าทุกยี่ห้อ",
        "phone": "0851202496"
    },
    {
        "about": "ซ่อมคอม ซ่อมโน้ตบุค ซ่อมปริ้นเตอร์ ราคาย่อมเยาว์",
        "description": "งานซ่อมคอม โน้ตบุค ปริ้้นเตอร์ เพาเวอร์ซัพพลาย มอนิเตอร์ จอ แรม การ์ดจอ ฮาร์ดิส ดีวีดีรอม และอีกมากมาย",
        "emails": [
            "kittipong5737@gmail.com"
        ],
        "general_info": "ซ่อมไม่ได้ไม่คิดตังค์",
        "id": "318229231693323",
        "location": {
            "city": "Amphoe Bang Lamung",
            "country": "Thailand",
            "latitude": 13.055399153302,
            "longitude": 100.96298217773,
            "street": "202/23 หมู่7 หมู่บ้านรุ่งเรืองทอง ต.ทุ่งกราด อ.บางละมุง จ.ชลบุรี",
            "zip": "20150"
        },
        "name": "ซ่อมคอมโน้ตบุ๊คไอโฟนไอแพดมือถือและเครื่องใช้ไฟฟ้า",
        "phone": "0890938326"
    },
    {
        "about": "ซ่อม-ขายเครื่องใช้ไฟฟ้ามือสอง",
        "id": "1396526577230588",
        "name": "ซ่อม-ขายเครื่องใช้ไฟฟ้า"
    },
    {
        "about": "ค่าแรงแล้วแต่จะกรุณา\nแต่ทุกบาท ทุกสตางค์ที่ให้มาเป็นทุนการศึกษาทั้งหมด",
        "description": "อุปกรณ์  เครื่องใช้ไฟฟ้า ชำรุดเสียหาย\nพอใช้งานได้ อยากซ่อม ปรับปรุงแก้ไขใช้งานได้\nเรียกงานผมได้คัฟ\n",
        "emails": [
            "nattapong_13-06@outlook.co.th"
        ],
        "id": "465930586849234",
        "location": {
            "city": "Udon Thani",
            "country": "Thailand",
            "latitude": 17.4167,
            "longitude": 102.75,
            "zip": "41000"
        },
        "name": "ซ่อมบำรุงอุปกรณ์ เครื่องใช้ไฟฟ้า",
        "phone": "0610321928"
    },
    {
        "emails": [
            "natservice@hotmail.co.th"
        ],
        "id": "272304599460807",
        "location": {
            "city": "Bangkok",
            "country": "Thailand",
            "latitude": 13.684645137569,
            "longitude": 100.61056320446,
            "street": "sukumvit",
            "zip": "10260"
        },
        "name": "Natserviceบริการซ่อมเครื่องใช้ไฟฟ้านอกสถานที่",
        "phone": "0858436437,085-9839558,02-7495593"
    },
    {
        "about": "รับงานนอกสถานที่ ราคาถูก",
        "id": "876729925732333",
        "location": {
            "city": "Phetchabun",
            "country": "Thailand",
            "latitude": 16.4252701,
            "longitude": 101.1285172,
            "street": "เพชรบูรณ์",
            "zip": "67300"
        },
        "name": "รับซ่อมคอมพิวเตอร์ ปริ้นเตอร์ เครื่องใช้ไฟฟ้า",
        "phone": "093-0399-350"
    },
    {
        "about": "รับซ่อมเครื่องนวดไฟฟ้า,เตียงปรับระดับไฟฟ้า,เก้าอี้นวดไฟฟ้าทุกรุ่นทุกยี่ห้อ",
        "id": "195413267290170",
        "name": "ซ่อมเครื่องนวดและเก้าอี้นวดไฟฟ้า"
    },
    {
        "about": "ให้คำปรึกษาเครื่องจานดาวเทียม แอร์บ้าน โทร 0859057134 , 0847232137  LINE ID tongyuenyong",
        "id": "1400613260161213",
        "location": {
            "city": "Selaphum",
            "country": "Thailand",
            "latitude": 16.01262,
            "longitude": 104.01179,
            "street": "7 หมู่ 12 บ้านมะหรี่ ต.ภูเงิน อ.เสลภูมิ จ.ร้อยเอ็ด",
            "zip": "45120"
        },
        "name": "โต้งดาวเทียม ซ่อมขายติดตั้ง จานดาวเทียม แอร์บ้าน  เครื่องใช้ไฟฟ้า",
        "phone": "0859057134"
    },
    {
        "about": "ทีมช่าง\n",
        "id": "1550326105254761",
        "location": {
            "city": "Amphoe Khukhan",
            "country": "Thailand",
            "latitude": 14.62129,
            "longitude": 104.15586,
            "street": "ร้านหมู่อิเล็กทรอนิกส์",
            "zip": "33140"
        },
        "name": "ศูนย์ซ่อมอุปกรณ์เครื่องใช้ไฟฟ้าทุกชนิด",
        "phone": "0844784134"
    },
    {
        "about": " Generator Parts and Accessories\nBase in Suratthani\nบริการซ่อม เครื่องกำเนิดไฟฟ้า เครื่องปั่นไฟ พร้อมอะไหล่ ตั้งที่ จ.สุราษ",
        "emails": [
            "m.chanat@hotmail.com"
        ],
        "id": "1556607377932522",
        "location": {
            "city": "Ban Na San",
            "country": "Thailand",
            "latitude": 8.8,
            "longitude": 99.3667,
            "street": "138/3",
            "zip": "84120"
        },
        "name": "ซ่อม อะไหล่ เครื่องกำเนิดไฟฟ้า เครื่องปั่นไฟ   Good Gen Part",
        "phone": "0840656214"
    },
    {
        "about": "ซ่อมคอมเครื่องซักผ้าปั๊มน้ำตู้เย็นทุกอย่างในบ้าน",
        "emails": [
            "fax_173@hotmail.com"
        ],
        "id": "187113131469825",
        "location": {
            "city": "Khonkean",
            "country": "Thailand",
            "latitude": 16.47889,
            "longitude": 102.82676,
            "street": "131/200 ชาตะ14 ตำบลในเมือง  อำเภอเมืองขอนแก่น",
            "zip": "40000"
        },
        "name": "ซ่อมคอมโน๊ตบุ๊คเครื่องซักผ้าตู้เย็นแอร์ปั๊มน้ำเครื่องใช้ไฟฟ้าทุกชนิด",
        "phone": "0900500086"
    },
    {
        "id": "218256284991093",
        "location": {
            "city": "Khonkean",
            "country": "Thailand",
            "street": "ซ.เทคโนภาค ถ.บ้านกอก อ.เมือง จ.ขอนแก่น",
            "zip": "40000"
        },
        "name": "ร้านซ่อมเครื่องใช้ไฟฟ้า ภิสิทธิ์อิเล็กทรอนิกส์ 99",
        "phone": "082-3313371"
    },
    {
        "about": "ให้บริการรับซ่อมเครื่องซักผ้า ตู้เย็น เครื่องปีรับอากาศ จำหน่ายอะไหล่และสินค้ามือสอง",
        "id": "486655741497065",
        "location": {
            "city": "Samut Prakan",
            "country": "Thailand",
            "latitude": 13.6,
            "longitude": 100.6,
            "street": "199/1171 หมู่ที่ 3 หมู่บ้านพฤกษา15 ถ.บางพลี-ตำหรุ ต.แพรกษาใหม่",
            "zip": "10280"
        },
        "name": "ช่างเจษฎาพฤกษา15 รับซ่อมเครื่องใช้ไฟฟ้าและจำหน่ายอะไหล่มือสองของแท้",
        "phone": "0816364955"
    },
    {
        "id": "1609980079250767",
        "location": {
            "city": "Bangkok Noi",
            "country": "Thailand",
            "latitude": 13.75,
            "longitude": 100.483,
            "street": "บ้านหม้อ",
            "zip": "10700"
        },
        "name": "ช่างป๋อง ซ่อมอุปกรณ์เครื่องใช้ไฟฟ้าทุกชนิด+ติดตั้งเครื่องเสียงรถยนต์",
        "phone": "0926698202"
    },
    {
        "id": "768931579882336",
        "location": {
            "city": "ชลบุรี",
            "street": "123/56 ม 3 ต.บ้านสวน อ. เมืองชลบุรี",
            "zip": "20000"
        },
        "name": "ซ่อมเครื่องใช้ไฟฟ้าเสียบปลั๊กทุกชนิด ติดต่อสอบถามได้นะครับ",
        "phone": "0802587028"
    },
    {
        "about": "รับซ่อม เครื่องใช้ไฟฟ้า ทุกชนิด และ จำหน่ายดอกไม้สด ดอกไม้แห้ง 9ล9\n",
        "description": "ช่างสมบูรณ์ รับซ่อมอิเล็กทรอนิกส์ และ เครื่องใช้ไฟฟ้าทุกชนิด",
        "id": "199031640294438",
        "name": "ช่างสมบูรณ์ รับซ่อมอิเล็กทรอนิกส์ และ เครื่องใช้ไฟฟ้าทุกชนิด"
    },
    {
        "about": "บริการซ่อม ติดตั้งแอร์ เครื่องใช้ไฟฟ้าทุกชนิด",
        "description": "[s] การช่าง บริการซ่อม ติดตั้งแอร์ ล้างแอร์ เครื่องใช้ไฟฟ้าทุกชนิด วางระบบไฟ ภายในบ้านและอาคาร\n\n37/1 วัดโพธิวราราม ถ.ประชารังสรรค์ ต.หมากแข้ง อ.เมือง \nจ.อุดรธานี 41000 หลัง ร.พ เอกอุดร\n\nโทร.042-341881,084-7930021 ช่าง สง่า.",
        "emails": [
            "happyengineering@hotmail.com"
        ],
        "id": "420278524703768",
        "location": {
            "city": "Udon Thani",
            "country": "Thailand",
            "latitude": 17.4167,
            "longitude": 102.74998927116,
            "zip": "41000"
        },
        "name": "[s] การช่าง บริการซ่อม ติดตั้งแอร์ เครื่องใช้ไฟฟ้าทุกชนิด",
        "phone": "042-341881 084-7930021"
    },
    {
        "about": "Tell: 0933876509 หรือ Line : sujitradesson\nรับซ่อมอุปกรณ์อิเล็กทรอนิกส์ แผงวงจรทุกชนิด \nเช่น UPS, Fanuc Part, CNC Board, Inverter ฯลฯ\n\n\n",
        "description": "Tell: 0933876509 หรือ Line : sujitradesson\nรับซ่อมอุปกรณ์อิเล็กทรอนิกส์ แผงวงจรทุกชนิด \nเช่น UPS, Fanuc Part, CNC Board, Inverter, Temperature, Touch Screen, Computer อุตสาหกรรม, Touch Panel, Servo drive, Power Supply ฯลฯ\nซ่อมไม่ได้ไม่คิดเงิน รับประกันงานซ่อม 6 เดือน \nทุกรุ่น ทุกยี่ห้อ นอกเหนือที่ได้แสดงรายละเอียดไว้\nwww.sixengineer.com\nสอบถามได้ที่ 0933876509 หรือ sujitra_desson@hotmail.com, Line ID=sujitradesson",
        "emails": [
            "sujitra_desson@hotmail.com"
        ],
        "id": "1621520221453427",
        "location": {
            "city": "Bangkok",
            "country": "Thailand",
            "latitude": 13.82015,
            "longitude": 100.72079,
            "street": "มีนบุรี"
        },
        "name": "ศูนย์ซ่อม UPS เครื่องสำรองไฟฟ้า และแผงวงจรอิเล็คทรอริกส์ทุกชนิด",
        "phone": "0933876509"
    }
]