[
    {
        "about": "หาช่างปูกระเบื้อง ช่างรับเหมา ช่างไฟฟ้า น้ำประปา โทร0869126463,line:beau9791",
        "id": "370515503136748",
        "name": "หาช่างปูกระเบื้อง ช่างรับเหมา ช่างรื้อถอน ไฟฟ้า น้ำประปาเชียงใหม่"
    },
    {
        "id": "1599017097052597",
        "location": {
            "city": "Ratchaburi",
            "country": "Thailand",
            "latitude": 13.5047197,
            "longitude": 99.7939072,
            "street": "ราชบุรี",
            "zip": "70000"
        },
        "name": "รับรื้อถอนสิ่งปลูกสร้าง  รับตัดคอนกรีตทุกรูปแบบฯลฯ  โดยช่างมีประสบการ",
        "phone": "0888155517"
    },
    {
        "id": "591187637694055",
        "name": "รับตอกเข็ม รับรื้อถอน ซื้อบ้านไม้0860016718 ช่างวิเชียร"
    },
    {
        "id": "808160002612923",
        "location": {
            "city": "Sansai",
            "country": "Thailand",
            "latitude": 18.749101638794,
            "longitude": 99.033836364746
        },
        "name": "หจก.ลำพูนสหช่าง - รับทุบ รื้อถอน"
    },
    {
        "id": "653902874719752",
        "location": {
            "city": "Chiang Mai",
            "country": "Thailand",
            "latitude": 18.78988,
            "longitude": 98.93018,
            "street": "56/9 ถ.สุเทพ ซ.สนามบินเก่า ม.คุ้มครพิงค์",
            "zip": "50200"
        },
        "name": "ช่างมด รับติดตั้ง งานระบบ ท่อน้ำปะปา ไฟฟ้า กันซึ่ม รือถอน ต่อเติม เหล็ก",
        "phone": "0826112591"
    }
]