[
    {
        "id": "449042025252625",
        "location": {
            "city": "Kamphaeng Phet",
            "country": "Thailand",
            "latitude": 16.4667,
            "longitude": 99.5
        },
        "name": "Jazz สีเทา มีสติชติดเสาอากาศ"
    },
    {
        "about": "ตุ๊กตาติดเสาอากาศรถยนต์ น่ารัก ๆ สำหรับติดเสาอากาศรถยนต์",
        "description": "ตุ๊กตาติดเสาอากาศรถยนต์ น่ารัก ๆ สำหรับติดเสาอากาศรถยนต์",
        "general_info": "ตุ๊กตาติดเสาอากาศรถยนต์ น่ารัก ๆ สำหรับติดเสาอากาศรถยนต์",
        "id": "138086046369583",
        "location": {
            "city": "Bangkok",
            "country": "Thailand",
            "latitude": 17.46773,
            "longitude": 103.40662,
            "street": "ตุ๊กตาติดเสาอากาศรถยนต์",
            "zip": "47110"
        },
        "name": "ตุ๊กตาติดเสาอากาศรถยนต์"
    },
    {
        "about": "บริการติดตั้งระบบ Digital TV ทั้งระบบเสาอากาศเเละดาวเทียม \n\nโดยทีมงานมืออาชีพ",
        "emails": [
            "ulovetv@gmail.com"
        ],
        "id": "1374786856128733",
        "location": {
            "city": "Bangkok",
            "country": "Thailand",
            "latitude": 13.8030796,
            "longitude": 100.8133087,
            "street": "444/47 PATAGONIA Leab Klongsong Rd. BangChan Khlong Samwa, Bangkok",
            "zip": "10510"
        },
        "name": "ช่างรับติดตั้งและวางระบบ Digital TV กล่องดิจิตอลทีวี เสาอากาศ By ช่างเเมว",
        "phone": "0841442985"
    },
    {
        "description": "ถูกจริง ส่งจริง รีวิวจริง แถมจิง",
        "emails": [
            "bollza057@hotmail.com"
        ],
        "id": "178313579027847",
        "location": {
            "city": "Surin",
            "country": "Thailand",
            "latitude": 9.50112,
            "longitude": 100.00149,
            "street": "samui",
            "zip": "84140"
        },
        "name": "ลูกบอลการ์ตูนแท้ ตุ๊กตาติดเสาอากาศ เสียบเสาอากาศรถ เกรดA logoแต่งรถ",
        "phone": "0819709880"
    },
    {
        "description": "เสาสั้นยี่ห้อ Universal ทำจาก อลูมิเนียมอัลลอยแท้ ตัดกับ คาร์บอนไฟเบอรื มี 2 ขนาด แบบ 3\" และแบบ 5 นิ้ว มีให้เลือก 5 สี ได้แก่ สีดำ สีขาว สีเทา สีแดง และสีน้ำเงิน ในกล่องมาหร้อม Adapter จำนวน 4 ตัว จึงสามารถใส่ได้กับรถทุกรุ่น \n\n.....รับประกัน 1 ปี \n.....สินค้าจัดส่งฟรี \n.....จำหน่ายทั้งปลีกและส่ง",
        "id": "439498336116981",
        "name": "Car Antenna เสาอากาศสั้น ติดรถยนต์"
    },
    {
        "about": "จำหน่ายตุ๊กตาเสียบเสาอากาศรถยนต์\nLine : trendy-me\ninbox:facebook",
        "description": "นำเข้าและจำหน่ายตุ๊กตาเสียบเสาอากาศรถยนต์  ขายปลีกและขายส่ง มีหลายแบบให้เลือกทั้งแบบการ์ตูน ลูกบอล มีทั้งแบบเสาเล็ก เสาใหญ่ ",
        "id": "312899542231335",
        "name": "ตุ๊กตาติดเสาอากาศรถยนต์ Trendy-car.com"
    },
    {
        "about": "https://www.facebook.com/CarAccessoriers",
        "description": "ตุ๊กตาติดเสาอากาศรถยนต์ /สติ๊กเกอร์สูญญากาศติด พ.ร.บ. /กรมธรรม์\n/เสาอากาศสั้น/กรอบป้ายทะเบียน",
        "id": "550022921732034",
        "name": "ตุ๊กตาติดเสาอากาศรถยนต์ สติ๊กเกอร์สูญญากาศ"
    },
    {
        "about": "ติดต่อได้ตลอดเวลาครับ 084-078-1978...086-030-5044",
        "id": "629388730515995",
        "location": {
            "city": "Bangkok",
            "country": "Thailand",
            "zip": "10160"
        },
        "name": "ช่างติดตั้งเสาอากาศทีวีดิจิตอล กล้องวงจรปิดจานดาวเทียมพีเอสไอ",
        "phone": "086-030-5044"
    }
]