[
    {
        "id": "1429026467336215",
        "location": {
            "city": "Ban Kok",
            "country": "Thailand",
            "latitude": 15.5716842,
            "longitude": 101.8516353
        },
        "name": "ร้านทำเหล็กดัดหมา หมา"
    },
    {
        "id": "1445458589044330",
        "location": {
            "city": "Si Racha",
            "country": "Thailand",
            "latitude": 13.0888484,
            "longitude": 100.9449796,
            "zip": "20230"
        },
        "name": "ร้านสกายเหล็กดัด ที่ทำงานที่มีแต่ความสุข"
    },
    {
        "id": "1447696115525527",
        "location": {
            "city": "Ang Thong",
            "country": "Thailand",
            "latitude": 14.5833,
            "longitude": 100.45
        },
        "name": "ร้าน พี่นวยช่างเชื่อม ทำเหล็กดัดทุกชนิด"
    },
    {
        "id": "1454995448062691",
        "location": {
            "city": "Prachuap Khiri Khan",
            "country": "Thailand",
            "latitude": 11.802943046216,
            "longitude": 99.78769283751
        },
        "name": "ร้านทำเหล็กดัด"
    },
    {
        "id": "1466131467014109",
        "location": {
            "city": "Nonthaburi",
            "country": "Thailand",
            "latitude": 13.852603,
            "longitude": 100.4957504,
            "street": "467/20 ตลาดบางบัวทอง",
            "zip": "11110"
        },
        "name": "รับทำเหล็กดัดมุ้งลวด โครงหลังคากันสาด ประตูบานเลือน",
        "phone": "0973403074"
    },
    {
        "id": "1482314938716336",
        "location": {
            "city": "Nakhon Ratchasima",
            "country": "Thailand",
            "latitude": 14.9573765,
            "longitude": 102.0418701,
            "street": "หนองบัวศาลา หัวทะเล",
            "zip": "30000"
        },
        "name": "รับเหมาทำ อลูมิเนียม, ฝ้าภายใน ภายนอก และเหล็กดัด",
        "phone": "094-291-4645"
    },
    {
        "id": "1483612781886516",
        "location": {
            "city": "Bangkok",
            "country": "Thailand",
            "latitude": 13.983896546091,
            "longitude": 100.62569461864
        },
        "name": "ตรีเทพ - ทำเหล็กดัด"
    },
    {
        "id": "1517654128488283",
        "location": {
            "city": "Plaeng Yao",
            "country": "Thailand",
            "latitude": 13.58436,
            "longitude": 101.28385,
            "street": "บ้านพี่ ช่างเองรับทำเหล็กดัด-มุ้งลวด"
        },
        "name": "เนินหิน",
        "phone": "0801031379"
    },
    {
        "id": "1522180331390558",
        "location": {
            "city": "Mae Klong",
            "country": "Thailand",
            "latitude": 13.4154016,
            "longitude": 99.9978016
        },
        "name": "ร้านเส็งศิลป์ทำแบะเหล็กดัด"
    },
    {
        "id": "1529021870662691",
        "location": {
            "city": "Amphoe Hua Hin",
            "country": "Thailand",
            "latitude": 12.57048,
            "longitude": 99.95784,
            "street": "12/113หมู่บ้านเขาน้อย ซ.7 ถ.หัวหิน-หนองพลับ11",
            "zip": "7710"
        },
        "name": "ร้านนิยมการช่างรับทำเหล็กดัด รางน้ำ",
        "phone": "0877609952 "
    },
    {
        "id": "1590150961245523",
        "location": {
            "city": "Chon Buri",
            "country": "Thailand",
            "latitude": 13.3667,
            "longitude": 100.983,
            "street": "111",
            "zip": "20140"
        },
        "name": "รับทำเหล็กดัด มุ้งลวด ทุกชนิดค่ะ",
        "phone": "0920870912"
    },
    {
        "id": "1607398039508001",
        "location": {
            "city": "Nakhon Phanom",
            "country": "Thailand",
            "latitude": 17.4,
            "longitude": 104.783,
            "street": "112 ม11 บ้านห้อม",
            "zip": "48000"
        },
        "name": "รับทำประตูรั้วเหล็กดัด",
        "phone": "0982034795"
    },
    {
        "id": "1614978928727137",
        "location": {
            "city": "Bangkok",
            "country": "Thailand",
            "latitude": 13.5802735,
            "longitude": 100.8575849
        },
        "name": "ร้านสมศักดิ์การช่างรับทำเหล็กดัด โคลงหลังคา รับเหมาก่อสร้าง_ต่อเติม",
        "phone": "0809777430"
    },
    {
        "id": "1654364064792319",
        "location": {
            "city": "ตากฟ้า",
            "latitude": 15.362491847803,
            "longitude": 100.50204999153,
            "street": "ซ.เขาหมีพัฒนา2  ต.สุขสำราญ  อ.ตากฟ้า  จ.นครสวรรค์"
        },
        "name": "ช่างพัฒ   รับทำงานเหล็กดัด,และงาตสแตนเลส, ประตูม้วน",
        "phone": "0911469476"
    },
    {
        "about": "รับทำมุ้งลวด เหล็กดัด กันสาด ผ้าใบ ประตูรั้ว ประตู บานเกร็ด สแตนเลท อะลูมิเนียม",
        "id": "1677029079201436",
        "location": {
            "city": "Samut Prakan",
            "country": "Thailand",
            "latitude": 13.6,
            "longitude": 100.6,
            "street": "262/11ม.1 ต.ปากคลองฯอ.พระสมุทรเจดีย์",
            "zip": "10130"
        },
        "name": "รับทำ มุ้งลวด เหล็กดัด ประตูบ้าน กันสาด",
        "phone": "0819872838"
    },
    {
        "id": "359707447521166",
        "location": {
            "city": "Chonburi",
            "country": "Thailand",
            "latitude": 13.36211,
            "longitude": 100.98371,
            "street": "แยกคีรีซอย1"
        },
        "name": "อภิชัยการช่าง รับทำเหล็กดัด สีอบ มุ่งลวด /ชลบุรี ศีรี ซอย 1",
        "phone": "0822585374"
    },
    {
        "id": "1489250328033589",
        "location": {
            "city": "Bangkok",
            "country": "Thailand",
            "latitude": 13.7333097,
            "longitude": 100.5727081,
            "street": "1085/6 ถ. สุขุมวิท 71 ข้างสะพานคลองตัน",
            "zip": "10110"
        },
        "name": "รับเหมาต่อเติมบ้าน ทำเหล็กดัด โครงหลังคา มุ้งลวด - ย่านสุขมวิท",
        "phone": "0855609485"
    },
    {
        "id": "113538422316995",
        "location": {
            "city": "Chonburi",
            "country": "Thailand",
            "latitude": 13.298245611499,
            "longitude": 100.93959909097,
            "street": "ถนนข้าวหลาม"
        },
        "name": "กำลังทำงานอยู่ร้านเหล็กดัดชื่อดังย่านบางแสนร้านตี๋การช่าง"
    },
    {
        "id": "121007541312557",
        "location": {
            "city": "Chachoengsao",
            "country": "Thailand",
            "latitude": 13.664939751377,
            "longitude": 101.0927486724
        },
        "name": "ร้านทำประตูม้วนและเหล็กดัด"
    },
    {
        "id": "152975174858454",
        "location": {
            "city": "Bangkok",
            "country": "Thailand",
            "latitude": 13.684860265461,
            "longitude": 100.4400238037,
            "zip": "10150"
        },
        "name": "บ้านไอ้เหี้ยตี๋ผู้ที่เหล็กดัดฟันทำอะไรกับเขาไม่ได้"
    },
    {
        "id": "200264706793765",
        "location": {
            "city": "Phak Hai",
            "country": "Thailand",
            "latitude": 14.457667674883,
            "longitude": 100.37031092224
        },
        "name": "ร้าน Halee รับทำมุ้งลวด เหล็กดัด สเตนเลส กระจก อลูมิเนียม"
    },
    {
        "id": "201362953378309",
        "location": {
            "city": "วิเศษ",
            "latitude": 14.55706259145,
            "longitude": 100.23384317762,
            "street": "ม2. สาวร้องไห้"
        },
        "name": "ร้านประดิษฐ์ การช่าง ทำเหล็กดัด เลส",
        "phone": "0855154551"
    },
    {
        "id": "237818833037190",
        "location": {
            "city": "Bangkok",
            "country": "Thailand",
            "latitude": 13.83951,
            "longitude": 100.5951614,
            "street": "ลาดปลาเค้า22",
            "zip": "10230"
        },
        "name": "ร้านทำเหล็กดัด - ลาดปลาเค้า22"
    },
    {
        "id": "313962065423034",
        "location": {
            "city": "Khun Khlon",
            "country": "Thailand",
            "latitude": 14.708691132269,
            "longitude": 100.83758069212
        },
        "name": "ร้านหลุย รับทำเหล็กดัด"
    },
    {
        "id": "740299182715580",
        "location": {
            "city": "Bangkok",
            "country": "Thailand",
            "latitude": 13.75395,
            "longitude": 100.50224,
            "street": "รับทำเหล็กดัด มุ้งลวด  กระจก อลูมิเนียม  รับประกันงานคุณภาพสินค้าทุกชิ้นค่ะ"
        },
        "name": "ดีไลท์ วงแหวน-ลำลูกกา",
        "phone": "0860646056"
    }
]