[
    {
        "id": "623035837730040",
        "location": {
            "latitude": 6.634335,
            "longitude": 101.01826,
            "street": "ระไมล์"
        },
        "name": "ช่างกร ระไมล์ รับทำประตูเหล็กดัดกันสาดและงานเหล็กทุกชนิด"
    },
    {
        "id": "596818637078677",
        "location": {
            "city": "Amphoe Muang Khon Kaen",
            "country": "Thailand",
            "latitude": 16.44221,
            "longitude": 102.8362,
            "street": "บ้านตูมน้อย"
        },
        "name": "มนตรีการช่าง รับทำเหล็กดัด ต่อเติมบ้านและอาคาร"
    },
    {
        "id": "360761064082332",
        "location": {
            "city": "Kanchanaburi",
            "country": "Thailand",
            "latitude": 14.0008229,
            "longitude": 99.555036
        },
        "name": "ร้านแกรนมุ้งลวดเหล็กดัดถ.แสงชูโตต.ท่าล้อ"
    },
    {
        "id": "421854834659364",
        "location": {
            "city": "Kui Buri",
            "country": "Thailand",
            "latitude": 12.072350023032,
            "longitude": 99.859521389008
        },
        "name": "บ้านที่ มีลูกสาวคนเดียวหน้าตาดี ใส่เหล็กดัดฟัน มีคุณแม่ใส่แว่นตา ทำหน้าดุดุ"
    },
    {
        "id": "418651584959104",
        "location": {
            "city": "Bangkok",
            "country": "Thailand",
            "latitude": 14.056878041309,
            "longitude": 100.66590070724
        },
        "name": "ช่างอ้วน 086-0646056 รับทำเหล็กดัด มุ้งลวด ม.พาลาซเซตโต้ คลองสาม คลองหลวง",
        "phone": "0860646056"
    },
    {
        "id": "384710981730463",
        "location": {
            "city": "Samut Prakan",
            "country": "Thailand",
            "latitude": 13.6,
            "longitude": 100.6,
            "street": "727ม.2ตำบลแพรกษา",
            "zip": "10280"
        },
        "name": "ร้านบอสการช่าง รับทำเหล็กดัดมุ้งลวดและต่อเติมครบวงจร",
        "phone": "0910173220"
    },
    {
        "id": "369778023125493",
        "location": {
            "city": "Nakhon Chai Si",
            "country": "Thailand",
            "latitude": 13.792,
            "longitude": 100.197725,
            "street": "Thetsaban 1",
            "zip": "73120"
        },
        "name": "ที่ทำงานเหล็กดัดผู้ใหญ่เต้"
    },
    {
        "id": "365934996927855",
        "location": {
            "city": "Ban Patong",
            "country": "Thailand",
            "latitude": 7.8824603,
            "longitude": 98.2970334
        },
        "name": "ร้านอาหารฝรั่งเปิดใหม่ที่มีแม่ครัวสวยๆใส่เหล็กดัดฟันทำอาหารยุ่ในครัว"
    },
    {
        "about": "รับทำ/เปลี่ยนมุ้งลวด ทั้งประตูหน้าต่าง ทำโครงหลังคาเหล็ก ทรงไทยเหล็ก",
        "id": "769455579813572",
        "location": {
            "city": "Amphoe Phra Nakhon Si Ayutthaya",
            "country": "Thailand",
            "latitude": 14.47761,
            "longitude": 100.54757,
            "street": "9 หมู่ 2 ต.โพธิ์สามต้น อ.บางปะหัน จ.พระนครศรีอยุธยา",
            "zip": "13220"
        },
        "name": "รับทำ/เปลี่ยน มุ้งลวด - เหล็กดัด",
        "phone": "089-0875740"
    },
    {
        "id": "1548182248777982",
        "location": {
            "city": "Amphoe Phanat Nikhom",
            "country": "Thailand",
            "latitude": 13.45,
            "longitude": 101.183,
            "street": "175",
            "zip": "20140"
        },
        "name": "รับทำ เหล็กดัด งานเหล็ก ทุกชนิด",
        "phone": "0851537818"
    },
    {
        "about": "รับติดตั้ง กระจก อลูมิเนียม มุ้งลวด เหล็กดัด งานสแตนเลส\nโทร. 084-6222962 , 096-0366229 (ทุ่ง)",
        "id": "1459139671023795",
        "location": {
            "city": "Muang Phitsanulok",
            "country": "Thailand",
            "latitude": 16.83441,
            "longitude": 100.31658,
            "street": "ถ.จ่าการบุญ",
            "zip": "65000"
        },
        "name": "รับทำกระจก-อลูมิเนียม มุ้งลวด เหล็กดัด",
        "phone": "0846222962"
    },
    {
        "about": "รับทำกันสาดและเหล็กดัด งานไม้ งานเหล็ก งานปูน โดยช่างฝีมือดี ราคาไม่แพงครับ",
        "id": "831132693621523",
        "location": {
            "city": "Bangkok",
            "country": "Thailand",
            "latitude": 13.8030796,
            "longitude": 100.8133087,
            "street": "บางเขน"
        },
        "name": "รับทำเหล็กดัด กันสาด งานเหล็ก งานไม้ งานปูน",
        "phone": "0968917112"
    },
    {
        "about": "รับทำ ประตูเหล็ก สแตนเลส เหล็กดัด กันสาด  เเละงานเหล็กทุกชนิด",
        "id": "1456552371311224",
        "location": {
            "city": "Loei",
            "country": "Thailand",
            "latitude": 17.4833,
            "longitude": 101.717,
            "street": "134/16 ต.โคกขมิ้น อ.วังสะพุง จ.เลย",
            "zip": "42130"
        },
        "name": "รับทำ ประตูเหล็ก สแตนเลส เหล็กดัด",
        "phone": "0621787168"
    },
    {
        "id": "1472444479723919",
        "location": {
            "city": "Saraburi",
            "country": "Thailand",
            "latitude": 14.5333,
            "longitude": 100.917,
            "street": "80/6",
            "zip": "18140"
        },
        "name": "รับทำ เหล็กดัด มุ้งลวด กันสาด ประตูม้วน และงานเหล็กทุกชนิด",
        "phone": "0614713899"
    },
    {
        "about": "รับทำงานสเตนเลส เหล็กดัด มุ้งลวด ประตูยืด ทุกชนิด ทั่วประเทศไทย ราคากันเอง",
        "id": "482690625203897",
        "location": {
            "city": "Nakhon Ratchasima",
            "country": "Thailand",
            "latitude": 15.20741,
            "longitude": 102.25007,
            "street": "26 ดอนแต้ว ต.โนนสูง อ.โนนสูง จ.นครราชสีมา",
            "zip": "30160"
        },
        "name": "รับทำงานสเตนเลส เหล็กดัด มุ้งลวด ประตูยืด ราคากันเอง",
        "phone": "0860799637"
    },
    {
        "id": "1593364530939140",
        "location": {
            "city": "Nonthaburi",
            "country": "Thailand",
            "latitude": 13.8700933,
            "longitude": 100.5095749,
            "street": "1/6  หมู่  8  ตำบลเสาธงหิน   อำเภอบางใหญ่   จังหวัดนนทบุรี",
            "zip": "11140"
        },
        "name": "ร้านพรเจริญทรัพย์การช่างรับทำเหล็กดัด",
        "phone": "0825642045"
    },
    {
        "id": "1119966121364060",
        "location": {
            "city": "Ubon Ratchathani",
            "country": "Thailand",
            "latitude": 15.2281,
            "longitude": 104.859,
            "street": "118 ม.11 ต.นาส่วง อ.เดชอุดม",
            "zip": "34160"
        },
        "name": "รับทำเหล็กดัด,ประตูม้วน,โครงหลังคา,รุ่งเรืองการช่าง - ช่างหนุ่ย",
        "phone": "0833659965"
    },
    {
        "id": "1476878859274412",
        "location": {
            "city": "Pattaya",
            "country": "Thailand",
            "latitude": 12.9333,
            "longitude": 100.883,
            "street": "พัทยา",
            "zip": "20150"
        },
        "name": "อภิวัฒน์การช่าง  รับทำเหล็กดัด  โคงหลังคา  ประตูม้วน และงานเหล็กทุกชนิด",
        "phone": "0995419638"
    }
]