[
    {
        "about": "รับติดมุ้งลวดเหล็กดัด",
        "id": "823215131106920",
        "location": {
            "city": "Bangkok",
            "country": "Thailand",
            "latitude": 13.7522,
            "longitude": 100.494,
            "street": "52  ม.7 ต.บางหลวง อ. เมือง จ. ปทุมธานี",
            "zip": "12000"
        },
        "name": "รับทำมุ้งลวดเหล็กดัดและเหล็กทุกชนิด",
        "phone": "0815653207"
    },
    {
        "id": "1528791700716221",
        "name": "ร้านช่างติ๊กเหล็กตัด pg คอนทรัคชั่น รับทำเหล็กดัดโครงหลังคาทุกชนิด หนองพลับ"
    },
    {
        "id": "318202224958373",
        "name": "รับทำ มุ้งลวดเหล็กดัด ทุกชนิด"
    },
    {
        "id": "329560703898430",
        "location": {
            "city": "Samut Prakan",
            "country": "Thailand",
            "latitude": 13.593845,
            "longitude": 100.59813,
            "street": "สมุทรปราการ",
            "zip": "10210"
        },
        "name": "รับทำสแตนเลส เหล็กดัด ต่อเติมบ้าน คุณเบิร์ด การรช่าง",
        "phone": "0988807332"
    },
    {
        "id": "583436478460148",
        "location": {
            "city": "Amphoe Lam Luk Ka",
            "country": "Thailand",
            "latitude": 13.9333,
            "longitude": 100.75,
            "street": "401/81 ม.3 ต.คูคต อ.ลำลูกกา จ.ปทุมธานี",
            "zip": "12130"
        },
        "name": "ร้าน รับทำเหล็กดัดมุ้งลวด งานเหล็กทุกชนิด ช่างแต้ม",
        "phone": "0870090879"
    },
    {
        "id": "819307778183682",
        "location": {
            "city": "Amphoe Bang Ban",
            "country": "Thailand",
            "latitude": 14.3694696,
            "longitude": 100.5261993,
            "street": "17/1 ม.4 ต.บ้านกุ่ม อ.บางบาล จ.พระนครศรีอยุธยา",
            "zip": "13250"
        },
        "name": "รับทำเหล็กดัด มุ้งลวด",
        "phone": "0895396707"
    },
    {
        "about": "รับทำงานเหล็กดัด โครงหลังคา รั้วประตู ราวกันตก ราวบันได  0903878002",
        "id": "1011412462224761",
        "name": "รับทำเหล็กดัด โดยช่างรัตน์",
        "phone": "0903878002"
    },
    {
        "about": "รับทำกระจกเหล็กดัดและอลูมิเนียมทุกชนิด",
        "id": "809656682437643",
        "name": "ร้านรุ่งเรืองอลูมิเนียม รับทำกระจกเหล็กดัดและอลูมิเนียมทุกชนิด"
    },
    {
        "id": "683428731767629",
        "name": "กันสาด ลำปาง Tel. 083-2060360 รับทำกันสาด ต่อเติมบ้าน หลังคา เหล็กดัด ลำปาง"
    },
    {
        "about": "ราคากันน่ะคับเข้ามาคุยกันก่อนได่น่ะคับ",
        "id": "117415695272320",
        "location": {
            "city": "Pathum Thani",
            "country": "Thailand",
            "latitude": 14.0167,
            "longitude": 100.533,
            "street": "คลอง4ลำลูกกา",
            "zip": "12130"
        },
        "name": "รับทำเหล็กดัดและโครงหลังคา - ราคากันเอง",
        "phone": "0813048784"
    },
    {
        "id": "762367273829512",
        "location": {
            "city": "Ratchaburi",
            "country": "Thailand",
            "latitude": 13.5047197,
            "longitude": 99.7939072,
            "street": "จังหวัดราชบุรี",
            "zip": "70000"
        },
        "name": "รับทำเหล็กดัดและงานทาสีบ้านในจังหวัดราชบุรี",
        "phone": "0985573099"
    },
    {
        "id": "1616214401923493",
        "location": {
            "city": "Sa Kaeo",
            "country": "Thailand",
            "latitude": 13.8167,
            "longitude": 102.067,
            "street": "55หมู่12ต.สระขวัญ อ.เมือง จ.สระแก้ว บ้านทุ่หินโคน",
            "zip": "27000"
        },
        "name": "อ้น การช่าง รับทำเหล็กดัด",
        "phone": "0925166613  0871156255"
    },
    {
        "id": "1636001286652879",
        "location": {
            "city": "Nakhon Ratchasima",
            "country": "Thailand",
            "latitude": 14.9596004,
            "longitude": 102.0606308,
            "street": "401 หมู่4 .โคกกรวด อเมือง",
            "zip": "30280"
        },
        "name": "รับทำเหล็กดัด ประตู มุ้งลวด ต่อเติมโครงเหล็ก โรงรถ",
        "phone": "0819763972"
    },
    {
        "id": "1707238412832954",
        "name": "รับเหมาทำเหล็กดัด ประตู หลังคา"
    },
    {
        "about": "ร้านบอสการช่าง รับทำเหล็กดัดมุ้งลวด ต่อเติมครบวงจร\n",
        "id": "824226527663914",
        "location": {
            "city": "Samut Prakan",
            "country": "Thailand",
            "latitude": 13.6,
            "longitude": 100.6,
            "street": "727ม.2ตำบลแพรกษา",
            "zip": "10280"
        },
        "name": "ร้านบอสการช่าง รับทำเหล็กดัดมุ้งลวด ต่อเติมครบวงจร",
        "phone": "0910173220"
    },
    {
        "about": "รับทำ ประตูเหล็กดัด หลังคากันสาด ประตูม้วน มุ้งลวด สนามเด็กเล่น และงานเหล็กทุกชนิด ",
        "id": "499651726840540",
        "location": {
            "city": "Yasothon",
            "country": "Thailand",
            "latitude": 15.651492544211,
            "longitude": 104.31343172351,
            "street": "721/2 ต. ลุมพุก อ. คำเขื่อนเเก้ว จ. ยโสธร",
            "zip": "35110"
        },
        "name": "ร้านประเสริฐการช่าง รับทำ เหล็กดัด หลังคากันสาด ประตูเหล็กดัด ประตูม้วน",
        "phone": "089718734608971672650943587175"
    },
    {
        "about": "รับทำงานสแตนเลส เหล็กอิตาลี และ เหล็กดัดทุกชนิด",
        "description": "ร้านรุ่งเรืองทรัพย์ทวียังรับทำงานสแตนเลสตาม เหล็กอิตาลี และเหล็กดัดตามแบบทุกชนิด เช่น งานประตู งานหน้าต่างกันขโมย ช่องรั้ว ราวกันตก ราวบันได งานโครงหลังคา งานเครื่องครัว ชุดเก้าอี้-โต๊ะ งานเฟอร์นิเจอร์ ฯลฯ\nสนใจติดต่อคุณเอเบอร์ 0831322279 หรือ ทางไลน์ LINEID :amilietap\nเรายินดีให้คำปรึกษาค่ะ",
        "id": "334932256651035",
        "location": {
            "city": "Samut Prakan",
            "country": "Thailand",
            "latitude": 13.593845,
            "longitude": 100.59813,
            "street": "ศรีนครินทร์",
            "zip": "10270"
        },
        "name": "รุ่งเรืองทรัพย์ทวีรับสั่งทำงานสแตนเลส เหล็กอิตาลี และเหล็กดัดทั่วไป",
        "phone": "0935546561"
    },
    {
        "id": "1682724758629571",
        "location": {
            "city": "Amphoe Ban Laem",
            "country": "Thailand",
            "latitude": 13.2167,
            "longitude": 99.9833,
            "street": "48/1 หมู่3 ต.ท่าแร้ง อ.บ้านแหลม จเพชรบุรี",
            "zip": "76110"
        },
        "name": "รับทำงานเหล็กทุกแบบ โครงหลังคา เหล็กดัด กันสาด",
        "phone": "089566403509233684350903815893"
    },
    {
        "about": "ร้านเรามีลายเหล็กดัดให้ทำหลายแบบ ราคาไม่แพงเป็นกันเอง มีของแถม",
        "id": "1465969186993066",
        "location": {
            "city": "Maha Sarakham",
            "country": "Thailand",
            "latitude": 16.00657,
            "longitude": 103.05788,
            "street": "280 ม.8 ต.บ่อใหญ่ อ. บรบือ",
            "zip": "44130"
        },
        "name": "ร้านบิลวิทยาการช่าง - ช่างบิล รับทำเหล็กดัดอิตาลี มุ้งลวด โครงหลัง",
        "phone": "0801003748 "
    },
    {
        "about": "รับทำเหล็กดัด มุ้งลวด ราวสแตนเลส ประตูยืด ประตูม้วน ประตูเลื่อน\nสนใจติดต่อ 0894943173 (ช่างชัย)",
        "description": "ราคาเป็นกันเอง มีแบบให้เลือกหลากหลาย รับประกันผลงานโดยช่างผู้ชำนาญงาน",
        "id": "377321325709972",
        "location": {
            "street": "คลอง 4 ต.ลาดสวาย อ.ลำลูกา, 12150",
            "zip": "12150"
        },
        "name": "ร้านชัยมงคลการช่าง  รับทำเหล็กดัด มุ้งลวด",
        "phone": "0894943173"
    },
    {
        "id": "1478850432404271",
        "location": {
            "city": "Bangkok",
            "country": "Thailand",
            "latitude": 13.75395,
            "longitude": 100.50224,
            "street": "รับทำเหล็กดัดมุ่งลวด"
        },
        "name": "ด่านสำโรง17/1"
    },
    {
        "id": "846756055388233",
        "location": {
            "city": "Phatthana Nikhom",
            "country": "Thailand",
            "latitude": 14.800760066963,
            "longitude": 100.6569478824,
            "street": "ท่าหลวง"
        },
        "name": "อุ่ขจรท่าหลวงเหล็กดัด"
    },
    {
        "id": "904065382973920",
        "location": {
            "city": "Ayutthaya",
            "country": "Thailand",
            "latitude": 14.48277483,
            "longitude": 100.53928914
        },
        "name": "บ้านญาณบุญ รับทำ เหล็กดัด มุ้งลวด ประตู หน้าต่าง รั้วบ้าน งานเหล็กทุกชนิด"
    },
    {
        "about": "รับทำเหล็กดัด ประตู หน้าต่าง โครงกันสาด สแตนเลส ฯลฯ",
        "id": "993939244004226",
        "location": {
            "city": "Chanthaburi",
            "country": "Thailand",
            "latitude": 12.6,
            "longitude": 102.15,
            "street": "26/7 ม.3 ต.บางกะจะ อ.เมือง จ.จันทบุรี",
            "zip": "22000"
        },
        "name": "รับทำสแตนเลส เหล็กดัด โครงกันสาด ประตู ฯลฯ",
        "phone": "0813445146"
    },
    {
        "id": "1422324808057612",
        "location": {
            "city": "Sai Noi",
            "country": "Thailand",
            "latitude": 13.987956551667,
            "longitude": 100.30777962417,
            "street": "50/13"
        },
        "name": "ร้าน ก กฤษดา การช่าง รับทำเหล็กดัด มุ้งลวด",
        "phone": "0843694483"
    }
]