[
    {
        "about": "รับทำประตู หน้าต่างเหล็กดัด มุ้งลวด",
        "id": "191749404320445",
        "location": {
            "city": "Nakhon Sawan",
            "country": "Thailand",
            "latitude": 15.648881382327,
            "longitude": 100.18873446578,
            "zip": "60000"
        },
        "name": "Fz รับทำประตู หน้าต่างเหล็กดัด มุ้งลวด",
        "phone": "089-8562589 , 094-6416645"
    },
    {
        "about": "รับผลิตติดตั้ง งานสแตนเลสทุกชนิด",
        "id": "795643817155343",
        "location": {
            "city": "Khon Kaen",
            "country": "Thailand",
            "latitude": 16.47889,
            "longitude": 102.82676,
            "street": "124/1",
            "zip": "40000"
        },
        "name": "รับทำงาน สแตนเลส รั้ว ประตู ลูกกรงเหล็กดัด หลังคากันสาด",
        "phone": "0854581833"
    },
    {
        "about": "รับทำงานแสตนเลส เหล็กดัด มุ้งลวด ประตูยืด และงานเหล็กทุกชนิด ราคากันเอง ทั่วประเทศไทย",
        "id": "665282876925703",
        "location": {
            "city": "Nakhon Ratchasima",
            "country": "Thailand",
            "latitude": 15.1738286,
            "longitude": 102.2484132,
            "street": "26 ดอนแต้ว ต.โนนสูง อ.โนนสูง จ.นครราชสีมา",
            "zip": "30160"
        },
        "name": "รับทำงานแสตนเลส เหล็กดัดมุ้งลวด",
        "phone": "0860799637"
    },
    {
        "id": "683641218393488",
        "location": {
            "city": "Chom Bung",
            "country": "Thailand",
            "latitude": 13.07057,
            "longitude": 101.01935,
            "street": "213/157",
            "zip": "20230"
        },
        "name": "รับทำเหล็กดัด มุ้ง กัน",
        "phone": "0901095016"
    },
    {
        "about": "หาร้านรับทำเหล็กดัดมุ้งลวดเเละงานต่อเติมต่างๆได้ง่ายขึ้น",
        "id": "389640281205119",
        "location": {
            "city": "Chon Buri",
            "country": "Thailand",
            "latitude": 13.15205,
            "longitude": 101.06408,
            "street": "สุรศักดิ์ อ.ศรีราชาจ.ชลบุรี",
            "zip": "20110"
        },
        "name": "รับทำเหล็กดัดมุ้งลวดงานต่อเติมบ้านเเละอาคาร ศรีราชา ชลบุรี",
        "phone": "0989087456"
    },
    {
        "about": "รับเหมาต่อเติมอาคาร-บ้านทุกรูปแบบ",
        "id": "432168360239789",
        "location": {
            "city": "Amphoe Bangkok Noi",
            "country": "Thailand",
            "latitude": 14.00458,
            "longitude": 100.30929,
            "street": "Bangkok,Thailand",
            "zip": "11150"
        },
        "name": "รับทำ เหล็กดัด มุ้งลวด ต่อเติมบ้านทุกรูปแบบ-ช่างเดช",
        "phone": "0877157218"
    },
    {
        "id": "1013108705418039",
        "location": {
            "city": "Ubon Ratchathani",
            "country": "Thailand",
            "latitude": 15.2281,
            "longitude": 104.859,
            "street": "สิรินธร",
            "zip": "34350"
        },
        "name": "รับทำและติดตั้ง เหล็กดัด ประตูหน้าต่าง งานเหล็ก - แสตนเลส ทุกชนิด",
        "phone": "0619565913"
    },
    {
        "about": "รับทำโครงหลังคา เหล็กดัด กันสาด ประตูม้วน มุ้งลวด โดย ณรงค์การช่าง พิษณุโลก",
        "id": "734857479992718",
        "location": {
            "city": "Phitsanulok",
            "country": "Thailand",
            "latitude": 16.8158,
            "longitude": 100.264,
            "street": "บ้านพักส่วนสนามบิน",
            "zip": "65000"
        },
        "name": "รับทำโครงหลังคา เหล็กดัด กันสาด ประตูม้วน มุ้งลวด โดย ณรงค์การช่าง พิษณุโลก",
        "phone": "084-6202939"
    },
    {
        "about": "รับทำงานประตูเหล็กดัด ต่อเติมบ้าน โครงหลังคาเหล็ก \n",
        "id": "471551939607918",
        "location": {
            "city": "Prachuap Khiri Khan",
            "country": "Thailand",
            "latitude": 11.8033,
            "longitude": 99.70769,
            "street": "213/1 ม. 2 ต. อ่าวน้อย อ. เมือง จ.ประจวบคีรีขันธ์",
            "zip": "77000"
        },
        "name": "รับทำ ประตูเหล็กดัด รับทำงานเหล็ก",
        "phone": "0830821330"
    },
    {
        "id": "432423526960088",
        "location": {
            "city": "Amphoe Khukhan",
            "country": "Thailand",
            "latitude": 14.65,
            "longitude": 104.15,
            "street": "12/49 ตำบลโสน อำเภอขุขันธ์ จังหวัดศรีสะเกษ",
            "zip": "33140"
        },
        "name": "รับทำมุ่งลวดเหล็กดัด  ต่อเติมบ้าน งานเหล็กทุกชนิด",
        "phone": "0880878069"
    },
    {
        "about": "ช่างอู๊ด 0924139237 รับทำเหล็กดัด อลูมิเนียม กระจก กรอบรูป อื่นๆ",
        "description": "รับทำเหล็กดัด อลูมิเนียม มุ้งลวด กรอบรูป กระจก อื่นๆ สนใจติดต่อช่างอู้ด 0924139237",
        "id": "160290377505867",
        "location": {
            "city": "Bangkok",
            "country": "Thailand",
            "latitude": 13.89633,
            "longitude": 100.63934,
            "street": "229 รามอินทรา 39 เขต บางเขน แขวง ท่าแร้ง",
            "zip": "10220"
        },
        "name": "รับทำเหล็กดัด อลูมิเนียม กรอบรูป ทำทั่วราชอาณาจักร",
        "phone": "0924139237"
    },
    {
        "about": "รับทำ-ติดตั้ง เหล็กดัด มุ้งลวด งานสแตนเลสทุกชนิด โครงหลังเหล็ก-แสตนเลส ประตูม้วน-ยืด",
        "description": "จากประสบการณ์ในการทำเหล็กดัดที่มีมายาวนานกว่า 30 ปี เราได้ใส่ใจทุกชิ้นงานไม่ว่าจะเป็นการทำ เหล็กดัด มุ้งลวด โครงหลังคาแสตนเลส ประตูม้วน ประตูยืด ฯลฯ โดยทุกชิ้นงานมีการตรวจสอบและให้ความสำคัญกับทุกชิ้นงานเป็นอย่างดี ทำให้คุณลูกค้าไว้ใจและเชื่อใจได้เลยว่าชิ้นงานทุกชิ้นและการบริการของเราจะไม่ทำให้คุณลูกค้าผิดหวังแน่นอนครับ",
        "emails": [
            "k_k_c_08022558@outlook.com"
        ],
        "id": "337295803148099",
        "location": {
            "city": "Amphoe Bang Phli",
            "country": "Thailand",
            "latitude": 13.61248,
            "longitude": 100.74425,
            "street": "82/167 ถ.ตำหรุ-บางพลี ต.บางพลีใหญ่ อ.บางพลี จ.สมุทรปราการ",
            "zip": "10540"
        },
        "name": "เค.เค.ซี ศิลป์การช่าง รับทำ-ติดตั้งเหล็กดัด มุ้งลวด ราคากันเอง",
        "phone": "0849120556 , 0847064467 คุณกวง"
    },
    {
        "about": "โทร.094-393-6645\nแฟกซ์.02-8654488 \nE-mail:ubonwan.rts@gmail.com ",
        "description": "รุ่งไทยสิน สเตนเลส (ใช้สเตนเลสจากเกรทเซ็นทรัลทุกเส้นที่ได้มาตรฐาน จากวัตถุดิบที่มีคุณภาพคุณลูกค้าจึงมั่นใจได้ในคุณภาพของงาน)\nโทร 094-393-6645 แฟ็กซ์ 02-8654488\n\n(บริการของเรา)\n\nรับออกแบบผลิตพร้อมติดตั้งงานสเตนเลสและเหล็ก\nประตู ช่องรั้ว ศรแหลม ราวระเบียง ราวบันได รางน้ำฝน กันสาดโพลี่ฯ \nโครงโรงจอดรถ โครงโชว์สเตนเลส หุ้มเสา สเตนเลสทุกชนิด \n\n- จำหน่ายสเตนเลสของ เกรท เซ็นทรัล \nท่อกลม แป๊ปเหลี่ยม แผ่น แบน ฉาก เพลา ( เกรด 304 , 202, 201) และอุปกรณ์ตกแต่งงานสเตนเลส เกรด 304\n\n- ออกแบบผลิตพร้อมติดตั้งงานสเตนเลส ประตู ช่องรั้ว ราวระเบียง ราวบันได รางน้ำฝน กันสาดโพลี่ฯ โรงจอดรถโครงโชว์สเตนเลส หุ้มเสา สเตนเลสทุกชนิด \n\n****ราคาโรงงาน ไม่แพง ลด พิเศษ ส่ง ถูก สุด เจรจา ต่อรอง ราคา สินค้า ได้**** \n\n\n\n",
        "emails": [
            "ubonwan.rts@gmail.com"
        ],
        "id": "225922610947517",
        "location": {
            "latitude": 37.5689,
            "longitude": 126.977
        },
        "name": "P\u0026P stainlessรับทำสเตนเลส\u0026เหล็กดัด,ระแนง,กันสาด,โครงต่างๆ งานดีราคากันเอง",
        "phone": "0943936645"
    },
    {
        "id": "558706690936530",
        "location": {
            "city": "Bangkok",
            "country": "Thailand",
            "latitude": 13.7522,
            "longitude": 100.494,
            "street": "130 ม.19 ต.เมื่องเก่า อ.กบินทร์บุรี จ.ปราจีนบุรี",
            "zip": "25240"
        },
        "name": "รับทำเหล็กดัด",
        "phone": "0870578409"
    },
    {
        "about": "เพื่อความบันเทิงเท่านั้น",
        "emails": [
            "ree_jeen@hotmail.co.th"
        ],
        "id": "420193988086364",
        "name": "รับทำเหล็กดัด มุ้งลวด โดยช่างเสือราคากันเองค่ะ"
    },
    {
        "id": "152962544867476",
        "location": {
            "city": "Bangkok",
            "country": "Thailand",
            "latitude": 13.54313,
            "longitude": 99.75721,
            "street": "กรุงเทพ",
            "zip": "70000"
        },
        "name": "รับทำเหล็กดัดมุ้งลวด กันสาด ผ้าม่าน",
        "phone": "0896078454 "
    },
    {
        "about": "รับทำเหล็กดัด ประตูม้วน ประตูยืด งานเชื่อม โครงหลังคา",
        "id": "1431077170552471",
        "location": {
            "city": "Ratchaburi",
            "country": "Thailand",
            "latitude": 13.5333,
            "longitude": 99.8,
            "street": "17 ม.14 ต.แก้มอ้น อ.จอมบึง จ.ราชบุรี",
            "zip": "70150"
        },
        "name": "รับทำเหล็กดัด มุ้งลวด ประตูม้วน งานเชื่อม โครงหลังคา",
        "phone": "0951531513"
    },
    {
        "about": "รับทำ เหล็กดัด ประตูหน้าต่าง ประตูยืด ประตูม้วน ",
        "description": "รับทำ เหล็กดัด ประตูหน้าต่าง ประตูยืด ประตูม้วน กัดสาดอลูมิเนียม แผ่นเมทัลชีท โครงหลังคา งานเหล็กทุกชนิด โดยช่างมืออาชีพ ประสบการณ์มากกว่า 30 ปี",
        "id": "720454981377115",
        "location": {
            "city": "พิจิตร",
            "street": "76/1 ถ.ปากทาง ต.ในเมือง อ.เมือง",
            "zip": "66000"
        },
        "name": "พยับการช่าง รับทำเหล็กดัด พิจิตร",
        "phone": "0818862594"
    },
    {
        "about": "14/87 ม.3 หนองค้างพลู หนองแขม กรุงเทพ \n0894590913 - 0854458611",
        "id": "855125971198548",
        "location": {
            "city": "Nong Khaem",
            "country": "Thailand",
            "latitude": 13.70426,
            "longitude": 100.40088,
            "street": "14/87 ม.3 หนองค้างพลู หนองแขม",
            "zip": "10160"
        },
        "name": "ช่างฮวด รับทำเหล็กดัด และงานเหล็กตามสั่งโครงหลังคาราคากันเอง"
    },
    {
        "about": "http://chai-rungrueang.com/%e0%b8%87%e0%b8%b2%e0%b8%99%e0%b8%95%e0%b8%b4%e0%b8%94%e0%b8%95%e0%b8%b1%e0%b9%89%e0%b8%87-%e0%b9%80%e0%b8%ab%e0%b8%a5%e0%b9%87%",
        "id": "292682924260005",
        "name": "ชัยรุ่งเรืองการช่าง รับทำเหล็กดัดมุ้งลวด 0898164193"
    },
    {
        "about": "รับทำ เหล็กดัด, กันสาด, โครงหลังคา, ประตูรั้ว, กรงสัตว์เลี้ยงและงานไฟฟ้าภายในบ้าน",
        "id": "787067561367709",
        "location": {
            "city": "Changwat Songkhla",
            "country": "Thailand",
            "latitude": 6.95218,
            "longitude": 100.56273,
            "street": "Namom",
            "zip": "90310"
        },
        "name": "สิลป์ชัยการช่าง รับทำ งานเหล็กตามแบบ โครงหลังคา ประตูรั้ว เหล็กดัดฯลฯ",
        "phone": "+66840674708"
    },
    {
        "about": "สอบถามข้อมูลที่เบอร์  ",
        "id": "507355926045708",
        "location": {
            "city": "Nong Chok",
            "country": "Thailand",
            "latitude": 13.84211,
            "longitude": 100.86283,
            "street": "หนองจอก",
            "zip": "10530"
        },
        "name": "รับทำ เหล็กดัด มุ้งรวด ผ้าม่าน ฯลฯ",
        "phone": "1525"
    },
    {
        "id": "1444450835835492",
        "name": "เคี้ยง การช่าง รับทำ สแตนเลส เหล็กดัด กระจก อลูมิเนียม โทร.081-4526758"
    },
    {
        "about": "รับทำเหล็กดัด มุ้งลวด ราวสแตนเลส ประตูยืด ประตูม้วน ประตูเลื่อน",
        "description": "ราคาเป็นกันเอง มีแบบให้เลือกหลากหลาย รับประกันผลงานโดยช่างผู้ชำนาญงาน ",
        "id": "335929296474946",
        "location": {
            "street": "คลอง 4 ต.ลาดสวาย อ.ลำลูกา",
            "zip": "12150"
        },
        "name": "ร้านชัยมงคลการช่าง รับทำเหล็กดัด มุ้งลวด"
    },
    {
        "id": "1671482476399382",
        "location": {
            "city": "Bangkok",
            "country": "Thailand",
            "latitude": 13.9218044,
            "longitude": 100.6488495,
            "street": "ถนนสายไหม46",
            "zip": "10220"
        },
        "name": "มิตรเจริญการช่าง รับทำ เหล็กดัด มุ้งลวด โครงหลังคา",
        "phone": "0892291660"
    }
]