[
    {
        "about": "รับทำเหล็กดัด หรือ ประตูมวล หลังคา\nเเผ่นโพลี ",
        "id": "1502526830057371",
        "location": {
            "city": "Pathum Thani",
            "country": "Thailand",
            "street": "ท.อ.ส. 9",
            "zip": "12130"
        },
        "name": "รับทำเหล็กดัด",
        "phone": "0870313679"
    },
    {
        "about": "ทำเหล็กดัด หลังคา กันสาด ประตู    ประตูรีโมท บางบัวทอง บางใหญ่ ไทรน้อย พิมลราช นนทบุรี",
        "emails": [
            "ntb.sky@gmail.com"
        ],
        "id": "1522192491362986",
        "location": {
            "city": "Nonthaburi",
            "country": "Thailand",
            "latitude": 13.8249197,
            "longitude": 100.478447,
            "street": "55/13  ถ.บางกรวยไทรน้อย ต.ไทรน้อย อ.ไทรน้อย",
            "zip": "11150"
        },
        "name": "ร้านสกายนนท์ - รับทำกันสาดเหล็กดัด  ประตูรีโมท  บางบัวทอง  ไทรน้อย  นนทบุรี",
        "phone": "062-025-7789"
    },
    {
        "about": "รับทำเหล็กดัด ประตูยืด ประตูม้วน ",
        "id": "354548434722378",
        "location": {
            "city": "Amphoe Muang Chon Buri",
            "country": "Thailand",
            "latitude": 13.36899,
            "longitude": 100.9957,
            "street": "ชลบุรี แยกบ้านบึง",
            "zip": "20000"
        },
        "name": "รับทำเหล็กดัด",
        "phone": "0896020209"
    },
    {
        "about": "รับทำเหล็กดัด มุ้งลวด รางน้ำไวนิล หลังคาโมเดิร์น งานเหล็กและสแตนเลสทุกชนิด",
        "id": "236810723162816",
        "location": {
            "city": "Bangkok",
            "country": "Thailand",
            "latitude": 13.685439646141,
            "longitude": 100.62942741537,
            "street": "ซ,สุขุมวิท101/1 วชิรธรรมสาธิต47",
            "zip": "10260"
        },
        "name": "สตางค์เหล็กดัด By เมมวาร์ รับทำงานเหล็กทุกชนิด",
        "phone": "0860524145"
    },
    {
        "about": "รับทำงานเหล็ก โครงหลังคา ประตูยืด ประตูม้วน เหล็กดัดหน้าต่าง มุ้งลวด กันสาด",
        "description": "ร้านมาลัยทองการช่าง รับออกแแบบติดตั้งงานสเเตนเลส ประตูสแตนเลส หลังคาโพลี หลังคาโปร่งแสงดีไลท์ ประตูสเตนเลสผสมไม้ ประตูสแตนเลสแบบทึบ ราวระเบียงสเเตนเลส ช่องรั้วสแตนเลส ราวบันไดสแตนเลส งานดัดสแตนเลส ทุกประเภท \nรับทำงานเหล็ก โครงหลังคา ประตูยืด ประตูม้วน เหล็กดัดหน้าต่าง มุ้งลวด กันสาด และงานเหล็กต่างๆ ทุกชนิด และสามารถรับงานโครงการต่างๆ งานก่อสร้างต่อเติมบ้านทุกชนิด...\n\nสามารถติดตั้งได้ทั่วกรุงเทพฯและปริมณฑล และต่างจังหวัด\n\n**สนใจโทร.086-167-9311 (ช่างบอย)**",
        "emails": [
            "thongchai.rodphai@gmail.com"
        ],
        "id": "127153624111743",
        "location": {
            "city": "Samut Prakan",
            "country": "Thailand",
            "latitude": 13.55952,
            "longitude": 100.51878,
            "street": "12/2 หมู่5 ซ.วัดใหญ่ ถ. สุขสวัสดิ์ ต.ในคลองบางปลากด อ.พระสมุทรเจดีย์",
            "zip": "10290"
        },
        "name": "ร้านมาลัยทองการช่าง รับทำงานประตูสเเตนเลส และงานเหล็กดัด มุ้งลวด ทุกประเภท",
        "phone": "086-167-9311,024251523"
    },
    {
        "about": "รับติดตั้งเหล็กดัด มุ้งลวด สีอบ งานคุณภาพ ราคาประหยัด รับประกัน 3 ปีเต็ม โทร. 085-0111154, 087-8048290\nwww.boonsan.com",
        "description": "ร้านบุญสาร การช่าง ผู้ผลิตและจัดจำหน่าย\nรับทำและติดตั้ง หลังคาโพลีคาร์บอเนต หลังคาไวนิล หลังคาโปร่งแสงดีไลท์ หลังคาโปร่งแสงโปรไลท์ มินิ หลังคาเมทัลชีท หลังคาอลูซิงค์ หลังคากันสาด อลูมิเนียม หลังคาโรงจอดรถ ประตูรั้วสแตนเลส ประตู สแตนเลสผสมไม้แดง ประตูเหล็กดัดอิตาลี ประตูม้วน ประตูยืด ช่องรั้วสแตนเลส ช่องรั้วเหล็กดัดอิตาลี ราวบันได สแตนเลส ราวระเบียงกันตก สแตนเลส ราวบันไดเหล็กดัดอิตาลี ราวระเบียงกันตกเหล็กดัดอิตาลี ประตูเหล็กดัดกันขโมยสีอบ หน้าต่างเหล็กดัดกันขโมยสีอบ มุ้งลวด ศรแหลมกันขโมย ประตู อลูมิเนียมบานเลื่อน หน้าต่างอลูมิเนียมบานเลื่อน กระจก อลูมิเนียม และรายการสินค้าอื่นๆ อีก\nติดต่อ ร้านบุญสาร การช่าง \nโทร. 087-8048290 , 085-0111154\nFax. 02-987-3086\nhttp://www.boonsan.com",
        "emails": [
            "boonsan-@hotmail.com"
        ],
        "id": "346431305436726",
        "location": {
            "city": "คลอง7 ลำลูกกา ปทุมธานี",
            "latitude": 13.7522,
            "longitude": 100.494,
            "street": "โทร. 085-0111154 ,087-8048290 ,094-8957200",
            "zip": "12150"
        },
        "name": "รับทำเหล็กดัด หลังคาโพลี ไวนิล",
        "phone": "\u003c\u003cnot-applicable\u003e\u003e"
    },
    {
        "about": "ร้านเหล็กดัดวิมลการช่าง รับทำ-ติดตั้ง เหล็กดัด มุ้งลวด  ผ้าม่าน งานเหล็กทุกชนิด Tel.027050360\n",
        "description": "ร้านเหล็กดัดวิมลการช่าง \n\nรับทำ-ติดตั้ง \n\n- เหล็กดัด \n\n- มุ้งลวด\n\n- วงกบ \n\n- อลูมีเนียม\n\n- ผ้าม่าน\n\n- ประตูม้วน\n\n- กันสาด\n\n- โครงหลังคาโพลีคาร์บอเนต\n\n งานเหล็กทุกชนิด งานดี มีคุณภาพ ราคาถูก \n\n\n202/43 ถนนเทพารักษ์ ตำบลบางเสาธง อำเภอบางเสาธง จังหวัดสมุทรปราการ 10540\n\nโทรศัพท์\t0-2705-0360 , 0863327229 , 0816135595\n\nโทรสาร 02-7052558\n\nเปิดทำการ ทุกวัน เวลา 08:00-19:00",
        "id": "931296216931479",
        "name": "ร้านเหล็กดัดวิมลการช่าง รับทำ-ติดตั้ง เหล็กดัด มุ้งลวด อลูมีเนียม ผ้าม่าน"
    },
    {
        "id": "390380944494803",
        "location": {
            "city": "Bangkok",
            "country": "Thailand",
            "latitude": 13.7385902,
            "longitude": 100.5580063,
            "street": "คลอง3",
            "zip": "12150"
        },
        "name": "รับทำหลังคา เหล็กดัด ต่อเติมบ้าน",
        "phone": "0899889263"
    },
    {
        "about": "สั่งทำ ซ่อม สแตนเลส เหล็กดัด อลูมิเนียม มุ้งลวด ",
        "emails": [
            "sivakorn.kk@gmail.com"
        ],
        "id": "1507566219474301",
        "name": "ซ่อมสแตนเลส สั่งทำประตูสแตนเลส เหล็กด้ด ราคาถูก",
        "phone": "08-56597-425"
    },
    {
        "id": "446597982103619",
        "location": {
            "city": "Bangkok",
            "country": "Thailand",
            "latitude": 13.15205,
            "longitude": 101.06408,
            "street": "ต.สุรศักดิ์ อ.ศรีราชา จ.ชลบุรี",
            "zip": "20110"
        },
        "name": "รับเหมา ก่อสร้างศรีราชา ชลบุรี  ต่อเติมบ้าน ทำเหล็กดัด มุ้งลวด",
        "phone": "0868355540 ,0875587437"
    },
    {
        "id": "1475780786004598",
        "location": {
            "city": "Pisanuloke",
            "country": "Thailand",
            "latitude": 16.44207,
            "longitude": 99.49592,
            "street": "90/5 ม.2 ต.พลายชุมพล อ.เมือง จ.พิษณุโลก",
            "zip": "62000"
        },
        "name": "รับทำประตูเหล็กดัด  หน้าต่างพร้อมมุ้งลวด ประตูม้วน กันสาด ศักดิ์ชัยการช่าง",
        "phone": "0871995657"
    },
    {
        "about": "รับทำเหล็กดัด-มุ้งลวด กันสาด และงานเหล็กต่างๆ ทุกประเภท รับรองคุณภาพ",
        "id": "455382577896449",
        "name": "รับทำเหล็กดัด มุ้งลวด ผ้าม่าน ราคาถูก"
    },
    {
        "id": "528535347198244",
        "location": {
            "city": "Chacherngsao",
            "country": "Thailand",
            "latitude": 13.74257,
            "longitude": 101.02953,
            "street": "ตำบลคลองหลวงแพ่ง อำเภอเมือง",
            "zip": "24000"
        },
        "name": "รับทำงานช่างทุกชนิด ต่อเติมบ้าน สร้างบ้าน มุ้งลวดเหล็กดัด ทำไฟ",
        "phone": "0844617424"
    },
    {
        "id": "1548083288794186",
        "location": {
            "city": "Thanya Buri",
            "country": "Thailand",
            "latitude": 13.97531,
            "longitude": 100.65421,
            "street": "ร้านเค.เจ.เอส.อลูมิเนียม",
            "zip": "12130"
        },
        "name": "ช่างอ้วน รับทำเหล็กดัด มุ้งลวด กระจก อลูมิเนียมและงานสแตนเลส",
        "phone": "0860646056"
    },
    {
        "about": "รับทำสแตนเลสทุกชนิด",
        "id": "699327376814869",
        "location": {
            "city": "ไทย",
            "street": "41/5 ม10  ต.วัดไทร  อ.เมือง จ.นครสวรรค์",
            "zip": "60000"
        },
        "name": "ร้านย.ศิริ การช่าง รับทำสแตนเลส เหล็กดัด ทุกชนิด จ.นครสวรรค์",
        "phone": "0846960431."
    },
    {
        "about": "รับทำมุ้งลวดเหล็กดัดพิษณุโลก 08-7196-4524(ช่างนาจ)",
        "id": "663537400385398",
        "location": {
            "city": "Pitsanulok",
            "country": "Thailand",
            "latitude": 16.83441,
            "longitude": 100.31658,
            "street": "หมู่ 8 ต.หัวรอ อ.เมือง",
            "zip": "65000"
        },
        "name": "รับทำมุ้งลวดเหล็กดัด งานสแตนเลส เมทัลชีส โครงหลังคาพิษณุโลกพร้อมทีมงาน",
        "phone": "0871964524"
    },
    {
        "about": "ทำเหล็กดัด มุ้งลวด ประตูม้วน โคงหลังคา รั๊วเหล็ก ประตูเหล็ก และงานเหล็กทุกชนิด โทร 0841452100  0959545140",
        "id": "928363200520879",
        "name": "รับทำ เหล็กดัด มุ้งลวด สุพรรณบุรี ช่างเอก"
    },
    {
        "about": "รับทำเหล็กดัด ประตูรั้ว ประตูม้วน งานเหล็กทุกชนิด และ งานก่อสร้าง บ้าน อาคาร",
        "id": "692503500837323",
        "location": {
            "city": "Chiang Rai",
            "country": "Thailand",
            "latitude": 20.02273,
            "longitude": 99.89404,
            "street": "นางแล  เชียงราย",
            "zip": "57100"
        },
        "name": "อังคาร เหล็กดัด รับทำเหล็กดัด งานเหล็กทุกชนิด เชียงราย",
        "phone": "0987541040"
    },
    {
        "id": "689094417828205",
        "location": {
            "city": "Chana",
            "country": "Thailand",
            "latitude": 6.91977,
            "longitude": 100.70336,
            "street": "สายจะนะ-นาทวี",
            "zip": "90130"
        },
        "name": "ร้านนำรวย รับทำงานเหล็กดัด งานสแตนเลสทุกชนิด กันสาด โครงหลังคา รั้ว ระเบียง",
        "phone": "0835367664"
    },
    {
        "about": "สามารถติดต่อได้ที่เบอร์โทรศัพท์ 091-7417096,085-8002998 ราคากันเอง",
        "id": "1666384150247601",
        "location": {
            "city": "Chiang Mai",
            "country": "Thailand",
            "latitude": 18.8118534,
            "longitude": 99.0112762,
            "street": "45/2 ม.3 ต.ห้วยทราย อ.สันกำแพง จ.เชียงใหม่",
            "zip": "50130"
        },
        "name": "ร้าน ว.เชียงใหม่ การช่าง รับทำ มุ้งลวด กระจก เหล็กดัด อลูมิเนียม สันกำแพง",
        "phone": "0917417096,0858002998"
    },
    {
        "about": "รับทำมุ้งลวดเหล็กดัด ติดตั้งและแก้ไขทั้งในและนอกสถานที่ ราคาเป็นกันเอง",
        "id": "639669749427522",
        "location": {
            "city": "Bangkok",
            "country": "Thailand",
            "latitude": 13.70426,
            "longitude": 100.40088,
            "street": "ิbankok",
            "zip": "10160"
        },
        "name": "รับทำมุ่งลวดเหล็กดัด0813086157เจ เจ การช่าง",
        "phone": "0813086157"
    },
    {
        "about": "รับทำงานเหล็กดัด สเตนเลส ทุกประเภท โครหลังคา",
        "id": "243149042538331",
        "location": {
            "city": "กรุงเทพมหานคร",
            "street": "578 ถนนบางบอน 5 แขวงเขตบางบอน",
            "zip": "10150"
        },
        "name": "เกศ การช่าง รับทำงานแสตนเลส โครงหลังคา เหล็กดัด มุ้งลวด กันสาด",
        "phone": "02-4875083 Fax 02-8113557 มือถือ 080-8749887,085-1883473,084-5593851"
    },
    {
        "about": "รับทำเหล็กดัด มุ้งลวด อลูมิเนียม สแตนเลส 0914150684",
        "emails": [
            "vazabi_guzii@hotmal.com"
        ],
        "id": "262654980591628",
        "location": {
            "city": "Rangsit",
            "country": "Thailand",
            "latitude": 14.10293,
            "longitude": 100.74821,
            "street": "39/587",
            "zip": "12110"
        },
        "name": "ร้านเทพเจริญ  รับทำเหล็กดัด อลูมิเนียม มุ้งลวด สแตนเลส งานต่อเติมทุกชนิด",
        "phone": "0914150684  Line: araini.m"
    },
    {
        "id": "610311079103516",
        "location": {
            "city": "Phetchabun",
            "country": "Thailand",
            "latitude": 16.4167,
            "longitude": 101.133,
            "street": "ยาวีเหนือ",
            "zip": "67210"
        },
        "name": "รับทำเหล็กดัด มุ้งลวด ประตู หน้าต่าง",
        "phone": "0941940863"
    },
    {
        "about": "รับทำเหล็กดัดประตูหน้าต่างมุ้งลวด และงานเหล็กทั่วไป",
        "id": "855978044440320",
        "location": {
            "city": "Nong Khai",
            "country": "Thailand",
            "latitude": 17.88068,
            "longitude": 102.8301,
            "street": "หนองคาย",
            "zip": "43000"
        },
        "name": "หนองคายเหล็กดัด รับทำงานเหล็กดัดประตูหน้าต่าง",
        "phone": "0897127708"
    }
]