[
    {
        "about": "รับติดตั้งจานดาวเทียม เสาทีวีดิจิตัล เพิ่มจุดรับชม ",
        "emails": [
            "ipad_iphone123@hotmail.com"
        ],
        "id": "1571993856365835",
        "location": {
            "city": "Bangkok",
            "country": "Thailand",
            "latitude": 13.77431,
            "longitude": 100.54686,
            "street": "สามเสน พญาไท กรุงเทพ",
            "zip": "10400"
        },
        "name": "ติดตั้งจานดาวเทียม เสาทีวีดิจิตัล",
        "phone": "0813623666"
    },
    {
        "about": "บริการทั่วกรุงเทพฯ ปริมณทนฯโทร 081-9625069= 084-3363382",
        "id": "435642209881090",
        "location": {
            "city": "Bangkok",
            "country": "Thailand",
            "latitude": 13.70426,
            "longitude": 100.40088,
            "street": "ซ่อมกล้องวงจรปิด ติดจานดาวเทียม ทีวี คอมพิวเตอร์",
            "zip": "10160"
        },
        "name": "เพชรเกษม104 หนองแขม",
        "phone": "0819625069"
    },
    {
        "id": "119856761494851",
        "location": {
            "city": "Bang Phae",
            "country": "Thailand",
            "latitude": 13.736577184613,
            "longitude": 99.913157168877
        },
        "name": "ร้านหนองโพอิเล็คทริค ติดตั้งจานดาวเทียมและกล้องวงจรปิดทุกชนิด...."
    },
    {
        "id": "259533147488669",
        "location": {
            "city": "Bangkok",
            "country": "Thailand",
            "latitude": 13.819996445693,
            "longitude": 100.656871373
        },
        "name": "ร้านฉลองดาวเทียม..รับติดตั้งจานดาวเทียมและกล้องวงจรปิดทุกชนิด"
    },
    {
        "id": "309576472415887",
        "location": {
            "city": "Chiang Mai",
            "country": "Thailand",
            "latitude": 18.7078151,
            "longitude": 98.9397904
        },
        "name": "ร้านติดตั้งจานดาวเทียม"
    },
    {
        "id": "362887403913198",
        "location": {
            "city": "Rayong",
            "country": "Thailand",
            "latitude": 12.6421184,
            "longitude": 101.4186904
        },
        "name": "บ้านของลูกสาวคนสวยหน้าหมวยหมวยหุ่นดีดีที่มีพ่อเป็นช่างติดจานดาวเทียม55555"
    },
    {
        "id": "484417565044893",
        "location": {
            "city": "Changwat Uttaradit",
            "country": "Thailand",
            "latitude": 17.6664641,
            "longitude": 100.3044812,
            "street": "บริการล้างแอร์ ติดตั้งแอร์ ซ่อมแอร์ ติดตั้งจานดาวเทียม ติดตั้งภายไฟในบ้านและในอาคาร"
        },
        "name": "ร้านช่างอี๊ตลีโอแอร์ โทร.0932520799"
    },
    {
        "id": "905038212896205",
        "location": {
            "city": "Amphoe Phra Nakhon Si Ayutthaya",
            "country": "Thailand",
            "latitude": 14.3270967,
            "longitude": 100.6212235,
            "street": "ร้านอยุธยาแซท 144หมู่4 คานหาม อ.อุทัย จ.พระนครศรีอยุธยา 13210",
            "zip": "13210"
        },
        "name": "ร้านติดตั้งจานดาวเทียมอยุธยา-ติดตั้งแอร-กล้องวงจรปิด"
    },
    {
        "id": "909149882467371",
        "location": {
            "city": "Phetchabun",
            "country": "Thailand",
            "latitude": 16.4167,
            "longitude": 101.133,
            "street": "เทพาพัฒนา",
            "zip": "67000"
        },
        "name": "กล้องวงจรปิด กล้องติดรถ จานดาวเทียม. โซล่าเซล เพชรบูรณ์",
        "phone": "0891743383"
    },
    {
        "about": "จำหน่ายติดตั้งจานดาวเทียม ( โทร: 084-8385299)(099-4232090)\nติดตั้งจานดำPSI, จานส้มIPM,จานแดงTure move,จานPSI OK,จานเหลือง DTV ",
        "description": "ร้านอยู่ติดกับ seven บ่อแร่ค่ะ ทางไปอ่าวมะขามค่ะ\n",
        "emails": [
            "ppkannika9@hotmail.com"
        ],
        "id": "452659094780204",
        "location": {
            "city": "Amphoe Muang Phuket",
            "country": "Thailand",
            "latitude": 7.8487490241424,
            "longitude": 98.382074213986,
            "street": "35/70 หมู่ที่ 1 ถ.ศักดิเดช ต,วชิต",
            "zip": "83000"
        },
        "name": "่ร้านติดตั้งจานดาวเทียมภูเก็ต",
        "phone": "0848385299"
    },
    {
        "about": "รับติดตั้งกล้องวงจรปิด จานดาวเทียม\n",
        "description": "รับติดตั้งกล้องวงจรปิด จานดาวเทียม ระบบเสียงตามสาย ระบบเสียงห้องประชุม ระบบทีวีโปรเจคเตอร์ ขยายระบบอินเตอร์เน็ต WI-FI ",
        "id": "440660815955297",
        "location": {
            "city": "Bangkok",
            "country": "Thailand",
            "latitude": 13.7522,
            "longitude": 100.494,
            "zip": "10520"
        },
        "name": "รับติดตั้งกล้องวงจรปิด จานดาวเทียม",
        "phone": "0845433303"
    },
    {
        "about": "จานดาวเทียมและกล้องวงจรปิด จำหน่าย-ติดตั้ง",
        "id": "347993622059213",
        "location": {
            "city": "Bangkok",
            "country": "Thailand",
            "latitude": 13.7017899,
            "longitude": 100.4905319,
            "street": "41/9ถ.รัตนาฯต.บางกระสอ อ.เมือง จ.นนทบุรี",
            "zip": "11000"
        },
        "name": "จานดาวเทียมและกล้องวงจรปิด ติดตั้ง จำหน่าย"
    },
    {
        "about": "เอ็น ยูสเซอร์ แซทเทิลไลท์ เซอร์วิส\nรับติดตั้งจานดาวเทียม และดิจิตอลทีวี",
        "id": "157206267817753",
        "location": {
            "city": "Ayutthaya",
            "country": "Thailand",
            "street": "ซอยชัยมงคล 5",
            "zip": "13000"
        },
        "name": "ติดตั้งจานดาวเทียม อยุธยา",
        "phone": "090-9308500"
    },
    {
        "about": "จานดาวเทียม  กล้องวงจรปิด",
        "description": "จานดาวเทียม รับติดตั้งจานดาวเทียม ติดตั้งเร็วสุด และบริการ ขายสินค้าดาวเทียม ทั้งปลีกและส่ง  ติดตั้งกล้องวงจรปิด",
        "emails": [
            "bangkoksatellite@gmail.com"
        ],
        "id": "249572761799941",
        "location": {
            "city": "กรุงเทพ",
            "street": "อินทราวาส 15"
        },
        "name": "บางกอกแซทเทิลไลท์ รับติดตั้งจานดาวเทียม รับติดตั้งกล้องวงจรปิด",
        "phone": "0863638728"
    },
    {
        "about": "รับติดตั้ง จานดาวเทียมHD กล้งวงจรปิด แก้ไข ซ่อมบำรุง อัพเกรด บ่อวิน ศรีราชา",
        "id": "1680180682209242",
        "location": {
            "city": "Amphoe Si Racha",
            "country": "Thailand",
            "latitude": 13.1667,
            "longitude": 100.933,
            "street": "ศรีราชา บ่อวิน",
            "zip": "20230"
        },
        "name": "ติดตั้ง แก้ไข ซ่อมบำรุง อัพเกรด  จานดาวเทียม กล้องวงจรปิด",
        "phone": "086-5058147"
    },
    {
        "id": "898938683485914",
        "location": {
            "city": "Samut Sakhon",
            "country": "Thailand",
            "latitude": 13.5333,
            "longitude": 100.283,
            "street": "26 หมู่ 3 ต.กาหลง อ.เมือง จ.สมุทรสาคร",
            "zip": "ึ74000"
        },
        "name": "ติดตั้งจานดาวเทียม PSI และกล้องวงจรปิด",
        "phone": "0816436532"
    },
    {
        "about": "ติดต่อ 0954463147",
        "id": "1682826501950865",
        "location": {
            "city": "Amphoe Fang",
            "country": "Thailand",
            "latitude": 19.8833,
            "longitude": 99.1833,
            "street": "บ้านสบมาว",
            "zip": "50110"
        },
        "name": "ช่างต้นรับติดตั้งจานดาวเทียมและซ่อมเครื่องใช้ไฟฟ้าทุกชนิด",
        "phone": "0954463147"
    },
    {
        "about": "S.R. แซทเทิลไลท์จำหน่ายอุปกรณ์ดาวเทียมทุกระบบบริการรับติดตั้ง-ซ่อมโดยทีมงานมืออาชีพ",
        "emails": [
            "sr_lek1@hotmail.com"
        ],
        "id": "336332236447793",
        "location": {
            "city": "สมุทรปราการ",
            "street": "477ม.10ต.ในคลองบางปลากดอ.พระสมุทรเจดีย์จ.สุมทรปราการ",
            "zip": "10290"
        },
        "name": "S.R แซทเทิลไลท์   รับติดตั้งจานดาวเทียม ในกรุงเทพ ฯ  และ  ปริมณฑล",
        "phone": "02-4649403"
    },
    {
        "about": "ราคาถูก รับประกันคุณภาพ มีบริการหลังการขาย ",
        "description": "รับติดตั้งและจำหน่ายอุปกรณ์จานดาวเทียมทุกชนิด ราคาถูก รับประกันคุณภาพ มีบริการหลังการขาย ยินดีให้คำปรึกษาเกี่ยวกับการติดตั้ง ร้านอยู่บริเวณทางเข้านิคมอุตสาหกรรมบางปู อาคารพาณิชย์เลขที่ 888/25 ต.แพรกษา อ.เมือง จ.สมุทรปราการ\n\"อยากติดจาน คิดถึง One Service\"",
        "id": "1499344063639000",
        "location": {
            "city": "Muang Samut Prakan",
            "country": "Thailand",
            "latitude": 13.6,
            "longitude": 100.6,
            "street": "105",
            "zip": "10270"
        },
        "name": "One Service ติดตั้ง-จำหน่ายอุปกรณ์จานดาวเทียม",
        "phone": "0801111111"
    },
    {
        "description": "สนใจติดต่อ คุณ นิรันดร์  โทร  081 0032500 กรุงเทพและปริมณธน",
        "id": "486130598100043",
        "name": "รับติดตั้งจานดาวเทียมและจำหน่ายจานทุกรุ่น"
    },
    {
        "id": "840777879298999",
        "location": {
            "city": "Bangkok",
            "country": "Thailand",
            "latitude": 13.7460098,
            "longitude": 100.7462463,
            "street": "100/181 ม.4 ถนนร่มเกล้า คลองสองต้นนุ่น  ลาดกระบัง",
            "zip": "10520"
        },
        "name": "รับติดตั้ง จานดาวเทียมและกลัองวงจรปิด รวดเร็วทันใจ",
        "phone": "0930313523"
    },
    {
        "about": "(ครบทุกสิ่งให้เลือกสันต์)",
        "description": "สิ่งที่คุณต้องการ อยู่ที่นี่และราคาถูกมีที่เดียว.....",
        "emails": [
            "koy.12334@hotmail.com"
        ],
        "id": "729513257160318",
        "location": {
            "city": "Nonthaburi",
            "country": "Thailand",
            "zip": "11000"
        },
        "name": "ติดตั้งจานดาวเทียมทั่วไป/internet true",
        "phone": "0863297797"
    },
    {
        "about": "กล้องวงจรปิดเเละจานดาวเทียม",
        "id": "727172260674335",
        "location": {
            "city": "Chiang Mai",
            "country": "Thailand",
            "latitude": 18.68886,
            "longitude": 99.01732,
            "street": "98 / 2 M. 6 T. chaisathan, saraphi, Chiang Mai, 50140",
            "zip": "50140"
        },
        "name": "จำหน่ายพร้อมติดตั้งจานดาวเทียมและกล้องวงจรปิดเชียงใหม่",
        "phone": "086-3897874,087-7255797"
    },
    {
        "about": "TKB CCTV รับติดตั้ง ซ่อม กล้องวงจรปิดและจานดาวเทียม ทุกรุ่น ทุกยี่ห้อ ในราคาที่คุณสบายกระเป๋า",
        "emails": [
            "tkbcctv@hotmail.com"
        ],
        "id": "1660010587550518",
        "location": {
            "city": "Samut Sakhon",
            "country": "Thailand",
            "latitude": 13.5333,
            "longitude": 100.283,
            "street": "มหาชัย",
            "zip": "74000"
        },
        "name": "TKB cctv รับติดตั้ง ซ่อม กล้องวงจรปิดและจานดาวเทียม ทุกรุ่น ทุกยี่ห้อ",
        "phone": "099-1697688/087-9322936"
    },
    {
        "about": "รับติดจานดาวเทียม ล้างแอร์ จ.ขอนแก่น",
        "id": "224823211011049",
        "location": {
            "city": "Amphoe Muang Khon Kaen",
            "country": "Thailand",
            "latitude": 16.47889,
            "longitude": 102.82676,
            "street": "ต.ในเมือง",
            "zip": "40000"
        },
        "name": "ทรัพย์อิเลคทรอนิค บริการติดจานดาวเทียม ล้างแอร์ราคาถูกได้มาตรฐาน จ.ขอนแก่น",
        "phone": "0819540014"
    }
]