[
    {
        "about": "รับติดตั้งจานดาวเทียมเพิ่มจุดรับชมทุกยี่ห้อ",
        "emails": [
            "prayongsakk@gmail.com"
        ],
        "id": "1425007421071996",
        "location": {
            "city": "Samut Sakhon",
            "country": "Thailand",
            "latitude": 13.622894060369,
            "longitude": 100.29555166878,
            "street": "141/169 หมู่ที่ 6 ต.คลองมะเดือ อ.กระทุ่มแบน",
            "zip": "74110  โทร 081-4958545  ,088-4252545"
        },
        "name": "ช่างติดตั้งจานดาวเทียมสมุทรสาครมหาชัยโพธิ์แจ้กระทุ่มแบนอ้อมน้อย"
    },
    {
        "about": "ติดตั้งจานดาวเทียมทุกยี่ห้อ MATV  กล้องวงจรปิดCCTV ระบบไฟบ้าน คีการ์ดหอพัก\nโดยทีมงาน Perfect Satellite",
        "description": "ติดตั้งจานดาวเทียมทุกยี่ห้อ MATV  กล้องวงจรปิด CCTV ระบบไฟบ้าน คีการ์ดหอพัก สัญญาณกันขโมย โดยทีมงาน Perfect Satellite",
        "id": "830706720339035",
        "location": {
            "city": "Samut Sakhon",
            "country": "Thailand",
            "latitude": 13.5333,
            "longitude": 100.283,
            "street": "มหาชัย",
            "zip": "74000"
        },
        "name": "รับติดตั้งจานดาวเทียมและกล้องวงจรปิด โดยทีมงาน Perfect Satellite",
        "phone": "0991697688"
    },
    {
        "id": "1586013881667727",
        "name": "วี.ช่างติดตั้งจานดาวเทียม.PSi"
    },
    {
        "about": "รับติดตั้งจานดาวเทียมสนใจโทร 081-6188266",
        "id": "1382585298733125",
        "name": "รับติดตั้งจานดาวเทียม"
    },
    {
        "id": "158933134267870",
        "location": {
            "city": "Lahan Sai",
            "country": "Thailand",
            "latitude": 14.34451,
            "longitude": 102.89304,
            "street": "290 หมู่ 11 บ้านผไทรวมพล ต.หนองแวง",
            "zip": "31170"
        },
        "name": "รับซ่อมคอมพิวเตอร์ ปริ๊นเตอร์ ระบบ Network  ติดตั้งกล้องวงจรปิด จานดาวเทียม",
        "phone": "0808068067"
    },
    {
        "about": "ร้านน่านจานดาวเทียม - จำหน่าย \u0026 ติดตั้ง แอร์บ้าน กล้องวงจรปิด จานดาวเทียม ทุกรุ่น",
        "description": "ติดต่อ สอบถาม เบอร์ 0877889906",
        "id": "442701799169917",
        "name": "ร้านน่านจานดาวเทียม - จำหน่าย\u0026ติดตั้งแอร์บ้านและกล้องวงจรปิดและจานดาวเทียม"
    },
    {
        "about": "รับซ่อม-ติดตั้งระบบไฟฟ้าภายใน-ภายนอกอาคาร\nรับติดตั้งจานดามเทียมทุกรุ่น ราคาถูก โทร.0857924976",
        "id": "249086978593453",
        "location": {
            "city": "จ.ตรัง",
            "street": "อ.กันตัง",
            "zip": "92110"
        },
        "name": "ช่างหลี ซ่อม-ติดตั้งระบบไฟฟ้า จานดาวเทียม 0857924976",
        "phone": "0857924976"
    },
    {
        "id": "489907524479274",
        "name": "T-J  Air\u0026Service รับติดตั้งแอร์ จานดาวเทียม น้ำอุ่น",
        "phone": "0846576300"
    },
    {
        "about": "ราคาเป็นกันเอง",
        "emails": [
            "nakato009@hotmail.com"
        ],
        "id": "297608470414753",
        "location": {
            "city": "Phrae",
            "country": "Thailand",
            "street": "187/2 หมู่ 8 ต.ร่องกาศ อ.สูงเม่น จ.แพร่",
            "zip": "54130"
        },
        "name": "รับซ่อมเครื่องใช้ไฟฟ้าคอมพิวเตอร์และติดตั้งจานดาวเทียม",
        "phone": "09-0674-8662"
    },
    {
        "id": "1629300067284306",
        "location": {
            "city": "Lampang",
            "country": "Thailand",
            "latitude": 18.3,
            "longitude": 99.5,
            "street": "เลขที่ 16 หมู่ 11 ตำบล ชมพู อำเภอเมือง จังหวัดลำปาง",
            "zip": "52100"
        },
        "name": "รับติดตั้งกล้องวงจรปิด จานดาวเทียม ติดตั้งและเดินสายไฟฟ้า",
        "phone": "0850303218"
    },
    {
        "id": "1389443194680355",
        "location": {
            "city": "Bangkok",
            "country": "Thailand",
            "latitude": 13.65247,
            "longitude": 100.55398,
            "street": "58/16หมู่18",
            "zip": "10130"
        },
        "name": "จำหน่ายและติดตั้งอุปกรจานดาวเทียมทุกชนิดราคาถูก",
        "phone": "0870444795"
    },
    {
        "about": "รับติดตั้งจานดาวเทียมเมืองร้อยเอ็ด \nรับติดตั้งกล้องวงจรปิดเมืองร้อยเอ็ด",
        "id": "1043134245696813",
        "location": {
            "city": "Roi Et",
            "country": "Thailand",
            "latitude": 16.05,
            "longitude": 103.667,
            "street": "ร้อยเอ็ด",
            "zip": "45000"
        },
        "name": "รับติดตั้งจานดาวเทียมเมืองร้อยเอ็ด รับติดตั้งกล้องวงจรปิดเมืองร้อยเอ็ด",
        "phone": "0955555555"
    },
    {
        "about": "จำหน่าย อุปกรณ์ และติดตั้งจานดาวเทียม กล้องวงจรปิด ทุกประเภท",
        "id": "478139465637619",
        "location": {
            "city": "Khonkean",
            "country": "Thailand",
            "latitude": 16.47889,
            "longitude": 102.82676,
            "street": "290ม.23 ถ.ศรีจันทร์ ต.บ้านเป็ด",
            "zip": "40000"
        },
        "name": "จำหน่าย อุปกรณ์ และติดตั้งจานดาวเทียม กล้องวงจรปิด ทุกประเภท",
        "phone": "0862184876"
    }
]