[
    {
        "id": "235492266498673",
        "location": {
            "city": "Bangkok",
            "country": "Thailand",
            "latitude": 13.7000504,
            "longitude": 100.4934464,
            "street": "สะพานใหม่",
            "zip": "10220"
        },
        "name": "รับติดตั้งจานดาวเทียม",
        "phone": "0816682325"
    },
    {
        "id": "864336353591210",
        "name": "ติดตั้งจานดาวเทียม  รับงานเดินสายไฟฟ้าภายในบ้าน อาคาร"
    },
    {
        "about": "การบริการรับติดตั้งจานดาวเทียมสำหรับชมทีวีวิทยุดาวเทียม ทุกระบบ และแอร์ด้วยราคาเบาๆ",
        "description": "การติดตั้งที่รวดเร็วและคุณภาพสูง ราคาประหยัดเริ่มต้นเพียง 2,700 บ.เท่านั้น แล้วคุณจะหมดปัญหาการรับชมทีวีที่ไม่ชัดเจนอีกต่อไป รับประกัน 1 ปีเต็ม",
        "emails": [
            "aordleo@hotmail.com"
        ],
        "id": "261984593830136",
        "location": {
            "city": "Samut Prakan",
            "country": "Thailand",
            "street": "82/338 สุธาวี ถ.บางพลี-ตำหลุ ต.บางพลีใหญ่ อ.บางพลี",
            "zip": "10540"
        },
        "name": "จำหน่ายและติดตั้งจานดาวเทียมทุกระบบ",
        "phone": "0984535790"
    },
    {
        "about": "รับติดตั้งจานดาวเทียม และกล้องวงจรปิด เบอร์ 0965623467",
        "id": "393735150822907",
        "name": "ช่างบอยรับติดตั้งจานดาวเทียม กล้องวงจรปิด จังหวัดตรัง"
    },
    {
        "about": "รับบริการซ่อมถึงบ้านทั่วอำเภอพนมไพร",
        "id": "1630493710557950",
        "location": {
            "city": "Amphoe Phanom Phrai",
            "country": "Thailand",
            "latitude": 15.6833,
            "longitude": 104.117,
            "street": "63ม.5บ้านดอนกลาง"
        },
        "name": "พนมไพรช่างต้ารับซ่อมเครื่องใช้ไฟฟ้าทุกชนิดบริการถึงบ้านติดตั้งจานดาวเทียม",
        "phone": "0810572705"
    },
    {
        "id": "1525897521001781",
        "location": {
            "city": "Chaiyaphum",
            "country": "Thailand",
            "latitude": 15.95068,
            "longitude": 102.00325,
            "street": "49/15ถ.นิเวศรัตน์(ตรงข้ามปั้มปตท.)ในเมืองชัยภูมิ",
            "zip": "36000"
        },
        "name": "ติดตั้งจานดาวเทียม ชัยภูมิ 0839661544",
        "phone": "0839661544"
    },
    {
        "about": "จำหน่ายและติดตั้ง จานดาวเทียมทุกยี่ห้อ 0957949969\nราคาถูก เริ่มต้น 1990 ถึง 2500บาท\n    ",
        "id": "1441074386184635",
        "location": {
            "city": "Amphoe Lam Luk Ka",
            "country": "Thailand",
            "latitude": 13.9495831,
            "longitude": 100.6299362,
            "street": "10/15",
            "zip": "12150"
        },
        "name": "จานดาวเทียม พร้อมติดตั้ง ลำลูกกา 0957949969",
        "phone": "0957949969"
    },
    {
        "id": "921226907934949",
        "location": {
            "city": "Thung Song",
            "country": "Thailand",
            "latitude": 8.15,
            "longitude": 99.7333,
            "street": "หมู่ที่ 6 ต.นาหลวงเสน",
            "zip": "80110"
        },
        "name": "Jkm.จานดาวเทียม \"จำหน่ายติดตั้งจานดาวเทียม",
        "phone": "0848899044"
    },
    {
        "emails": [
            "ppcableplus@gmail.com"
        ],
        "id": "449498951797931",
        "location": {
            "city": "Bangkok",
            "country": "Thailand",
            "latitude": 13.70283,
            "longitude": 100.67317,
            "street": "ซอยรามคำแหง5 ถนนรามคำแหง  แขวง สวนหลวง เขต สวนหลวง",
            "zip": "10250"
        },
        "name": "รับติดตั้งจานดาวเทียม,กล้องวงจรปิดกับช่างใหญ่",
        "phone": "0865542949"
    },
    {
        "about": "รับทำระบบแอร์ ระบบไฟฟ้าโรงงาน -บ้าน จานดาวเทียม กล้องวงจรปิด ราคากันเองสอบถามได้ครับ ",
        "id": "1553292834901177",
        "location": {
            "city": "Bangkok",
            "country": "Thailand",
            "latitude": 13.89203,
            "longitude": 102.3733,
            "street": "1082 ม.10 ต.วัฒนานคร อ.วัฒนานคร จ.สระแก้ว",
            "zip": "27160"
        },
        "name": "สรพงษ์แอร์เซอร์วิส รับติดตั้งระบบแอร์ ระบบไฟฟ้า จานดาวเทียม กล้องวงจรปิด",
        "phone": "0847803256"
    },
    {
        "about": "รับงานติดตั้ง จานดาวเทียมทุกรุ่น ทุกแบบ แก้ไข. รับติดตั้งกล้องวงจรปิด ของแท้ Watashi ",
        "id": "354333287979890",
        "location": {
            "city": "Chiang Mai",
            "country": "Thailand",
            "latitude": 18.789609320549,
            "longitude": 98.981056269836,
            "street": "29/1 ตำบลสันปูเลย อำเภอดอยสะเก็ด จังหวัดเชียงใหม่ 50220",
            "zip": "50220"
        },
        "name": "ร้านติดตั้งจานดาวเทียมและกล้องวงจรปิด :Technology Power Quality",
        "phone": "088-2613530"
    },
    {
        "about": "บริการติดตั้งจานดาวเทียม ทุกยี่ห้อ ทุกรุ่น.",
        "description": "รับติดตั้ง แก้ไขงาน ปรับจูนจาน ย้ายจาน เพิ่มจุดดู สอบถามได้ที่ tel 085-545-8182 \nบริการทุกระดับประทับใจ ครับ ",
        "emails": [
            "naruponpon@hotmail.com"
        ],
        "id": "786872344667807",
        "location": {
            "city": "Nakhon Sawan",
            "country": "Thailand",
            "latitude": 15.69823,
            "longitude": 100.17683,
            "street": "402 /2 ม10 ต.วัดไทร อ.เมือง จ นครสวรรค์",
            "zip": "60000"
        },
        "name": "จาน ดาวเทียม รับติดตั้ง จานดาวเทียม นครสวรรค์ 085-545-8182 บ้านหมอ sat",
        "phone": "085-545-8182"
    },
    {
        "about": "รับติดตั้งกล้องวงจรปิด จานดาวเทียม จำหน่ายกล้องวงจรปิดราคาถูก สุราษฎร์ธานี โทร  094 316 2121",
        "description": "ผู้แทน จำหน่าย ติดตั้ง กล้องวงจรปิด จานดาวเทียม ประตูคีย์การ์ด บริการสำรวจหน้างานก่อนติดตั้ง ฟรี! กล้องมีคุณภาพ บริการจิงใจ ",
        "emails": [
            "dinsamui@hotmail.com"
        ],
        "id": "1529265007315841",
        "location": {
            "city": "Surat Thani",
            "country": "Thailand",
            "latitude": 9.09542,
            "longitude": 99.3073,
            "street": "ร้านดีเคคอมพิวเตอร์ (DK COMPUTER)",
            "zip": "84000"
        },
        "name": "รับติดตั้งกล้องวงจรปิด จานดาวเทียม ประตูคีย์การ์ด ราคาถูก สุราษฎร์ธานี",
        "phone": "0943162121"
    },
    {
        "about": "รับติดตั้ง ออกแบบ ให้คำปรึกษา\nงานด้านจานดาวเทียม\nและกล้องวงจรปิด",
        "emails": [
            "jo_jirasak@hotmail.com"
        ],
        "id": "1603811539849831",
        "location": {
            "city": "Bangkok",
            "country": "Thailand",
            "latitude": 13.81913,
            "longitude": 100.67546,
            "street": "11/11 ซ.นวลจันทร์56 แยก3 แขวงนวลจันทร์ เขตบึงกุ่ง จ.กรุงเทพ",
            "zip": "10230"
        },
        "name": "ติดตั้งจานดาวเทียมและกล้องวงจจรปิด",
        "phone": "0836119009"
    },
    {
        "about": "ผู้เชี่ยวชาญด้านจานดาวเทียม",
        "id": "184340378439177",
        "name": "ติดตั้งจานดาวเทียม"
    },
    {
        "about": "ติดกล่องหยอดเหรียญซักผ้า 2999./ ซ่อมคอม / ติดตั้งกล้องวงจรปิด / ติดจานดาวเทียม",
        "id": "194675787365097",
        "location": {
            "city": "Surin",
            "country": "Thailand",
            "latitude": 14.90883,
            "longitude": 103.48616,
            "street": "28/2",
            "zip": "32000"
        },
        "name": "ติดกล่องหยอดเหรียญ ล้างถังเครื่องซักผ้า ติดจานดาวเทียม ติดกล้องวงจรปิด",
        "phone": "082-1271282"
    },
    {
        "about": "รับติดตั้งจานดาวเทียม ระบบแอร์ ระบบไฟฟ้า กล้องวงจรปิด โดยทีมช่างมืออาชีพ",
        "id": "146384792239426",
        "name": "ติดตั้งจานดาวเทียม ปรับสัญญาณ ซ่อม ล้าง แอร์ ระบบไฟฟ้า กล้องวงจรปิด อยุธยา"
    },
    {
        "about": "รับติดตั้งจานดาวเทียมทุกชนิด",
        "description": "ดูดีดูชัด ไม่มีรายเดือน เริ่มต้อที2,250บาท  รับประกันฟรี2ปี  แลกกล้องวงจรปิด ทุกแบบ สนใจติดต่อได้ที่[082-865-0096][0866538477]",
        "id": "337982226232131",
        "name": "ร้านติดตั้งจานดาวเทียม ทีแซทเทิลไลท์2"
    },
    {
        "about": "รับติดตั้ง ซ่อม จำหน่าย จานดาวเทียมทุกชนิด จังหวัดสมุทรสาคร",
        "id": "314316122029631",
        "name": "รับติดตั้ง ซ่อม จานดาวเทียมสมุทรสาคร"
    },
    {
        "about": "รับติดตั้งจานดาวเทียมและให้คำปรึกษา ",
        "id": "396247063775812",
        "name": "รับติดตั้งจานดาวเทียมและให้คำปรึกษา",
        "phone": "083-7890780"
    },
    {
        "about": "รับติดตั้งจานดาวเทียมทุกชนิด และ\nจำหน่ายกล่องReceiver(psi,true,ipm,dtv,sunbox) ",
        "id": "118567201683987",
        "location": {
            "city": "Bangkok",
            "country": "Thailand",
            "street": "56 หมู่1 อนุสาวรีย์ บางเขน",
            "zip": "10220"
        },
        "name": "รับติดตั้ง:จำหน่าย  จานดาวเทียมและกล่องreceiver ทุกชนิด",
        "phone": "0858423698"
    },
    {
        "about": "ร้านเกมส์ ซ่อมคอมพิวเตอร์ ระบบประปา อุปกรณ์  เครื่องปรับอากาศ จานดาวเทียม ระบบไฟภายในบ้าน",
        "description": "รับติดตั้งวางระบบร้านอินเตอร์เน็ต-เกมส์ diskless ,clarkconnect รวมทั้งงานติดตั้งซ่อมระบบเครื่องปรับอากาศล้างแอร์ราคาประหยัด งานติดตั้งจานดาวเทียมติดตั้งเครื่องใช้ไฟฟ้าภายในบ้านงานต่อเดิมเดินท่อประปาก็รับนะครับ",
        "general_info": "0933435256 ,www.playtnet.com",
        "id": "228117400580151",
        "name": "ร้านเกมส์ ติดกล้องวงจรปิด จานดาวเทียม ฯลฯ"
    },
    {
        "about": "ต่อเติมบ้าน",
        "id": "144832862374589",
        "location": {
            "city": "Thiyala",
            "country": "Thailand",
            "latitude": 8.73367,
            "longitude": 99.74692,
            "street": "26/1ม.6 โพธิ์ทอง อ.ท่าศาลาจ.นครศรีฯ",
            "zip": "80160"
        },
        "name": "รับติดตั้งจานดาวเทียมระบบไฟฟ้าภายในภายนอกและกล้องวงจรปิด",
        "phone": "0884405170"
    },
    {
        "about": "https://www.facebook.com/flove.sunnymixza",
        "description": "รับติดตั้งจานCTH จานดาวเทียมทุกชนิด ติดตั้งกล้องวงจรปิด รับซ่อมLCD-LED-TV-เครื่องใช้ไฟฟ้าทุกชนิด080-6202276 ที่อยู่ 24/4ม.9ต.หนองปลาไหลอ.บางละมุงจ.ชลบุรี20150",
        "id": "1814889848651739",
        "location": {
            "city": "พัทยา",
            "street": "24/4ม.9ต.หนองปลาไหลอ.บางละมุงจ.ชลบุรี",
            "zip": "ชลบุรี"
        },
        "name": "ติดจานดาวเทียมกล้องวงจรปิดรับซ่อมLcd ช่างF",
        "phone": "0806202276"
    },
    {
        "id": "936686399736080",
        "location": {
            "city": "Nakhon Ratchasima",
            "country": "Thailand",
            "latitude": 14.9596004,
            "longitude": 102.0606308,
            "street": "ปากช่อง",
            "zip": "30130"
        },
        "name": "รับติดตั้ง จานดาวเทียม กล้องวงจรปิด อินเตอร์เน็ต WiFi Hotspot",
        "phone": "0836065318"
    }
]