[
    {
        "id": "793084290810459",
        "location": {
            "city": "Rayong",
            "country": "Thailand",
            "latitude": 12.6742,
            "longitude": 101.279,
            "street": "อ.แกลง",
            "zip": "21110"
        },
        "name": "จำหน่าย ติดตั้ง ซ่อม แอร์ จานดาวเทียม กล้องวงจรปิด",
        "phone": "0899525266"
    },
    {
        "id": "359109557619862",
        "location": {
            "city": "Nakhon Pathom",
            "country": "Thailand",
            "latitude": 13.8206,
            "longitude": 100.062,
            "street": "38/15",
            "zip": "72000"
        },
        "name": "ล้างแอร์นครปฐม  ติดตั้งกล้องวงจรปิด ติดตั้งจานดาวเทียม",
        "phone": "0877595500, 0991814224"
    },
    {
        "about": "รับติดตั้ง จานดาวเทียม ติดต่อ\n085-707-8585/053-010-191",
        "id": "807218802727652",
        "name": "ช่างติดตั้งจานดาวเทียม"
    },
    {
        "id": "756633404459883",
        "location": {
            "city": "Amphoe Pak Chong",
            "country": "Thailand",
            "latitude": 14.7042,
            "longitude": 101.413,
            "street": "ปากช่อง",
            "zip": "30130"
        },
        "name": "E.M.แซท ติดตั้งเครื่องใช้ไฟฟ้า จานดาวเทียม,แอร์ และอื่นๆ",
        "phone": "0844790006"
    },
    {
        "about": "จำหน่ายและรับติดตั้งอุปกรณ์ไฟฟ้า จานดาวเทียม กล้องวงจรปิด",
        "emails": [
            "chaiyaprom@hotmail.com"
        ],
        "id": "296876567054726",
        "location": {
            "city": "Chiang Mai",
            "country": "Thailand",
            "street": "204/5 หมู่ 2 ตำบลสันพระเนตร อำเภอสันทราย",
            "zip": "50210"
        },
        "name": "ร้านโตไกไฟฟ้า ขายอุปกรณ์ไฟฟ้า ตัวแทนติดตั้งจานดาวเทียม ซีทีเอซ",
        "phone": "053492757"
    },
    {
        "about": "จำหน่าย ติดตั้งจานดาวเทียมสกลนครสนใจติดต่ิิิอ 083-3355515 ราคาถูกที่สุดในสกลนคร",
        "emails": [
            "gtsat@hotmail.co.th"
        ],
        "id": "400507793344787",
        "location": {
            "zip": "47000"
        },
        "name": "จานดาวเทียมสกลนคร จำหน่าย ติดตั้งจานดาวเทียม กล้องวงจรปิด ทุกชนิด",
        "phone": "0833355515"
    },
    {
        "about": "รับซ่อม ติดตั้ง จานดาวเทียม กล้องวงจรปิด ไฟฟ้า แอร์",
        "id": "1622696101341946",
        "name": "รับซ่อม ติดตั้ง จานดาวเทียม กล้องวงจรปิด ไฟฟ้า แอร์"
    },
    {
        "about": "ให้คำปรึกษาเครื่องจานดาวเทียม แอร์บ้าน โทร 0859057134 , 0847232137  LINE ID tongyuenyong",
        "id": "1400613260161213",
        "location": {
            "city": "Selaphum",
            "country": "Thailand",
            "latitude": 16.01262,
            "longitude": 104.01179,
            "street": "7 หมู่ 12 บ้านมะหรี่ ต.ภูเงิน อ.เสลภูมิ จ.ร้อยเอ็ด",
            "zip": "45120"
        },
        "name": "โต้งดาวเทียม ซ่อมขายติดตั้ง จานดาวเทียม แอร์บ้าน  เครื่องใช้ไฟฟ้า",
        "phone": "0859057134"
    },
    {
        "about": "บริการรับซ่อม ติดตั้ง แอร์บ้านนครสวรรค์ วงจรปิดนครสวรรค์ จานดาวเทียมนครสวรรค์",
        "id": "1439441182975880",
        "name": "บริการรับซ่อม ติดตั้ง แอร์บ้าน วงจรปิด จานดาวเทียม จ.นครสวรรค์"
    },
    {
        "id": "274571492723660",
        "name": "ช่างติดตั้งจานดาวเทียม"
    },
    {
        "about": "ช่างไฟฟ้า รับเหมาระบบไฟฟ้า ช่างประปา ซ่อมประปา ติดตั้งจานดาวเทียม",
        "id": "1452025658360394",
        "location": {
            "city": "Amphoe Muang Phet Buri",
            "country": "Thailand",
            "latitude": 13.07332,
            "longitude": 99.94521,
            "street": "อำเภอเมืองเพชรบุรี",
            "zip": "76000"
        },
        "name": "ช่างไฟฟ้า รับเหมาระบบไฟฟ้า ซ่อมไฟฟ้า ช่างประปา ซ่อมประปา ติดตั้งจานดาวเทียม",
        "phone": "084-0188395"
    },
    {
        "about": "ยินดีรับใช้และบริการครับ  ขอบคุณทุกท่าน ที่ไว้วางใจร้านธานินทร็ อิเล็กทรอนิคน์ครับ",
        "id": "1541330576113206",
        "location": {
            "city": "Amphoe Bang Saphan",
            "country": "Thailand",
            "latitude": 11.37355,
            "longitude": 99.49528,
            "street": "118 หมู่3 ต.ธงชัย อ.บางสะพาน จ.ประจวบคีรีขันธ์",
            "zip": "77190"
        },
        "name": "ร้านธานินทร์ อิเล็กทรอนิคส์ ซ่อม ทีวี เครื่องใช้ไฟฟ้า และติดตั้งจานดาวเทียม",
        "phone": "0892096824"
    },
    {
        "id": "455698527967571",
        "name": "ตำแหน่งช่างติดตั้งจานดาวเทียม"
    },
    {
        "about": "ธุระกิจท้องถิ่น",
        "id": "507893789281885",
        "location": {
            "city": "Phra Pradaeng",
            "country": "Thailand",
            "latitude": 13.65247,
            "longitude": 100.55398,
            "street": "1/106 หมู่ 8 ต. บางครุ",
            "zip": "10130"
        },
        "name": "จำหน่ายอุปกรณ์จานดาวเทียมและติดตั้งจานดาวเทียม 084-9359545",
        "phone": "084-9359545"
    },
    {
        "id": "1017707354916279",
        "name": "จำหน่ายแอร์+จานดาวเทียม+ช่างซ่อมและติดตั้ง.ไฟฟ้า.แอร์.น้ำอุ่น.และจานดาวเทียม"
    },
    {
        "id": "424685941044953",
        "name": "เดี่ยว ดาวเทียม - รับติดตั้งจานดาวเทียม"
    },
    {
        "about": "บริการรับติดตั้งจานดาวเทียมและจำหน่ายอุปกรณ์ดาวเทียม\nพื้นที่บริการ กรุงเทพฯและนนทบุรี",
        "description": "บริการรับติดตั้งจานดาวเทียมแบบตะแกรง C-Band จานทึบ KU-Band ฟรีไม่มีรายเดือน แบบ HD พร้อมจำหน่ายอุปกรณ์ดาวเทียม สามารถชมช่องรายการทีวีดิจิตอล กล่องรับสัญญาณ PSI GMM Z IDEASAT THAISAT LEOTECH จานส้ม IPM SUNBOXดูบอล CTHดูบอล true Vision HD สามารถเลือกแพคเกตเสริมต่างๆ ของค่าย CTH ดูบอล ,หนัง,สารคดี,บันเทิง รับดาวเทียมดวง THAICOM5/6 , NSS6 , ASIASAT3/7, VINASAT1 รับปรับแก้ไขหน้าจานและแก้ไขสัญญาณหรือเพิ่มจุดรับชมและย้ายจุดรับชม สนใจติดตั้งจานดาวเทียม รวมทั้งงานไฟฟ้าภายในบ้าน งานกล้องวงจรปิด งานWireless/Wifi สนใจติดต่อเลยนะครับที่ B\u0026P แซทเทิลไลท์ 0851484569,0968901459 ",
        "emails": [
            "bew-sermchai@hotmail.com"
        ],
        "id": "967206686645124",
        "location": {
            "city": "ไทย",
            "street": "B\u0026P SATELLITE  รับติดตั้งจานดาวเทียม  ถ.เพชรเกษม  ขตภาษีเจริญ จ.กรุงเทพมหานคร",
            "zip": "10160"
        },
        "name": "B\u0026P แซทเทิลไลท์ บริการรับติดตั้งจานดาวเทียม กล้องวงจรปิด ไฟฟ้าภายในบ้าน",
        "phone": "0851484569"
    },
    {
        "id": "857962950919299",
        "location": {
            "city": "Bangkok",
            "country": "Thailand",
            "latitude": 13.8315258,
            "longitude": 100.665184,
            "street": "30/215 ซ.นวมินทร์80 ถ.นวมินทร์ คลองกุ่ม บึงกุ่ม  กรุงเทพ",
            "zip": "10230"
        },
        "name": "รับติดตั้งจานดาวเทียมทุกชนิด และงานระบบ MATV"
    },
    {
        "about": "รับสัญาณดาวเที่ยมแบบขายขาด ดูฟรีกว่า 250 ช่องรายการ\nรองรับช่องรายการในระบบ HD (High Definition )\n",
        "id": "1451796508372797",
        "location": {
            "city": "Bangkok",
            "country": "Thailand",
            "latitude": 13.67908,
            "longitude": 100.61183,
            "street": "สุขุมวิท48",
            "zip": "10260"
        },
        "name": "ร้านเพื่อนช่าง จำหน่าย-ติดตั้ง จานดาวเทียม",
        "phone": "0954571063"
    },
    {
        "id": "755937587794481",
        "location": {
            "city": "Sa Kaeo",
            "country": "Thailand",
            "latitude": 13.89203,
            "longitude": 102.3733,
            "street": "418/1 หมู่10 ตำบลวัฒนานคร อำเภอวัฒนานคร จังหวัดสระแก้ว",
            "zip": "27160"
        },
        "name": "ร้านวัฒนา มือ2 จำหน่ายและติดตั้งอุปกรณ์จานดาวเทียม",
        "phone": "0984086733"
    },
    {
        "general_info": "ร้าน อภิวัฒน์อิเลคทริค รับติดตั้งจานดาวเทียม บ้านพัก,อพาร์ทเม้นท์,รีสอร์ท,คอนโด,งานระบบ และยังรับซ่อมแซม แก้ไข ย้ายจุด เพิ่มจุด เสาอากาศทีวีดิจิตอล",
        "id": "1479069759079657",
        "location": {
            "city": "Bankok",
            "country": "Thailand",
            "latitude": 13.8336697,
            "longitude": 100.5545502,
            "street": "333/2 หมู่2 ต.ดอนไก่ดี อ.กระทุ่มแบน",
            "zip": "74110"
        },
        "name": "ร้านอภิวัฒน์อิเลคทริค รับติดตั้งจานดาวเทียม",
        "phone": "0874018432"
    },
    {
        "id": "472528849583762",
        "name": "ขายกาแฟโบราณ เย็นชา ซ่อมเครื่องใช้ไฟฟ้าทุกชนิด รับติดตั้งจานดาวเทียม"
    },
    {
        "description": "Satelite",
        "id": "127292260797352",
        "location": {
            "city": "Ko Phangan",
            "country": "Thailand",
            "latitude": 9.7189318573842,
            "longitude": 99.995733046042,
            "street": "8/3 หมู่ที่ 2",
            "zip": "84280"
        },
        "name": "ร้านพิริยะ เซอร์วิส ติดตั้งจานดาวเทียม",
        "phone": "077377264"
    },
    {
        "about": "บริการติดตั้งจานดาวเทียมและกล้องวงจรปิด",
        "id": "478846862290670",
        "location": {
            "city": "Bangkok",
            "country": "Thailand",
            "latitude": 13.8054895,
            "longitude": 100.8110199,
            "street": "ช่างติดตั้งจานดาวเทียม",
            "zip": "10150"
        },
        "name": "Chansat\u0026services",
        "phone": "0816542933"
    },
    {
        "id": "697175507022172",
        "location": {
            "city": "Chor Buri",
            "country": "Thailand",
            "latitude": 13.27807,
            "longitude": 100.94488,
            "street": "500 ถ.อ่างศิลา-บางแสน ต.แสนสุข อ.เมือง จ.ชลบุรี",
            "zip": "20130"
        },
        "name": "ติดตั้งจานดาวเทียม จ.ชลบุรี ราคาถูก",
        "phone": "0845638354"
    }
]