[
    {
        "about": "จำหน่าย ติดตั้ง กล้องวงจรปิด  จานดาวเทียม เสาทีวีดิจิตอล ทีวีอพาร์ทเม้นท์",
        "description": "บริการติดตั้งจานดาวเทียม กล้องวงจรปิด และระบบทีวีรวมอพาร์ทเม้นท์  \nติดตั้งเสาทีวีดิจิตอล , วางระบบ L BAND และ ดิจิตอลทีวี สำหรับคอนโด \nบริการเซ็ทอัพกล้องวงจรปิดดูผ่านมือถือ",
        "emails": [
            "tonsateng@gmail.com"
        ],
        "id": "1439626136309657",
        "location": {
            "city": "เมือง จ.นนทบุรี",
            "street": "30/6 ม.3 ต.บางรักน้อย (หน้าหมู่บ้านเพอเฟคเพลสไทรม้า)",
            "zip": "11000"
        },
        "name": "หจก.ต้นแซท ดอตเน็ท จำหน่ายและติดตั้ง จานดาวเทียม กล้องวงจรปิด",
        "phone": "6608-0448-6555"
    },
    {
        "id": "1591934097729567",
        "location": {
            "city": "Bangkok",
            "country": "Thailand",
            "latitude": 13.7522,
            "longitude": 100.494,
            "street": "จังหวัดสุราษฎร์ธานี",
            "zip": "81160"
        },
        "name": "ติดตั้งซ่อมจำหน่ายจานดาวเทียมและกล้องวงจรปิด",
        "phone": "0922751988"
    },
    {
        "about": "- รับเหมาติดตั้งระบบไฟฟ้า จานดาวเทียม กล้องวงจรปิด ภายในอาคาร สำนักงาน พร้อมรับปรึกษา\n",
        "id": "424930790969267",
        "location": {
            "city": "อำนาจเจริญ",
            "street": "167/1 หมู่ 1 ตำบลบุ่ง",
            "zip": "37000"
        },
        "name": "ติดตั้งระบบไฟฟ้า จานดาวเทียม กล้องวงจรปิด อำนาจเจริญ",
        "phone": "081-4703397"
    },
    {
        "about": "0802566230",
        "description": "จานดาวเทียมราคาถูก",
        "id": "247241835476671",
        "location": {
            "city": "Amphoe Muang Pathum Thani",
            "country": "Thailand",
            "latitude": 13.99861,
            "longitude": 100.53008,
            "street": "70/194 มบ.ปัญชลีย์ ต.บางปรอก",
            "zip": "12000"
        },
        "name": "PTSAT ศูนย์บริการติดตั้งจานดาวเทียม ครบวงจร",
        "phone": "0802566230"
    },
    {
        "id": "769947483044345",
        "location": {
            "city": "Amphoe Muang Lamphun",
            "country": "Thailand",
            "latitude": 18.53688,
            "longitude": 99.07746,
            "street": "183 ถ.พระคง์ฤาษี ต.ในเมือง อ.เมือง จ.ลำพูน",
            "zip": "51000"
        },
        "name": "ติดตั้งจานดาวเทียม psi thaisat ซ่อม ย้าย ราคาถูก เชียงใหม่ ลำพูน",
        "phone": "0861838275"
    },
    {
        "id": "1666676586951878",
        "location": {
            "city": "Surat Thani",
            "country": "Thailand",
            "latitude": 9.1077633,
            "longitude": 99.3726501,
            "street": "64/30 ตำบลตลาด",
            "zip": "84000"
        },
        "name": "ร้าน St. Service ติดตั้งกล้องวงจรปิด  จานดาวเทียม",
        "phone": "0897386086"
    },
    {
        "id": "383887581750462",
        "location": {
            "city": "Lampun",
            "country": "Thailand",
            "latitude": 18.53688,
            "longitude": 99.07746,
            "street": "183 พระคงฤาษี",
            "zip": "51000"
        },
        "name": "ติดตั้ง จานดาวเทียม กล้องวงจรปิด แอร์ เมทัลชีท ตู้คอลโทรล ลำพูน เชียงใหม่",
        "phone": "0861838275"
    },
    {
        "id": "777364262360153",
        "location": {
            "city": "Khon Kaen",
            "country": "Thailand",
            "latitude": 16.4354897,
            "longitude": 102.8407211,
            "street": "ขอนแก่น",
            "zip": "40000"
        },
        "name": "รับติดตั้งจานดาวเทียมขอนแก่น รับติดตั้งกล้องวงจรปิดขอนแก่น",
        "phone": "0800000000"
    },
    {
        "about": "เครื่องใช้ไฟฟ้า",
        "id": "1441362072844585",
        "location": {
            "city": "Amphoe Banphot Phisai",
            "country": "Thailand",
            "latitude": 15.9342,
            "longitude": 99.9789,
            "street": "หนองกรด",
            "zip": "60180"
        },
        "name": "รับติดตั้ง-ซ่อม-ล้าง แอร์บ้าน จานดาวเทียม เดินระบบไฟฟ้าภายในบ้าน",
        "phone": "0618037298"
    },
    {
        "about": "รับติดตั้งจานดาวเทียม CTH โคราช",
        "description": "ชม ฟุตบอลพรีเมียร์ลีค อังกฤษ  ในระบบ HD  พร้อมกับช่องหนังภาพยนต์อีกมากมายหลายช่อง",
        "id": "499356020136711",
        "location": {
            "city": "Nakhon Ratchasima",
            "country": "Thailand",
            "latitude": 14.959615474096,
            "longitude": 102.06066066906,
            "street": "1067 ถ.มุขมนตรี ต.ในเมือง อ.เมือง จ.นครราชสีมา",
            "zip": "30000"
        },
        "name": "ติดตั้งจานดาวเทียม cth นครราชสีมา",
        "phone": "044-259739"
    },
    {
        "about": "เว็บไซด์เพื่อการจำหน่ายจานดาวเทียมติดรถยนต์ รับติดตั้ง ",
        "description": "ขายและติดตั้ง จานดาวเทียมติดรถยนต์ ติดเรือ ในราคาเป็นกันเอง และหากท่านใดต้องการซื้อราคาส่งโปรดแจ้งพนักงานขาย ที่ 02-692-6912\n\nเราจัดส่งด้วยความรวดเร็ว จดทะเบียนกับกรมพัฒนาธุรกิจการค้าเรียบร้อยแล้ว",
        "id": "402744555390",
        "location": {
            "city": "ดินแดง กรุงเทพ",
            "street": "30 ถนนประชาราษฎร์บำเพ็ญ แขวง/เขตดินแดง กรุงเทพฯ 10400",
            "zip": "10400"
        },
        "name": "จานดาวเทียมติดรถ / ติดเรือ  โทร. 02-277-1141",
        "phone": "02-692-6912"
    },
    {
        "about": "สามารถสอบถามรายละเอียดและราคาได้ที่ 086-348-1644 หรือทางไลน์ไอดี praw5034  ค่ะ",
        "description": "ติดตั้ง จานดาวเทียม และกล้องวงจรปิด ทุกชนิด\n\nสามารถสอบถามรายละเอียดและราคาได้ที่ 086-348-1644 หรือทางไลน์ไอดี praw5034 ค่ะ",
        "id": "244331868943968",
        "name": "ติดตั้งจานดาวเทียม (มหาศาล เซอร์วิส)",
        "phone": "086-348-1644"
    },
    {
        "about": "ทรัพย์อิเลคทริค  บริการติดจานดาวเทียม ล้างแอร์ จ.ขอนแก่น",
        "emails": [
            "chatchai.pentor@gmail.com"
        ],
        "id": "342371412573659",
        "location": {
            "city": "Amphoe Muang Khon Kaen",
            "country": "Thailand",
            "latitude": 16.47889,
            "longitude": 102.82676,
            "street": "ต.ในเมือง",
            "zip": "40000"
        },
        "name": "ติดจานดาวเทียม ล้างแอร์ ขอนแก่น",
        "phone": "08-1954-0014"
    },
    {
        "description": "รับติดตั้งจานดาวเทียม งานระบบอพาร์ทเม้น กล้องวงจรปิด โปรเจ็คเตอร์",
        "emails": [
            "somrede@yahoo.com"
        ],
        "id": "615463785236604",
        "location": {
            "city": "นนทบุรี",
            "street": "ซอย เรวดี",
            "zip": "11000"
        },
        "name": "TR sat\u0026cctv รับติดตั้งจอโปรเจคเตอร์ กล้องวงจรปิด จานดาวเทียม งานระบบ",
        "phone": "0860131630"
    },
    {
        "about": "รับติดตั้งจานดาวเทียมในพื้นที่จังหวัดภูเก็ต",
        "description": "รับติดตั้งจานทุกชนิด จานดำ จานส้ม จานเหลือง จานแดง\nติดตั้งดาว chainasat จีน ไทย เยอรมัน ฝรั่งเศส อิตาลี่ รัสเซีย\nเวียดนาม พม่า ลาว astro จานหมุนดูทั่วโลก",
        "emails": [
            "kannikapanin9@hotmail.com"
        ],
        "general_info": "รับซ่อมแก้ไขหน้าจาน งานติดตั้งใหม่ จานรับจีน จานรับฝั่งเศส จานรับเยอรมัน อิตาลี่ BBC และื่นๆอีกมากมาย",
        "id": "434208803342601",
        "location": {
            "city": "Phuket",
            "country": "Thailand",
            "latitude": 7.8792944,
            "longitude": 98.3927155,
            "street": "35/70 หมู่ 1 ถ.ศักดิเดช    ต.วิชิต อ.เมือง จ.ภูเก็ต",
            "zip": "83000"
        },
        "name": "ร้านติดตั้งจานดาวเทียมภูเก็ต",
        "phone": "0848385299"
    },
    {
        "id": "1595628310695165",
        "name": "ติดตั้งจานดาวเทียม"
    },
    {
        "about": "จำหน่อยจานดาวเทียม และ ติดตั้งทั้งไทยและประเทศลาว",
        "id": "154722827873119",
        "location": {
            "city": "กรุงเทพมหานคร",
            "street": "53/4 ซอยเพชรเกษม 81 แขวงหนองค้างพลู เขตหนองแขม",
            "zip": "10160"
        },
        "name": "มงคลชัยแซทเทิลไลท์(หนองแขม) รับติดตั้งจานดาวเทียมและกล้องวงจรปิด",
        "phone": "024206679,0814241820"
    },
    {
        "id": "1627270304157243",
        "name": "ช่างจานดาวเทียม. กล้องวงจรปิด  ติดตั้ง  จำหน่าย"
    },
    {
        "about": "งานแอร์-จานดาวเทียมให้เราดูแลแทนคุณ ",
        "id": "524766117577462",
        "name": "ธนกิจการช่าง บริการติดตั้งแอร์-จานดาวเทียม"
    },
    {
        "about": "จานดาวเทียม ระบบทีวีรวมในอาคาร  กล้องวงจรปิด และสัญญาณกันโขมย",
        "description": "- จำหน่ายสินค้าราคาประหยัด  \n- ฟรีค่าติดตั้ง สำหรับชุดจานดาวเทียมแบบบ้าน\n- สำรวจหน้างานฟรี สำหรับระบบทีวีรวม  กล้องวงจรปิดและสัญญาณกันโขมย",
        "emails": [
            "onunu@windowslive.com"
        ],
        "id": "278542328916551",
        "location": {
            "street": "Sukhumvit 101/1",
            "zip": "10260"
        },
        "name": "ศูนย์ติดตั้งจานดาวเทียม ฟอร์เวิร์ดแซทเทิลไลท์",
        "phone": "02-7437006 ,089-7793805"
    },
    {
        "about": "รับเหมา ติดตั้ง วางระบบ จำหน่าย อุปกรณ์ อินเตอร์เนต คอมพิวเตอร์ จานดาวเทียม กล้องวงจรปิด",
        "description": "รับเหมา ติดตั้ง ออกแบบ วางระบบ และจำหน่าย อุปกรณ์อินเตอร์เนต คอมพิวเตอร์ จานดาวเทียม กล้องวงจรปิด\nงานระบบเล็ก - ระบบใหญ่ เช่น บ้าน ร้านค้า สำนักงาน หอพัก คอนโด โรงแรม รีสอร์ท ฯลฯ",
        "id": "237961559656598",
        "location": {
            "city": "Chiang Mai",
            "country": "Thailand",
            "zip": "50130"
        },
        "name": "รับเหมา ติดตั้ง วางระบบ อินเตอร์เนต คอมพิวเตอร์ จานดาวเทียม กล้องวงจรปิด",
        "phone": "0896355360"
    },
    {
        "about": "รับติดตั้งจานดาวเทียมทุกชนิด-service- บริการหลังการขาย ",
        "id": "633647960057447",
        "name": "รับติดตั้งจานดาวเทียมทุกชนิดคับ"
    },
    {
        "about": "ติดตั้งดี  มีมาตรฐาน  สัญาณชัด",
        "id": "285045671684569",
        "location": {
            "city": "Chonburi",
            "country": "Thailand",
            "latitude": 12.68189,
            "longitude": 100.92461,
            "street": "175/62 บางเสร่ สัตหีบ ชลบุรี",
            "zip": "20180"
        },
        "name": "Freeworldsatellite จำหน่าย-ติดตั้งอุปกรณ์จานดาวเทียมและกล้องวงจรปิด",
        "phone": "0856778310// 0862749416 //0868314604"
    },
    {
        "about": "รับติดตั้งจานดาวเทียม บริการถึงที่ เขตพิจิตร โทร 083-1656099",
        "id": "160048987530413",
        "location": {
            "city": "Pichit",
            "country": "Thailand",
            "street": "60 ม. 6  ต.คลองคูณ   ต.ตะพานหิน จ.พิจิตร",
            "zip": "66110"
        },
        "name": "ขาย รับติดตั้งจานดาวเทียม  บริการเขตพิจิตร T.083-1656099",
        "phone": "083-1656099"
    },
    {
        "about": "ช่างมาตรฐาน รับรองจากPSI \nช่างนัท 0855696237\nน้องเอ๋ 0846439611",
        "id": "1486312884964843",
        "name": "น้องเอ๋ จำหน่าย..ติดตั้ง  จานดาวเทียมกล้องวงจรปิด"
    }
]