[
    {
        "about": "ติดตั้งจานดาวเทียม",
        "emails": [
            "ipad_iphone123@hotmail.com"
        ],
        "id": "773000429401975",
        "location": {
            "city": "พญาไท",
            "street": "สามเสน พญาไท กรุงเทพ",
            "zip": "10400"
        },
        "name": "ติดตั้งจานดาวเทียม",
        "phone": "0813623666"
    },
    {
        "about": "ติดตั้งและจำหน่ายจานดาวเทียม",
        "description": "บริการติดตั้งจานดาวเทียม  งานระบบหอพัก  โรงแรม  รีสอร์ท ",
        "id": "183980065113580",
        "location": {
            "city": "Nakhon Ratchasima",
            "country": "Thailand",
            "latitude": 14.959615474096,
            "longitude": 102.06066066906,
            "street": "12/5 ถ.มหาชัย ซ.มหาชัย ต.ในเมือง อ.เมือง",
            "zip": "30000"
        },
        "name": "ติดตั้งจานดาวเทียม NB.Satellite",
        "phone": "0833803277;;0887252591"
    },
    {
        "about": "SATVIEW has over 300 Authorized Dealers in Thailand. They are equipped to:  . sell and install Satview products  . conduct sea or road trials and installations  . basic troubleshooting and modular repairs of Satview products ",
        "id": "105016172954547",
        "name": "จานดาวเทียมติดรถยนต์ Satview",
        "phone": "Call Center : 02-259-3914"
    },
    {
        "about": "เป็นกำลังใจให้ ช่างติดตั้งมาตรฐาน PSI กด.. ถูกใจเพจ.. ให้น่อยนะ ครับ",
        "description": "ร้าน เรามีบริการ ติดตั้ง จานดาวเทียม ย้ายตำแหน่ง ปรับจูนจาน เพิ่มจุดรับชม รับติดตั้ง เสาทีวีดิจิตอล สนใจติดต่อ ช่างเดียว  08-7755-8586 ครับ",
        "emails": [
            "nunsio.16@gmail.com"
        ],
        "id": "697703290338105",
        "location": {
            "city": "Min Buri",
            "country": "Thailand",
            "latitude": 13.860622809403,
            "longitude": 100.70999565582,
            "street": "34/5 หมู่บ้าน มโนรมย์1 ซ.เลียบคลองสอง18 ถ.เลียบคลองสอง แขวงบางชัน เขตคลองสามวา กรุงเทพฯ",
            "zip": "10510"
        },
        "name": "ติดตั้งจานดาวเทียม PSI มีนบุรี คลองสามวา",
        "phone": "08-7755-8586"
    },
    {
        "about": "ติดตั้งจานดาวเทียม Psi กล้องวงจรปิด ประตูอัตโนมัติ\n",
        "description": "ซ่อม จำหน่าย ติดตั้งจานดาวเทียม PSI DTV IPM กล้องวงจรปิด magic ดูผ่านอินเตอร์เน็ตและมือถือ ASCCTV  ระบบประตูอัตโนมัติ คีย์การ์ดควบคุมประตู วางระบบสายอากาศทีวี SMATV-CATV-CCTV-MATV จังหวัดอุดรธานี",
        "general_info": "ร้านพงศธรอิเล็กทรอนิกส์ จังหวัดอุดรธานี",
        "id": "478140095529719",
        "location": {
            "city": "Udon Thani",
            "country": "Thailand",
            "latitude": 17.39122,
            "longitude": 102.77796,
            "street": "644 ซอยสุวรรณ ถนนอำเภอ ตำบลหมากแข้ง อำเภอเมือง",
            "zip": "41000"
        },
        "name": "ติดตั้งจานดาวเทียม Psi Dtv Ipm กล้องวงจรปิด ประตูอัตโนมัติ จังหวัดอุดรธานี",
        "phone": "0819753554 , 042244335"
    },
    {
        "about": "ขายขาเเขวน รับติดตั้งขาเเขวนTV รับติดตั้งจานดาวเทียม \n\nช่างติดตั้งมีความชำนาญเฉพาะทาง ",
        "emails": [
            "ulovetv@gmail.com"
        ],
        "id": "179182285539461",
        "location": {
            "city": "Bangkok",
            "country": "Thailand",
            "latitude": 13.858885,
            "longitude": 100.69228,
            "street": "444/47 PATAGONIA Wat Khubon Rd. Bang Chan Khlong Samwa",
            "zip": "10510"
        },
        "name": "ช่างแมว จำหน่าย ติดตั้ง ขาแขวนทีวี จานดาวเทียม",
        "phone": "0841442985"
    },
    {
        "id": "436331343198119",
        "location": {
            "city": "Bangkok",
            "country": "Thailand",
            "street": "ซอยประชาอุทิศ33เเยก23",
            "zip": "10140"
        },
        "name": "รับติดตั้งจานดาวเทียม",
        "phone": "0830333988"
    },
    {
        "about": "ให้ความรู้ ดูแลหลังการขาย มั่นใจในความเป็นมาตรฐาน",
        "id": "400029320113731",
        "location": {
            "city": "Nakhon Pathom",
            "country": "Thailand",
            "latitude": 13.98716,
            "longitude": 99.94699,
            "street": "ต.ห้วยขวาง อ.กำแพงแสน จ.นครปฐม",
            "zip": "73140"
        },
        "name": "ศูนย์ ติดตั้งจำหน่ายซ่อม จานดาวเทียม กล้องวงจรปิด - จ.นครปฐม",
        "phone": "08369693260899136252"
    },
    {
        "about": "ติดต่อได้ตลอดเวลาครับ...084-078-1978...086-030-5044",
        "emails": [
            "hs3kpi@hotmail.com"
        ],
        "id": "341575382635687",
        "location": {
            "city": "กทม",
            "street": "99/385 ถ.กัลปพฤกษ์ 6 บางหว้า ภาษีเจริญ",
            "zip": "10160"
        },
        "name": "ช่างติดตั้งจานดาวเทียมบางแคบางบอนพระราม2เพชรเกษมตากสินทุ่งครุกาญจนาจรัญฯ",
        "phone": "084-078-1978........086-030-5044"
    },
    {
        "about": "จานดาวเทียมเชียงใหม่ งานระบบทีวีหอพัก อพาร์พเม้นทร์ โรงแรม",
        "emails": [
            "nanasatcctv@gmail.com"
        ],
        "id": "412980248882050",
        "name": "จานดาวเทียมกล้องวงจรปิดเชียงใหม่   พร้อมติดตั้ง 086-6701900 ชัดมากมาย"
    },
    {
        "emails": [
            "modx.2@hotmail.com"
        ],
        "id": "537556009687069",
        "location": {
            "city": "Khon Kaen",
            "country": "Thailand",
            "latitude": 16.08755,
            "longitude": 102.75218,
            "street": "35/25 หมู่ 2",
            "zip": "40110"
        },
        "name": "X คอมมูล่า รับติดตั้ง จานดาวเทียม+กล้องวงจรปิด อ.บ้านไผ่ และอำเภอไกล้เคียง",
        "phone": "0905930658"
    },
    {
        "about": "จำหน่าย,ติดตั้ง และบำรุงรักษา ระบบเครือข่าย แลน WIFI ไวเลส จานดาวเทียม กล้องวงจรปิด ",
        "description": "สิ่งหนึ่งระบบเครือข่าย สิ่งสองระบบรับสัญญาณดาวเทียม สิ่งสามระบบกล้องวงจรปิด ทั้งสามสิ่งนี้ จะทำให้ท่านมีเทคโนโลยีที่ครบครัน ทันสมัย เราตอบสนองสิ่งเหล่านี้ให้ท่าน เราจำหน่าย ติดตั้ง และบำรุงรักษา ทั้งระบบเครือข่าย ระบบรับสัญญาณดาวเทียม ระบบกล้องวงจรปิด หลากหลายยี่ห้อเพื่อช่วยให้่ท่านและธุรกิจของท่านก้าวไปบนโลกแห่งเทคโนโลยีได้อย่างมั่นคง และคุ้มค่า อย่าลืมเรียกหาเราเมื่อคุณต้องการ",
        "emails": [
            "playboy58mm@gmail.com"
        ],
        "general_info": "จำหน่ายและติดตั้ง ระบบเครือข่าย แลน เน็ตไร้สาย จานดาวเทียม กล้องวงจรปิด ",
        "id": "687892521239639",
        "location": {
            "city": "Chonburi",
            "country": "Thailand",
            "latitude": 13.4341607553,
            "located_in": "566148816781320",
            "longitude": 101.103315886,
            "zip": "20160"
        },
        "name": "3 สิ่งเซอร์วิส ติดจานดาวเทียม กล้องวงจรปิด พานทอง",
        "phone": "0863175753"
    },
    {
        "about": "รับติดตั้งทั้งงานบ้านทั่วไปและงานระบบโรงแรม อพาร์ทเม้น หอพัก รีสอร์ท",
        "description": "รับติดตั้ง ซ่อม จำหน่าย จานดาวเทียม กล้องวงจรปิด เสาทีวีดิจิตอล",
        "emails": [
            "hua.annhang@gmail.com"
        ],
        "id": "609194355819675",
        "location": {
            "city": "มุกดาหารอยู่แยกบ้านดอน หรือ47/10 ถ.เรณู-หนองฮี นครพนม",
            "street": "18/8 ถ.แก้วกินรี อ.เมือง  จ.มุกดาหาร",
            "zip": "49000"
        },
        "name": "ศูนย์ติดตั้งจานดาวเทียม กล้องวงจรปิด มุกดาหาร-นครพนม",
        "phone": "086-479-1191,086-228-2741"
    },
    {
        "about": "บริการ แอร์บ้าน ดาวเทียม กล้องวงจรปิด ไฟฟ้า",
        "description": "- บริการ ล้าง ซ่อม ติดตั้ง ย้าน แอร์บ้าน จานดาวเทียม\n- บริการติดตั้ง เครื่องทำน้ำอุ่น\n- บริการซ่อมเครื่องใช้ไฟฟ้า ทีวี ตู้เย็น เครื่องซักผ้า\n- บริการไฟฟ้าภายในบ้าน\n\nจำหน่ายแอร์ใหม่พร้อมติดตั้ง มือสองสภาพดี \nโทร 0945482609  เก่งแอร์บ้าน จานดาวเทียม",
        "id": "332659580141522",
        "location": {
            "city": "Nong Khaem",
            "country": "Thailand",
            "latitude": 13.7200203,
            "longitude": 100.3640213,
            "street": "343 ถนนเลียบคลองภาษีเจริญฝั่งใต้",
            "zip": "10160"
        },
        "name": "รับล้าง ติดตั้ง ย้าย ซ่อม ฯแอร์บ้านและจานดาวเทียม",
        "phone": "0945482609"
    },
    {
        "id": "1553187778247906",
        "location": {
            "city": "Amphoe Muang Lamphun",
            "country": "Thailand",
            "latitude": 18.53688,
            "longitude": 99.07746,
            "street": "183 ถ.พระคง์ฤาษี ต.ในเมือง อ.เมือง จ.ลำพูน",
            "zip": "51000"
        },
        "name": "จานดาวเทียมเชียงใหม่ ติดตั้งจานดาวเทียม งานระบบทีวีดาวเทียม เชียงใหม่ ลำพูน",
        "phone": "0861838275"
    },
    {
        "about": "กล้องวงจรปิด เครื่องปรับอากาศ จานดาวเทียม",
        "id": "1557280731180471",
        "location": {
            "city": "Samut Prakan",
            "country": "Thailand",
            "latitude": 13.54812,
            "longitude": 100.68051,
            "street": "หมู่บ้านพฤกษา 28",
            "zip": "10280"
        },
        "name": "ติดตั้งกล้องวงจรปิด  จานดาวเทียม  เครื่องปรับอากาศ",
        "phone": "0830742556"
    },
    {
        "about": "ขายกล้องวงจรปิด กล้องติดรถยนต์ จานดาวเทียม คีย์การ์ด สแกนนิ้วมือ ขาแขวนทีวี ราคาปลีก-ส่ง ",
        "description": "เว็บไซด์ ขาย-ติดตั้ง กล้องวงจรปิด ระบบ HDCVI ระบบ HDTVI ระบบ AHD ระบบ IP Cameara  กล้องติดรถยนต์ จานดาวเทียม อินเตอร์เน็ต คีย์การ์ด กันโขมย ขาแวนทีวี และอุปกรณ์อื่นๆ แบบครบวงจร ",
        "emails": [
            "info@satsdigital.com"
        ],
        "id": "719721531442145",
        "location": {
            "city": "Bangkok",
            "country": "Thailand",
            "latitude": 13.7480936,
            "longitude": 100.5206223,
            "street": "เลขที่ 563 ถนน พระราม 3 แขวง บางโพงพาง เขต ยานาวา",
            "zip": "10120"
        },
        "name": "ขาย-ติดตั้ง กล้องวงจรปิด จานดาวเทียม พระราม 3 ร้านแซทดิจิตอล",
        "phone": "02-6839521, 081-6369466, 081-3050809"
    },
    {
        "about": "http://noomsattv.blogspot.com/",
        "description": "http://noomsattv.blogspot.com/",
        "id": "220340227994795",
        "name": "รับติดตั้งจานดาวเทียม ไม่มีรายเดือน"
    },
    {
        "about": "รับติดตั้งจานดาวเทียม วางระบบทีวีห้องเช่า แก้ไข ย้ายจาน\nรับติดตั้งกล้องวงจรปิด  081-4587101,081-3400107",
        "id": "1503321079922616",
        "name": "รับติดจานดาวเทียม\u0026กล้องวงจรปิด"
    },
    {
        "about": "รับเดินสายไฟ ติดตั้งจานดาวเทียม กล้องวงจรปิด ช่างซ่อมไฟใน จ.สุราษฎร์ธานี-จ.ใกล้เคียง",
        "description": "จำหน่ายอุปกรณ์ไฟฟ้า รับเดินสายไฟ ระบบโทรศัพท์ ติดตั้งระบบไฟฟ้า จานดาวเทียม กล้องวงจรปิด เครื่องปรับอากาศ (แอร์) ใน อำเภอ เมืองสุราษฎร์ธานี, พุนพิน, กาญจนดิษฐ์, เกาะพะงัน, เกาะสมุย, คีรีรัฐนิคม, เคียนซา, ชัยบุรี, ไชยา, ดอนสัก, ท่าฉาง, ท่าชนะ, บ้านตาขุน, บ้านนาสาร, บ้านนาเดิม, อำเภอพนม จ.สุราษฎร์ธานี ละแม หลังสวน ชุมพร ระนอง และจังหวัดใกล้เคียง บ้านพักอาศัย อาคารพาณิชย์ โรงงานอุตสาหกรรม แรงสูง แรงต่ำ โดยช่างไฟฟ้า ช่างเดินสายไฟฟ้า ช่างผู้ชำนาญงาน ราคายุติธรรม ลงประกาศ หาช่าง หาช่างไฟฟ้า ช่างแอร์ ช่างเดินสายไฟฟ้าในบ้าน ช่างเดินสายไฟฟ้าภายในบ้าน",
        "id": "567741466585481",
        "name": "ซ่อมแซม เดินสายไฟ ติดตั้งระบบไฟฟ้า จานดาวเทียม กล้องวงจรปิด สุราษฎร์ธานี"
    },
    {
        "id": "174085692650925",
        "name": "รับติดตั้งจานดาวเทียม"
    },
    {
        "about": "ติดตั้งกล้องวงจรปิดจานดาวเทียม\nรับลงโปรแกรมกล้องผ่านมือมือ\n",
        "id": "908790165860648",
        "location": {
            "city": "Bangkok",
            "country": "Thailand",
            "latitude": 13.666769,
            "longitude": 100.4285431,
            "street": "ถนน บางขุนเทียนชายทะเลเทียนทะเล12-14",
            "zip": "10150"
        },
        "name": "บริการติดตั้งกล้องวงจรปิดจานดาวเทียม 0947758878",
        "phone": "0947758878"
    },
    {
        "about": "ติดตั้งจำหน่ายกล้องวงจรปิดชลบุรี ระบบกล้องIP AHD ทำโครงข่ายCCTVระยะไกล",
        "description": "ขายจานดาวเทียมและกล้องวงจรปิดราคาส่งชลบุรี ระบบเคเบิ้ลอพาทเม้น ระบบกล้องวงจรปิดตามหน่วยงาน",
        "id": "990117564335748",
        "location": {
            "city": "Chon Buri",
            "country": "Thailand",
            "latitude": 13.32089,
            "longitude": 101.13177,
            "zip": "20000"
        },
        "name": "กล้องวงจรปิดชลบุรี ติดตั้งแก้ไขกล้องวงจรปิดและจานดาวเทียม",
        "phone": "0615325458"
    },
    {
        "about": "รับติดตั้งกล้องวงจรปิด ติดตั้งจานดาวเทียม จำหน่าย ติดตั้งขาแขวนทีวี รับเหมาระบบไฟฟ้า",
        "description": "รับติดตั้งในเขต ฉะเชิงเทรา ราคาเป็นกันเอง\nโทร.084-850-1765",
        "id": "256766747828277",
        "location": {
            "city": "Chacherngsao",
            "country": "Thailand",
            "latitude": 13.74257,
            "longitude": 101.02953,
            "street": "57/5 Moo 6 T. Bangtoey A. Muang",
            "zip": "24000"
        },
        "name": "บ่าว เครื่องเสียง จำหน่าย ติดตั้ง เครื่องเสียง ขาแขวนทีวี จานดาวเทียม",
        "phone": "66848501765"
    },
    {
        "about": "ประสบการณ์ยาวนานกว่า 10 ปี",
        "id": "131733713697224",
        "location": {
            "city": "Amphoe Muang Phuket",
            "country": "Thailand",
            "latitude": 7.88418,
            "longitude": 98.39429,
            "street": "15/38 ม 2 ต.ตลาดเหนือ",
            "zip": "83000"
        },
        "name": "รับติดตั้งเสา Tower ระบบวิทยุ Fm จานดาวเทียมและกระจกอลูมิเนียม",
        "phone": "0839693365"
    }
]