[
    {
        "id": "207030892820763",
        "location": {
            "city": "Ban Luang",
            "country": "Thailand",
            "latitude": 18.85127,
            "longitude": 100.43827,
            "street": "Bangnomko"
        },
        "name": "บ้านช่างไฟฟ้า"
    },
    {
        "id": "193593094138095",
        "location": {
            "city": "Phitsanulok",
            "country": "Thailand",
            "latitude": 16.815862212389,
            "longitude": 100.26840150442
        },
        "name": "อาคารช่างไฟฟ้ากำลัง"
    },
    {
        "id": "206772602804687",
        "location": {
            "city": "Muang Lopburi",
            "country": "Thailand",
            "latitude": 14.8003796,
            "longitude": 100.6201688
        },
        "name": "แผนกช่างไฟฟ้ากำลัง ชั้น 2"
    },
    {
        "id": "199329493569190",
        "location": {
            "latitude": 15.215755215686,
            "longitude": 101.16448760784
        },
        "name": "แผนกช่างไฟฟ้ากำลัง"
    },
    {
        "id": "197950907059563",
        "location": {
            "latitude": 10.553845966667,
            "longitude": 99.245528333333
        },
        "name": "แผนกช่างไฟฟ้ากำลัง วิทยาลัยเทคนิคชุมพร"
    },
    {
        "id": "195310553971904",
        "location": {
            "city": "Muang Surin",
            "country": "Thailand",
            "latitude": 14.878309369912,
            "longitude": 103.50015284005,
            "zip": "32000"
        },
        "name": "แผนกวิชาช่างไฟฟ้ากำลัง จังหวัดสุรินทร์"
    },
    {
        "id": "260881680709489",
        "location": {
            "city": "Phetchabun",
            "country": "Thailand",
            "latitude": 16.430616666667,
            "longitude": 101.15316
        },
        "name": "ช่างไฟฟ้ากำลัง"
    },
    {
        "id": "191735540958748",
        "location": {
            "city": "Narathiwat",
            "country": "Thailand",
            "latitude": 6.4238563333333,
            "longitude": 101.82210033333,
            "zip": "96000"
        },
        "name": "แผนกวิชาช่างไฟฟ้า"
    },
    {
        "id": "296074217090063",
        "location": {
            "city": "Narathiwat",
            "country": "Thailand",
            "latitude": 6.4213975,
            "longitude": 101.82197375,
            "zip": "96000"
        },
        "name": "แผนกช่างไฟฟ้ากำลัง{pnu}"
    },
    {
        "id": "315919925199475",
        "location": {
            "city": "Bangkok",
            "country": "Thailand",
            "latitude": 13.898798958411,
            "longitude": 100.50034378665
        },
        "name": "แผนกช่างไฟฟ้า กรมชลประทาน"
    },
    {
        "id": "798165700271957",
        "name": "Electrician"
    },
    {
        "id": "355321564550861",
        "name": "ช่างไฟฟ้า วิทยาลัยเทคนิคอ่างทอง"
    },
    {
        "id": "1452322661730400",
        "location": {
            "city": "Nonthaburi",
            "country": "Thailand",
            "latitude": 13.8611,
            "longitude": 100.513,
            "street": "4หมู่ตำบล บางกระสอ",
            "zip": "11000"
        },
        "name": "ช่างไฟฟ้าระบบโรงงาน",
        "phone": "0819220946"
    },
    {
        "id": "203321753034412",
        "name": "ช่างไฟฟ้า"
    },
    {
        "about": "เพื่อน กันตลอดไป\nเพื่อน กันตลอดไป",
        "id": "579136465511575",
        "location": {
            "city": "Amphoe Ban Pong",
            "country": "Thailand",
            "zip": "70110"
        },
        "name": "ช่างไฟฟ้ากำลัง 56"
    },
    {
        "id": "770870879661201",
        "location": {
            "city": "Nakhon Ratchasima",
            "country": "Thailand",
            "latitude": 14.959615474096,
            "longitude": 102.06066066906,
            "street": "369/4 หมู่4 ต.โพธิ์กลาง อ.เมือง จ.นครราชสีมา",
            "zip": "30000"
        },
        "name": "ช่างไฟฟ้า ทีมงาน ช.สุริยา",
        "phone": "0899453263"
    },
    {
        "about": "- ติดตั้ง ปรับปรุงระบบไฟฟ้า\n- ติดตั้งระบบทีวี    วงจรปิด,Network,wifi\n- มีทีมงานต่อเติม บ้าน\n",
        "description": " เพจนี้มีความตั้งใจที่จะให้เป็นศูนย์กลางติดต่อระหว่างช่างไฟฟ้า, ช่างก่อสร้าง,ช่างคอมพิวเตอร์ ฯ หรือช่างอื่นๆ กับผู้ที่ต้องการเรียกใช้บริการ หรือเพื่อสอบถาม ปรึกษาเรื่องราวเกี่ยวกับด้านช่างเท่านั้น ห้ามโพสต์ภาพหรือข้อความอื่นๆที่ผิดกฎหมาย และศีลธรรมอันดี",
        "emails": [
            "siwichai@hotmail.com"
        ],
        "id": "822681354424873",
        "location": {
            "city": "Surat Thani",
            "country": "Thailand",
            "latitude": 9.09542,
            "longitude": 99.3073,
            "street": "245/32 ถ.ชนเกษม 21 ต.มะขามเตี้ย อ.เมือง",
            "zip": "84000"
        },
        "name": "สุราษฎร์ช่างไฟฟ้า",
        "phone": "089-4723945, 083-1505327"
    },
    {
        "about": "รับติดตั้ง ซ่อมแซม ระบบไฟฟ้า-ประปา",
        "description": " ช่างรับเหมางานระบบประปา งานระบบไฟฟ้า และรับซ่อมแซม แก้ไขงานประปา งานไฟฟ้าขัดข้อง และฉุกเฉิน   k.ยุทธ 0859455127  0815612900 ต.เจริญการช่าง รับเหมาติดตั้งงานระบบประปา ระบบไฟฟ้า รับซ่อมแซม แก้ไข ตรวจเช็คงานประปา งานไฟฟ้า ติดตั้งปั๊มน้ำ แท็งค์น้ำ ตู้ไฟ เดินท่อประปา เดินท่อน้ำทิ้ง ท่อน้ำดี เดินสายไฟภายในบ้าน เดินสายโทรศัพท์ภายใน เดินสายเมน เดินสาย Lan ซ่อมแซม ท่อแตก ท่อตัน ท่อรั่ว ท่อซึม ตามใต้พื้น และกำแพง ปั๊มเสีย ปั๊มไม่ทำงาน ปั๊มเดินไม่หยุด ไฟดับ ไฟขัดข้อง ไฟช๊อต ติดต่อ k.ยุทธ 085-9455127,081-5612900",
        "id": "1517825615121668",
        "location": {
            "city": "กทม ",
            "street": "889",
            "zip": "10160"
        },
        "name": "ช่างไฟฟ้า-ประปา ช่างยุทธ",
        "phone": "0859455127"
    },
    {
        "about": "กรุณาอยู่ในความสงบ\n1ห้ามโพสไร้สาระ\n2หายโฆษณาอื่น  -ครั้งที่1แจ้งเตือน -ครั้งที่2ไล้ออก",
        "id": "402244106575716",
        "location": {
            "city": "Phayao",
            "country": "Thailand",
            "latitude": 19.16541,
            "longitude": 99.86263,
            "street": "phayao",
            "zip": "56000"
        },
        "name": "ช่างไฟฟ้า_The_In_Dy",
        "phone": "084154654"
    },
    {
        "about": "ประชาสัมพันธ์แผนกวิชาช่างไฟฟ้ากำลังกับลูกศิษย์",
        "id": "363393000407978",
        "location": {
            "city": "ชัยภูมิ",
            "street": "240  ต.ในเมือง  ถ.องค์การบริหารสาย2 อ.เมืองชัยภูมิ",
            "zip": "36000"
        },
        "name": "แผนกวิชาช่างไฟฟ้ากำลัง วิทยาลัยเทคนิคชัยภูมิ"
    },
    {
        "about": "เพจนี้สร้างเพื่อ...เพิ่มเป็นสถานที่ทำงานให้กับผม",
        "id": "409023649196887",
        "name": "ช่างไฟฟ้า รับเดินสายไฟภายในบ้าน"
    },
    {
        "about": "รับทำความสะอาดโคมไฟคริสตัลมีปัณหา ปริกษา  ได้ครับ  0817888683",
        "emails": [
            "prung555@gmail.com"
        ],
        "id": "486619298136207",
        "location": {
            "city": " ไทย",
            "street": "99/18 ม.8 ต.ตากเเด อ.เมือง จ. ชุมพร",
            "zip": "86000  โทร 0817888683"
        },
        "name": "ช่างไฟฟ้าชุมพร\"กล้องวงจรปิดไอพี \" ดาวเทียม\"ประปาปั๊มน้ำ ช่างเอก 0817888683",
        "phone": "0817888683"
    },
    {
        "about": "รับเหมาติดตั้ง เเก้ไขไฟฟ้า บ้านเเละอาคาร",
        "id": "426271724209455",
        "location": {
            "city": "Amphoe Muang Pathum Thani",
            "country": "Thailand",
            "latitude": 14.0167,
            "longitude": 100.533,
            "street": "ดอนเมือง",
            "zip": "12000"
        },
        "name": "ช่างไฟฟ้าราคามิตรภาพ",
        "phone": "0928386715"
    },
    {
        "id": "207116449305946",
        "name": "ช่างไฟฟ้า4"
    },
    {
        "id": "346182735485700",
        "location": {
            "city": "Nonthaburi",
            "country": "Thailand",
            "zip": "11000"
        },
        "name": "ช่างไฟฟ้ากำลัง ปัญญาภิวัฒน์-กรุงเทพเทคนิคนนท์",
        "phone": "0823514782"
    }
]