[
    {
        "id": "886008048142227",
        "name": "ช่างไฟฟ้ากำลัง EP.01"
    },
    {
        "about": "0934915481",
        "id": "313874965443955",
        "location": {
            "city": "ในเมือง",
            "street": "ชพน"
        },
        "name": "สมาคมนิยมช่างไฟฟ้ากำลัง - ชพน"
    },
    {
        "id": "113881081995512",
        "name": "ผช.ช่างไฟฟ้า"
    },
    {
        "id": "1391556164398416",
        "location": {
            "city": "Samut Prakan",
            "country": "Thailand",
            "latitude": 13.55952,
            "longitude": 100.51878,
            "street": "64/83 ต.ในคลองบางปลากด อ.พระสมุทรเจดีย์",
            "zip": "10290"
        },
        "name": "ทองใบ สุทธิประภา ช่างไฟฟ้า รับเหมาระบบไฟฟ้า ซ่อมไฟฟ้า บ้าน อาคาร โรงงาน",
        "phone": "0917350321"
    },
    {
        "id": "893248177424736",
        "name": "ช่างไฟฟ้า ขั้นเทพ"
    },
    {
        "id": "1648096782101038",
        "name": "ช่างไฟฟ้า คับผม."
    },
    {
        "id": "1669560709926930",
        "name": "ช่างไฟฟ้า\\ช่างยนต์/"
    },
    {
        "id": "191990260822744",
        "name": "แผนกช่างไฟฟ้า"
    },
    {
        "id": "113320408745084",
        "name": "สาขาช่างไฟฟ้า"
    },
    {
        "id": "932478590138185",
        "name": "ช่างไฟฟ้า  มหาวิทยาลัยเทคนิค หนองคาย"
    },
    {
        "id": "1435331116744466",
        "location": {
            "city": "สุพรรณบุรี",
            "street": "อู่ทอง",
            "zip": "72160"
        },
        "name": "ช่างไฟฟ้า เมืองสุพรรณ",
        "phone": "0833159677"
    },
    {
        "id": "621097067984346",
        "location": {
            "city": "จังหวัดสงขลา",
            "street": "อำเภอหาดใหญ่",
            "zip": "90110"
        },
        "name": "ชมรมศิษย์เก่าช่างไฟฟ้ากำลังหลวงประธานราษฎร์นิกร"
    },
    {
        "id": "1051679768197806",
        "name": "ช่างไฟฟ้ากำลัง EP /33"
    },
    {
        "about": "ใช้สำหรับบอกข่าวและกิจกรรมต่างๆของ ปวส.๑ ช่างไฟฟ้ากลุ่ม ๑-๒ วิทยาลัยเทคนิคแพร่",
        "id": "112469725572518",
        "name": "ปวส.๑ ช่างไฟฟ้า ๑-๒ วิทยาลัยเทคนิคแพร่"
    },
    {
        "id": "189349754429223",
        "name": "ช่างไฟฟ้าและอิเล็กทรอนิกส์"
    },
    {
        "about": "นักศึกษา",
        "id": "334346770064821",
        "location": {
            "city": "อุบลราชธานี"
        },
        "name": "ช่างไฟฟ้ากำลัง poly"
    },
    {
        "id": "719788374791889",
        "location": {
            "city": "Ban Thap Tai (1)",
            "country": "Thailand",
            "latitude": 12.45765,
            "longitude": 99.91023167
        },
        "name": "สำนักงานประธานชมรมวิชาชีพช่างไฟฟ้ากำลัง"
    },
    {
        "id": "833299726777044",
        "name": "สโตร์ช่างไฟฟ้า"
    },
    {
        "id": "1604400139804754",
        "name": "จบช่างไฟฟ้า"
    },
    {
        "id": "398626887014671",
        "name": "ช่างเหล็ก   ช่างไฟฟ้า"
    },
    {
        "id": "818542671576985",
        "name": "ปวส. ช่างไฟฟ้า"
    },
    {
        "id": "719893688157165",
        "name": "ช่างไฟฟ้ากำลัง 2"
    },
    {
        "id": "957944844247730",
        "name": "ช่างไฟฟ้าในตำนาน"
    },
    {
        "id": "1598317963724132",
        "name": "ช่างไฟฟ้ากำลัง..ทวิ"
    },
    {
        "id": "830226990426696",
        "name": "ช่างไฟฟ้ากำลัง Pi-Ohm55"
    }
]