[
    {
        "about": "รับติดตั้งไฟฟ้า",
        "id": "1599717443585656",
        "location": {
            "city": "Nakhon Pathom",
            "country": "Thailand",
            "latitude": 13.81103,
            "longitude": 100.01429,
            "street": "เมือง",
            "zip": "73000"
        },
        "name": "ช่างไฟฟ้า นครปฐม - ช่างธง รับติดตั้งไฟฟ้า",
        "phone": "0971188846"
    },
    {
        "about": "ข่าวสารแผนกช่างไฟฟ้ากำลัง และเมคคาทรอนิกส์  วิทยาลัยเทคนิคอุบลราชธานี",
        "description": "ข่าวสารแผนกช่างไฟฟ้ากำลัง สาขางานไฟฟ้าและอิเล็คทรอนิกส์ สาขางานเมคคาทรอนิกส์สำหรับ ปวช. สาขางานเครื่องกลไฟฟ้า (สายตรง) (ม.6) สาขางานติดตั้งไฟฟ้า สาขางานเมคคาทรอนิกส์ สำหรับ ปวส. และเรื่องราวอื่นๆ มากมาย เช่น ศิษย์เก่า ศิษย์ปัจจุบัน และผู้สนใจ กิจกรรมทางสังคม งานประเพณี ฯลฯ",
        "id": "191743557578660",
        "location": {
            "street": "เลขที่ 5 ถ.แจ้งสนิท ต.ในเมือง อ.เมือง จ.อุบลราชธานี",
            "zip": "34000"
        },
        "name": "ช่างไฟฟ้ากำลัง วิทยาลัยเทคนิคอุบลราชธานี"
    },
    {
        "about": "รับติดตั้งระบบไฟฟ้าภายในบ้านท่าน\n082-397-1643(ช่างอ้น)\n",
        "description": "งานติดตั้งตู้เบรคเกอร์ เปลี่ยนปลั๊กและสวิตช์ตามจุดต่างๆ ติดตั้งสวิตช์และปลั๊กตามจุดต่างๆ เดินไฟฟ้าในท่อทุกชนิดทั้งเดินท่อฝังผนังและบนฝ้าหรือเดินท่อลอย  ติดตั้งหลอดไฟฟ้าได้ทุกรูปแแบบเช่น ดาวไลน์ LED หลอดแสงจันทร์ \n (งานเล็กน้อย งานด่วนหรือฉุกเฉิก) ติดต่อได้ ",
        "id": "565025913573560",
        "location": {
            "city": "Bangkok",
            "country": "Thailand",
            "latitude": 13.7522,
            "longitude": 100.494,
            "street": "ถนน วงศสว่าง ซอย วงศ์สว่าง 11 บางซื่อ",
            "zip": "10800"
        },
        "name": "ช่างไฟฟ้าติดตั้งระบบไฟฟ้า ซ่อมบำรุงแก้ไขระบบไฟฟ้า ภายในกทม.",
        "phone": "082-397-1643"
    },
    {
        "about": "\" ช่างไฟฟ้า \" เทคนิคพะเยา",
        "id": "502213603276071",
        "location": {
            "city": "พะเยา",
            "street": "355 หมู่ 11 ต.บ้านต๋อม อ.เมือง จ.พะเยา 56000",
            "zip": "56000"
        },
        "name": "แผนกวิชาช่างไฟฟ้า วิทยาลัยเทคนิคพะเยา",
        "phone": "054-4887190"
    },
    {
        "about": "ขายเครื่องมือช่าง อุปกรณ์ช่าง ชุดเครื่องมือช่างพื้นฐาน ช่างยนต์ ช่างไฟฟ้า สว่าน บล๊อกลม",
        "description": "ขายเครื่องมือช่าง อุปกรณ์ช่าง ชุดเครื่องมือช่างพื้นฐาน ช่างยนต์ ช่างไฟฟ้า สว่านไฟฟ้า ดอกสว่าน ประแจแหวน ปากตาย เลื่อย ชุดไขควง เจียรไฟฟ้า บล็อกลม บ๊อก คีม คู้เครื่องมือ กระเป๋าเครื่องมือ เครื่องมือก่อสร้าง bosch, makita, fion star, koche', niko",
        "emails": [
            "sale.siamdiy@gmail.com"
        ],
        "id": "812599768812524",
        "location": {
            "city": "กรุงเทพ",
            "street": "ไอที สแควร์",
            "zip": "10210"
        },
        "name": "เครื่องมือช่าง ขายชุดอุปกรณ์ช่างยนต์ ช่างไฟฟ้า สว่าน ประแจ เลื่อย ไขควง คีม"
    },
    {
        "id": "139951549359444",
        "name": "ช่างไฟฟ้า"
    },
    {
        "about": "ช่างไฟฟ้ากำลัง ก็มีเฟสบุก ด้วยนะคับ  ผู้ดูแลระบบ- เป็นนักเรียนนักศึกษา เหมือนกันคับ",
        "description": "ที่แสดงความคิดเห็น ข้อมูล ต่างๆๆ ภายในช่างไฟฟ้ากำลัง เทคนิคน่าน",
        "id": "170333362993132",
        "name": "ช่างไฟฟ้ากำลัง เทคนิคน่าน"
    },
    {
        "about": "รับเดินสายแลน(lan) รับเดินสายไฟฟ้า สายโทรศัพท์ สายเคเบิ้ลTV, ติดตั้งระบบ CCTV\n086-7821286",
        "description": "รับเดินสายไฟฟ้า รับเดินสายแลน(lan) สายโทรศัพท์ สายเคเบิ้ลTV, ติดตั้งระบบ CCTV , \nเพิ่มจุด และ แก้ไข ปลั๊กไฟ, ปลั๊กแลน(lan)และปลั๊กโทรศัพท์ , \n wifi ,lan สำหรับบริษัท โรงงาน นิคมอุตสาหกรรม สำนักงาน ห้างร้าน ร้านอินเตอร์เน็ท-เกมส์ หมู่บ้าน และ ตามบ้าน\nใน กทม และ ตจว.\n\nรับเดินสาย lan , รับเดินสายแลน ,ติดตั้งระบบ lan , เดินสาย lan ,บริการเดินสายแลน , เดินสายแลน , บริการรับเดินสาย lan , ติดตั้งสาย lan ,  รับเดินแลน\n\nทีมช่างเดินสายแลน,ช่างเดินสายโทรศัพท์,ช่างไฟฟ้า\nรับเดินสายโทรศัพท์,รับเดินสายไฟ,รับเดินสายแลน,รับเดินสายCCTV\n\nติดต่อ 0867821286\nดิเรก",
        "emails": [
            "bkkexpertlink@gmail.com"
        ],
        "id": "616970985075439",
        "location": {
            "city": "Bangkok",
            "country": "Thailand",
            "latitude": 13.89633,
            "longitude": 100.63934,
            "street": "สายไหม กทมฺ10220",
            "zip": "10220"
        },
        "name": "ช่างไฟฟ้า ช่างโทรศัพท์ รับเดินสายแลน ไฟฟ้าเร่งด่วน",
        "phone": "0867821286"
    },
    {
        "about": "แผนกช่างไฟฟ้ากำลัง วิทยาลัยเทคโนโลยีหมู่บ้านครู",
        "emails": [
            "mbkep12001@gmail.com"
        ],
        "id": "1374712069442486",
        "location": {
            "city": "Bangkok",
            "country": "Thailand",
            "latitude": 13.288877,
            "longitude": 99.7891806,
            "zip": "10160"
        },
        "name": "แผนกช่างไฟฟ้ากำลัง MBK",
        "phone": "02-4210115 ต่อ 23"
    },
    {
        "id": "254810917954738",
        "location": {
            "city": "Bangkok",
            "country": "Thailand",
            "latitude": 14.020826960666,
            "longitude": 100.53946336347,
            "street": "Soi Tham Suthi",
            "zip": "12000"
        },
        "name": "แผนกช่างไฟฟ้ากำลัง วิทยาลัยเทคนิคปทุมธานี"
    },
    {
        "id": "139965029416009",
        "location": {
            "city": "Chiang Mai",
            "country": "Thailand",
            "latitude": 18.5737185,
            "longitude": 99.0010575
        },
        "name": "545 แผนกช่างไฟฟ้า"
    },
    {
        "id": "118699678279493",
        "location": {
            "latitude": 14.02913,
            "longitude": 100.30048666667
        },
        "name": "ห้องช่างไฟฟ้า (บ.ภัทร์ไพลลิ่ง)"
    },
    {
        "id": "146490148876239",
        "location": {
            "city": "Muang Roi Et",
            "country": "Thailand",
            "latitude": 16.05182794,
            "longitude": 103.65645285,
            "street": "Ronnachai Chanyut Soi 13"
        },
        "name": "แผนกช่างไฟฟ้ากำลัง วิทยาลัยเทคนิคร้อยเอ็ด"
    },
    {
        "id": "147016182155851",
        "location": {
            "latitude": 13.65484,
            "longitude": 99.85292
        },
        "name": "PSD อินทิเกรท แผนก ช่างไฟฟ้าติดตั้ง"
    },
    {
        "id": "148163538854242",
        "location": {
            "city": "Amphoe Warin Chamrap",
            "country": "Thailand",
            "latitude": 15.154325,
            "longitude": 104.84937
        },
        "name": "แผนกช่างไฟฟ้ากำลัง วิทยาลัยการอาชีพวารินชำราบ"
    },
    {
        "id": "150601555055534",
        "location": {
            "city": "Phetchaburi",
            "country": "Thailand",
            "latitude": 13.383351059744,
            "longitude": 99.979703166747,
            "zip": "75000"
        },
        "name": "ร้านอาสาหนุ่มช่างไฟฟ้าที่เก่งที่สุดในไทยแลนด์"
    },
    {
        "id": "151675608317912",
        "location": {
            "city": "Muang Sara Buri",
            "country": "Thailand",
            "latitude": 14.535183012499,
            "longitude": 100.91152341114
        },
        "name": "แผนกช่างไฟฟ้า วิทยาลัยเทคนิคสระบุรี"
    },
    {
        "id": "153559581517556",
        "location": {
            "city": "Mukdahan",
            "country": "Thailand",
            "latitude": 16.5655227,
            "longitude": 104.6918694
        },
        "name": "ชมรมช่างไฟฟ้า"
    },
    {
        "id": "134519063397293",
        "location": {
            "city": "Bangkok",
            "country": "Thailand",
            "latitude": 13.831395178915,
            "longitude": 100.57580606579,
            "street": "Soi Phahon Yothin 30 Yaek 4",
            "zip": "10900"
        },
        "name": "ธุรการไฟฟ้า แผนกช่างไฟฟ้าและอิเล็กทรอนิกส์"
    },
    {
        "id": "132692096890512",
        "location": {
            "city": "Muang Nan",
            "country": "Thailand",
            "latitude": 18.778221428571,
            "longitude": 100.77105714286
        },
        "name": "แผนกช่างไฟฟ้ากำลัง"
    },
    {
        "id": "130647977129270",
        "location": {
            "city": "Muang Lopburi",
            "country": "Thailand",
            "latitude": 14.77606,
            "longitude": 100.64712,
            "street": "ลพบุรี",
            "zip": "15000"
        },
        "name": "หน้าแผนกช่างไฟฟ้ากำลัง"
    },
    {
        "id": "127371270767073",
        "location": {
            "city": "Ratchaburi",
            "country": "Thailand",
            "latitude": 13.539675629476,
            "longitude": 99.825495291013,
            "street": "Happhoei",
            "zip": "70000"
        },
        "name": "แผนกช่างไฟฟ้า วิทยาลัยสารพัดช่างราชบุรี"
    },
    {
        "id": "124739341192913",
        "location": {
            "city": "Lamnarai",
            "country": "Thailand",
            "latitude": 15.2011048,
            "longitude": 101.1373347
        },
        "name": "เเผนกช่างไฟฟ้าวิทยาลัยเทคโนโลยีชัยบาดาล"
    },
    {
        "id": "163354024007004",
        "location": {
            "city": "Bang Khen",
            "country": "Thailand",
            "latitude": 13.862348887164,
            "longitude": 100.6125464872,
            "street": "29/789",
            "zip": "10220"
        },
        "name": "ช่างไฟฟ้า"
    },
    {
        "id": "811619688897897",
        "name": "ช่างไฟฟ้าmp.em"
    }
]