[
    {
        "id": "441183055922855",
        "location": {
            "city": "Muang Loei",
            "country": "Thailand",
            "latitude": 17.473523299819,
            "longitude": 101.72902270084,
            "zip": "42000"
        },
        "name": "แผนกวิชาช่างไฟฟ้า วท.เลย"
    },
    {
        "id": "206880929468137",
        "location": {
            "city": "Ayutthaya",
            "country": "Thailand",
            "latitude": 14.359783654269,
            "longitude": 100.56258280131,
            "street": "U-thong Road",
            "zip": "13000"
        },
        "name": "แผนกช่างไฟฟ้ากำลัง วิทยาลัยเทคนิคพระนครศรีอยุธยา"
    },
    {
        "id": "135143030019391",
        "location": {
            "city": "Nakhon Pathom",
            "country": "Thailand",
            "latitude": 13.81446015217,
            "longitude": 100.09962583407,
            "zip": "73000"
        },
        "name": "ช่างไฟฟ้ากำลัง วิทยาลัยเทคนิคนครปฐม"
    },
    {
        "id": "241240109256380",
        "location": {
            "city": "Ubon Ratchathani",
            "country": "Thailand",
            "latitude": 15.2423135098,
            "longitude": 104.84467030683,
            "street": "อุบลราชธานี",
            "zip": "34000"
        },
        "name": "แผนกช่างไฟฟ้ากำลัง วิทยาลัยเทคนิคอุบลฯ",
        "phone": "\u003c\u003cnot-applicable\u003e\u003e"
    },
    {
        "about": "ช่างไฟฟ้า เดินสายไฟ ติดตั้งซ่อมแซมระบบไฟฟ้า โดยทีมช่างไฟฟ้ามืออาชีพ",
        "description": "ช่างไฟฟ้า เดินสายไฟ บริการติดตั้งซ่อมแซม ระบบไฟฟ้า ไม่ว่าจะเป็น ไฟช็อต ไฟรั่ว ไฟตัด ไฟดับ ไฟดูด อีกทั้งยังบริการ งานเพิ่มเติม เปลี่ยนแปลงระบบไฟฟ้า บริการให้คำปรึกษางานระบบไฟฟ้า ระบบอินเตอร์เน็ต (Network) ระบบกล้องวงจรปิด CCTV บ้าน อาคาร สำนักงานทุกชนิด โดยทีมช่างไฟฟ้ามืออาชีพ งานเล็ก งานใหญ่ ยินดีบริการครับ ",
        "emails": [
            "handyman2521@gmail.com"
        ],
        "id": "1518543648372893",
        "location": {
            "city": "Bang Khen",
            "country": "Thailand",
            "latitude": 13.8590698,
            "longitude": 100.6192093,
            "street": "29/9 ถ.รามอินทรา",
            "zip": "10220"
        },
        "name": "ช่างไฟฟ้า"
    },
    {
        "about": "ติดต่อไลท์ ไอดี 548123\nโทร 081-3667756\n",
        "id": "265417810300602",
        "location": {
            "city": "เมืองลำพูน",
            "street": "96/2 ม.4 ต.เหมืองง่า",
            "zip": "51000"
        },
        "name": "ช่างไฟฟ้า ลำพูน",
        "phone": "081-3667756"
    },
    {
        "id": "345647018950104",
        "location": {
            "city": "เชียงใหม่ "
        },
        "name": "ชมรมวิชาชีพช่างไฟฟ้า  วิทยาลัยเทคนิคเชียงใหม่"
    },
    {
        "about": "รับเหมาเดินไฟฟ้าทั่วไป ซ่อมแซม แก้ไข เพิ่มเติม โดยช่างผู้ชำนาญ",
        "id": "143410119188612",
        "location": {
            "city": "Bangkok",
            "country": "Thailand",
            "latitude": 13.84211,
            "longitude": 100.86283,
            "street": "68/19",
            "zip": "10530"
        },
        "name": "ช่างไฟฟ้า",
        "phone": "0890658876"
    },
    {
        "about": "รับออกแบบและติดตั้ง งานระบบไฟฟ้า ทีวี โทรศัพท์ LAN ทีวีวงจรปิด",
        "emails": [
            "ts_electric@hotmail.com"
        ],
        "id": "287256857980555",
        "location": {
            "city": "Chonburi",
            "country": "Thailand",
            "street": "สุขุมวิท",
            "zip": "21130"
        },
        "name": "ช่างไฟฟ้า",
        "phone": "038630830"
    },
    {
        "about": "ออกแบบ ติดตั้ง บำรุงรักษา งานระบบไฟฟ้า ตู้MDB ตู้คอลโทรล โทรศัพท์ อินเตอร์เน็ต กล้องวงจรปิด",
        "description": "รับเหมาติดตั้ง ออกแบบ ระบบไฟฟ้า ช่างไฟฟ้า ซ่อมแซม แก้ไขไฟฟ้า",
        "emails": [
            "min-chumphon_7117@hotmail.com"
        ],
        "id": "1058357217524839",
        "location": {
            "city": "Nonthaburi",
            "country": "Thailand",
            "street": "ประชาราษฎ์12",
            "zip": "11000"
        },
        "name": "ช่างไฟฟ้า รับเหมาระบบไฟฟ้า ซ่อมไฟฟ้า เดินสายไฟ แก้ไขไฟฟ้า ช่างซ่อมไฟฟ้า",
        "phone": " 080-2852657 081-0787237"
    },
    {
        "about": "รับเหมา ออกแบบ ติดตั้งงานระบบไฟฟ้า สื่อสาร ครบวงจร",
        "description": "รับเหมาออกแบบ ติดตั้ง ซ่อมแซม\nงานระบบไฟฟ้า\nงานระบบสื่อสาร\nงานระบบคอนโทรล",
        "emails": [
            "kk-electrical@hotmail.com"
        ],
        "id": "574743345891149",
        "location": {
            "city": "เมืองภูเก็ต",
            "street": "49/539 ถนนรัษฎานุสรณ์  ตำบล รัษฎา",
            "zip": "83000"
        },
        "name": "ช่างไฟฟ้าภูเก็ต 0869522740",
        "phone": "086-9522740"
    },
    {
        "about": "ช่างไฟฟ้าสำหรับที่อยู่อาศัยและอาคารสำนักงาน",
        "emails": [
            "thaworn_pim@outlook.com"
        ],
        "id": "217082571796014",
        "location": {
            "city": "Bangkok",
            "country": "Thailand",
            "latitude": 13.73491,
            "longitude": 100.3954697,
            "street": "Phutthamonthon Sai 2 Rd.",
            "zip": "10160"
        },
        "name": "ช่างไฟฟ้าถาวร",
        "phone": "0985218417"
    },
    {
        "about": "^ขอบคุณครับยินดีที่ได้รู้จักครับ*\nบริการ 24 ชม. ช่างไฟฟ้า - ช่างประปา -วงจรปิด-งานปั๊มน้ำ",
        "id": "1544700362455447",
        "name": "ช่างไฟฟ้า"
    },
    {
        "about": "รับงาน ไฟฟ้า โซล่าเซล ซ่อม ติดตั้งใหม่ งานเล็กงานใหญ่เราทำหมด ยินดีให้คำปรึกษาฟรี 0812669062",
        "id": "679055142189591",
        "name": "ช่างไฟฟ้า",
        "phone": "0812669062"
    },
    {
        "emails": [
            "art_429@hotmail.com"
        ],
        "id": "511334522233834",
        "location": {
            "city": "Bangkok",
            "country": "Thailand"
        },
        "name": "ช่างไฟฟ้า",
        "phone": "0868889034"
    },
    {
        "about": "ช่างไฟฟ้า เดินสายไฟ ซ่อมระบบไฟฟ้า ตรวจสอบสายไฟฟ้า",
        "description": "ช่างไฟฟ้า เดินสายไฟ ซ่อมระบบไฟฟ้า ตรวจสอบสายไฟฟ้า ในตัวบ้านนอกบ้าน เดินสายไฟตึกสูงและโรงงาน",
        "emails": [
            "dqconstruction@hotmail.com"
        ],
        "id": "156554121116097",
        "name": "ช่างไฟฟ้า เดินสายไฟ",
        "phone": "083-992-8083"
    },
    {
        "about": "รับเหมาติดตั้งไฟฟ้าและซ่อมบำรุงไฟฟ้า",
        "emails": [
            "krozeroyo@gmail.com"
        ],
        "id": "415443765224316",
        "location": {
            "city": "Chiang Mai",
            "country": "Thailand",
            "latitude": 18.78988,
            "longitude": 98.93018,
            "street": "9/3 ม.6 ต.สุเทพ อ.เมือง จ.เชียงใหม่",
            "zip": "50200"
        },
        "name": "ช่างไฟฟ้าเชียงใหม่",
        "phone": "0894587004"
    },
    {
        "about": "ซ้อมแซม - ต่อเติม  ระบบไฟฟ้าทั้งหมด  ***งานเร่งด่วน สามารถติดต่อได้ตลอด 24 ชั่วโมง  ",
        "emails": [
            "aekapan606@hotmail.com"
        ],
        "id": "1006484882718857",
        "location": {
            "city": "Chiang Mai",
            "country": "Thailand",
            "latitude": 18.7903,
            "longitude": 98.9817,
            "street": "อำเภอเมือง",
            "zip": "50210"
        },
        "name": "ช่างไฟฟ้าเชียงใหม่",
        "phone": "0947571881,0946430002"
    },
    {
        "about": "เด็กช่างไฟฟ้าไม่ทิ้งกัน",
        "id": "166528483510181",
        "location": {
            "city": "ลำปาง",
            "street": "15 ต.สบตุ๋ย อ.เมือง",
            "zip": "52100"
        },
        "name": "ช่างไฟฟ้ากำลัง วิทยาลัยเทคนิคลำปาง",
        "phone": "054223006"
    },
    {
        "about": "บริการ ช่างไฟฟ้า ราคาย่อมเยา ใน กรุงเทพ และใกล้เคียง",
        "description": "บริกาารช่างไฟฟ้า ราคาถูก ติดตั้ง ซ่อมแซม สั่งสินค้า จัดหาอุปกรณ์ ไฟฟ้า สะดวกไม่ต้องหาซื้อเอง ด้วยช่างมืออาชีพ",
        "id": "152992991565726",
        "location": {
            "city": "Bangkok",
            "country": "Thailand",
            "street": "22/35 ม.7",
            "zip": "11000"
        },
        "name": "ช่างไฟฟ้า ราคาถูก",
        "phone": "0892120462"
    },
    {
        "about": "บริการ 24 ชม. ช่างไฟฟ้า - ช่างประปา -วงจรปิด-งานปั๊มน้ำ-งาน ตู้คอนโทรล ",
        "description": "บริการ 24 ชม. ไฟฟ้า - ปะปา -วงจรปิด-งานปั๊มน้ำ-งาน ตู้คอนโทรล \nงานซ่อมบำรุงทุกระบบด่วน*** preecha_service@hotmail.com ..\n0927172746",
        "emails": [
            "preecha_service@hotmail.com"
        ],
        "id": "1505538289716588",
        "location": {
            "city": "Lam Luk Ka",
            "country": "Thailand",
            "latitude": 13.9436512,
            "longitude": 100.6621489,
            "street": "25/6 m3 kukot",
            "zip": "12130"
        },
        "name": "ช่างไฟฟ้าลำลูกกา",
        "phone": "0927172746"
    },
    {
        "about": "ช่างไฟฟ้า รับเหมา ติดตั้งcctv ฝ้า ผนังเบา",
        "emails": [
            "gotzillz11.gk@gmail.com"
        ],
        "id": "1385334678420600",
        "name": "ช่างไฟฟ้า",
        "phone": "092-407-1775"
    },
    {
        "id": "785529168260555",
        "location": {
            "city": "Si Sa Ket",
            "country": "Thailand",
            "street": "ศรีสะเกษ",
            "zip": "33000"
        },
        "name": "ช่างไฟฟ้ากำลัง วท. ศก.",
        "phone": "0880450020"
    },
    {
        "id": "1662388280647558",
        "location": {
            "city": "Phetchaburi",
            "country": "Thailand",
            "latitude": 13.1,
            "longitude": 99.95,
            "street": "14/1 ม.2 ต.บ้านหาด",
            "zip": "76150"
        },
        "name": "ช่างไฟฟ้า",
        "phone": "0820740611"
    },
    {
        "about": "วิทยาลัยเทคนิคขอนแก่น แผนกวิชาไฟฟ้ากำลัง",
        "description": "เพจนี้สร้างขึ้นมาเพื่อศูนย์รวมของศิษย์เก่าและศิษย์ปัจจุบันของแผนกไฟฟ้ากำลัง วิทยาลัยเทคนิคขอนแก่นครับ และสามารถแลกเปลี่ยนข่าวสารต่างๆได้นะครับ  ข่าวสมัครงาน ข่าวสมัครศึกษาต่อ \n\nหรือศิษย์เก่าอยากจะติดต่อสามารถติดต่อมาได้โดยตรงเลยครับ",
        "id": "398937273503093",
        "name": "ช่างไฟฟ้า เทคนิคขอนแก่น"
    }
]