[
    {
        "about": "ไฟฟ้ากำลังจงเจริญ\n",
        "id": "539211939458112",
        "name": "สมาคมนิยมเทา - ช่างไฟฟ้ากำลัง วิทยาลัยเทคนิคราชบุรี"
    },
    {
        "id": "444269089004052",
        "location": {
            "latitude": 18.103286772983,
            "longitude": 97.937188223096
        },
        "name": "ห้องหัวหน้าแผนกวิชาช่างไฟฟ้า วิทยาลัยการอาชีพแม่สะเรียง"
    },
    {
        "id": "458169070956026",
        "location": {
            "city": "Pattaya",
            "country": "Thailand",
            "latitude": 12.8400834,
            "longitude": 100.9094981
        },
        "name": "ออฟฟิศช่างไฟฟ้า ใน แอมบาสซาเดอร์ ซิตี้ จอมเทียน"
    },
    {
        "id": "446909298822049",
        "location": {
            "latitude": 8.4545854466667,
            "longitude": 98.53064525
        },
        "name": "แผนกช่างไฟฟ้า เทคนิคพังงา"
    },
    {
        "id": "448352268676685",
        "location": {
            "city": "Chachoengsao",
            "country": "Thailand",
            "latitude": 13.6874658,
            "longitude": 101.07315175
        },
        "name": "ห้องพักเวรช่างไฟฟ้า"
    },
    {
        "id": "449347601901470",
        "location": {
            "city": "เขาย้อย",
            "latitude": 13.28217,
            "longitude": 99.7720813
        },
        "name": "แผนกช่างไฟฟ้า ว ก ย ข"
    },
    {
        "id": "450432328473790",
        "location": {
            "city": "Khun Han",
            "country": "Thailand",
            "latitude": 14.5943243,
            "longitude": 104.4347856
        },
        "name": "แผนกช่างไฟฟ้า วิทยาลัยการอาชีพขุนหาญ"
    },
    {
        "id": "453685858068681",
        "location": {
            "latitude": 16.1050442001,
            "longitude": 103.68901262069
        },
        "name": "แผนกวิชาช่างไฟฟ้ากำลัง วิทยาลัยเทคนิคร้อยเอ็ด"
    },
    {
        "id": "465464876933497",
        "location": {
            "latitude": 14.923520088196,
            "longitude": 103.14305114746
        },
        "name": "แผนกวิชาช่างไฟฟ้ากำลัง วิทยาลัยสารพัดช่างบุรีรัมย์"
    },
    {
        "id": "443582049033371",
        "location": {
            "city": "Lampang",
            "country": "Thailand",
            "latitude": 18.288815045694,
            "longitude": 99.483742147843
        },
        "name": "แผนกวิชาช่างไฟฟ้ากำลัง วิทยาลัยเทคนิคลำปาง"
    },
    {
        "id": "439640809575323",
        "location": {
            "city": "Amphoe Muang Phitsanulok",
            "country": "Thailand",
            "latitude": 16.785157899422,
            "longitude": 100.22902288501
        },
        "name": "เเผนกช่างไฟฟ้ากำลัง วิลัยเทคนิคสองแคว พิษณุโลก"
    },
    {
        "id": "435920623228753",
        "location": {
            "latitude": 10.004185,
            "longitude": 98.65566
        },
        "name": "แผนก ช่างไฟฟ้ากำลัง วิทยาลัยเทคนิคระนอง"
    },
    {
        "id": "430348277102628",
        "location": {
            "city": "Samut Sakhon",
            "country": "Thailand",
            "latitude": 13.522279,
            "longitude": 100.182876
        },
        "name": "วิทยาลัยเทคนิคสมุทรสาคร บ้านบ่อ - แผนกช่างไฟฟ้ากำลัง"
    },
    {
        "id": "424933430939282",
        "location": {
            "city": "Muang Lopburi",
            "country": "Thailand",
            "latitude": 14.798135,
            "longitude": 100.619969
        },
        "name": "ห้อง ป.โท ช่างไฟฟ้ากำลัง"
    },
    {
        "id": "422667477819214",
        "location": {
            "city": "Phrea",
            "country": "Thailand",
            "latitude": 18.13501326087,
            "longitude": 100.14196271739
        },
        "name": "ช่างไฟฟ้า เทคนิคแพร่"
    },
    {
        "id": "420916834756087",
        "location": {
            "city": "Amphoe Si Satchanalai",
            "country": "Thailand",
            "latitude": 17.461235222167,
            "longitude": 99.732738410717
        },
        "name": "แผนกช่างไฟฟ้าวิทยาลัยการอาชีพศรีสัชนาลัย"
    },
    {
        "id": "459102790844783",
        "location": {
            "city": "Muang Sara Buri",
            "country": "Thailand",
            "latitude": 14.534029475754,
            "longitude": 100.9163174443
        },
        "name": "บ้าน นัสช่างไฟฟ้า"
    },
    {
        "id": "460401200787390",
        "location": {
            "city": "Bangkok",
            "country": "Thailand",
            "latitude": 13.7115202,
            "longitude": 100.5412674,
            "street": "ถนนนางลิ้นจี่"
        },
        "name": "แผนกวิชาช่างไฟฟ้ากำลัง วิทยาเขตเทคนิคกรุงเทพฯ"
    },
    {
        "id": "460787143965841",
        "location": {
            "city": "Bangkok",
            "country": "Thailand",
            "latitude": 13.828512017756,
            "longitude": 100.56890189416
        },
        "name": "แผนกช่างไฟฟ้า เมจอร์ฯรัชโยธิน"
    },
    {
        "id": "461908863971209",
        "location": {
            "city": "Srimahapho",
            "country": "Thailand",
            "latitude": 13.915461486076,
            "longitude": 101.54176652073
        },
        "name": "แผนกช่างไฟฟ้ากำลัง วิทยาลัยเทคนิคบูรพาปราจีน"
    },
    {
        "id": "462402143914855",
        "location": {
            "city": "Amphoe Warin Chamrap",
            "country": "Thailand",
            "latitude": 15.1563172,
            "longitude": 104.848118
        },
        "name": "แผนกช่างไฟฟ้ากำลัง วิทยาลัยการอาชีพวารินชำราบ"
    },
    {
        "id": "464132917065618",
        "location": {
            "latitude": 15.050587272727,
            "longitude": 101.79759909091
        },
        "name": "ช่างไฟฟ้า วิลัยเทคนิคหลวงพ่อคูณ ปริสุทโธ"
    },
    {
        "id": "405676562904331",
        "location": {
            "city": "Ubon Ratchathani",
            "country": "Thailand",
            "latitude": 15.22973,
            "longitude": 104.85612,
            "street": "EP.2"
        },
        "name": "แผนกช่างไฟฟ้ากำลัง Umt"
    },
    {
        "id": "465773756937139",
        "location": {
            "city": "Nan",
            "country": "Thailand",
            "latitude": 18.7833,
            "longitude": 100.783
        },
        "name": "วิทยาลัยแห่งหนึ่งที่มีช่างไฟฟ้าหล่อและน่ารัก"
    },
    {
        "id": "466250180138560",
        "location": {
            "city": "Uttaradit",
            "country": "Thailand",
            "latitude": 17.611179,
            "longitude": 100.114183
        },
        "name": "โรงงานแผนกช่างไฟฟ้า วิทยาลัยเทคนิคอุตรดิตถ์"
    }
]