[
    {
        "id": "148178042041315",
        "name": "ช่างไฟฟ้า- สาวก NGO"
    },
    {
        "about": "รับติดตั้งระบบไฟฟ้า แสงสว่าง เชียงใหม่ ช่างไฟฟ้า บริการหลังการขาย\nติดต่อคุณจิว 083-0124300",
        "description": "รับติดตั้งระบบไฟฟ้า เชียงใหม่ รับออกแบบ ติดตั้ง ระบบไฟฟ้า ระบบแสงสว่าง ช่างไฟฟ้ามืออาชีพ พร้อมบริการหลังการขาย เชียงใหม่-รอบนอก\nติดต่อคุณจิว 083-0124300",
        "emails": [
            "hometechthailand@gmail.com"
        ],
        "id": "387823671369997",
        "location": {
            "city": "Chiang Mai",
            "country": "Thailand",
            "latitude": 18.78603,
            "longitude": 99.02265,
            "street": "236/49 หมู่บ้านศิริวัฒนานิเวศน์ ถ.เชียงใหม่-ลำพูน ต.หนองหอย อ.เมือง",
            "zip": "50000"
        },
        "name": "รับติดตั้งระบบไฟฟ้า เชียงใหม่ ออกแบบระบบแสงสว่าง ช่างไฟฟ้า บริการหลังการขาย",
        "phone": "083-012-4300"
    },
    {
        "id": "258309001043555",
        "name": "ช่างไฟฟ้า"
    },
    {
        "id": "881721178581128",
        "location": {
            "city": "ไทย",
            "street": "35/2ม.6ต.ท่าประจะ อ.ชะอวด จ.นครศรีธรรมราช",
            "zip": "80180"
        },
        "name": "ช่างไฟฟ้า",
        "phone": "0862788734"
    },
    {
        "id": "924643000934507",
        "name": "ช่างไฟฟ้าเครื่องกล.ร11"
    },
    {
        "id": "1484656988498561",
        "name": "ช่างไฟฟ้า. ช่างไม้"
    },
    {
        "id": "910686562359510",
        "name": "ช่างไฟฟ้ารุ่น27ปี"
    },
    {
        "id": "522161427938472",
        "name": "ช่างไฟฟ้า คัฟ"
    },
    {
        "id": "1500974473555307",
        "name": "ช่างไฟฟ้า วิศวกรรมไฟฟ้า เขียนแบบระบบ ประมาณการราคา"
    },
    {
        "id": "364554217052999",
        "location": {
            "city": "Hat Yai",
            "country": "Thailand",
            "latitude": 7.0361492,
            "longitude": 100.4724871
        },
        "name": "บ.ช่างไฟฟ้า"
    },
    {
        "id": "357588897596441",
        "location": {
            "city": "Kalasin",
            "country": "Thailand",
            "latitude": 16.429313859649,
            "longitude": 103.51083535088,
            "zip": "46000"
        },
        "name": "อาคาร 5 แผนกช่างไฟฟ้า"
    },
    {
        "id": "368966549977507",
        "location": {
            "city": "Amphoe Chiang Rai",
            "country": "Thailand",
            "latitude": 19.8947972,
            "longitude": 99.8187548
        },
        "name": "แผนกช่างไฟฟ้ากำลัง วิทยาลัยเทคนิคเชียงราย"
    },
    {
        "id": "372855999544085",
        "location": {
            "city": "Bangkok",
            "country": "Thailand",
            "latitude": 13.714271,
            "longitude": 100.5363822
        },
        "name": "แผนกวิชาช่างไฟฟ้ากำลัง"
    },
    {
        "id": "375483252649908",
        "location": {
            "city": "เถิน",
            "latitude": 17.627747352158,
            "longitude": 99.25826434046
        },
        "name": "แผนกวิชาช่างไฟฟ้ากำลัง วิทยาลัยการอาชีพเถิน"
    },
    {
        "id": "376385622542061",
        "location": {
            "city": "Bangkok",
            "country": "Thailand",
            "latitude": 13.77024,
            "longitude": 100.39874,
            "street": "17 ม.3 บางเชือกหนังอ.สาษีนจริญ กทม",
            "zip": "10170"
        },
        "name": "ช่างไฟฟ้า ก.การช่าง",
        "phone": "0902214651-0942180338"
    },
    {
        "id": "377433845765114",
        "location": {
            "city": "Bangkok",
            "country": "Thailand",
            "latitude": 13.9223651,
            "longitude": 100.5956815
        },
        "name": "แผนกช่างไฟฟ้ากำลัง โรงเรียนการช่างอินทราชัย-วิทยาลัยเทคนิคดอนเมือง"
    },
    {
        "id": "364325840353740",
        "location": {
            "city": "Dong Mafai",
            "country": "Thailand",
            "latitude": 17.129896609129,
            "longitude": 104.1345598084
        },
        "name": "แผนกวิชาช่างไฟฟ้ากำลัง วิทยาลัยสารพัดช่างสกลนคร"
    },
    {
        "id": "364157473789024",
        "location": {
            "city": "Chok Chai",
            "country": "Thailand",
            "latitude": 14.819192886353,
            "longitude": 102.15001678467
        },
        "name": "หอพักช่างไฟฟ้า"
    },
    {
        "id": "359794470858621",
        "location": {
            "city": "Tak",
            "country": "Thailand",
            "latitude": 16.8845027,
            "longitude": 99.1604177
        },
        "name": "บัานช่างไฟฟ้าภายในอาคารชัยยะ"
    },
    {
        "id": "359784650899547",
        "location": {
            "city": "Amphoe Pranburi",
            "country": "Thailand",
            "latitude": 12.338025815,
            "longitude": 99.94290223
        },
        "name": "วิทยาลัยการอาชีพปราณบุรีที่มีช่างอิเล็กฯ และช่างไฟฟ้าหน้าตาดีทุกคน"
    },
    {
        "id": "359147070945866",
        "location": {
            "city": "Surat Thani",
            "country": "Thailand",
            "latitude": 9.1397,
            "longitude": 99.3306,
            "street": "ตรงข้ามกับโรงเเรมบ้านบุษบาเกาะพะงัน",
            "zip": "84280"
        },
        "name": "สมเกียรติ การช่างไฟฟ้า",
        "phone": "0816937550"
    },
    {
        "id": "391303574319189",
        "location": {
            "city": "Pak Chong",
            "country": "Thailand",
            "latitude": 14.704472925868,
            "longitude": 101.4138918345,
            "zip": "30130"
        },
        "name": "จ. ช่างไฟฟ้า"
    },
    {
        "id": "378368945668848",
        "location": {
            "city": "Bangkok",
            "country": "Thailand",
            "latitude": 13.60599,
            "longitude": 100.41691,
            "street": "พระราม2 ซอย28",
            "zip": "10150"
        },
        "name": "ช่างไฟฟ้า จากที่ราบสูง",
        "phone": "0833037448"
    },
    {
        "id": "378817125597981",
        "location": {
            "city": "Suphan Buri",
            "country": "Thailand",
            "latitude": 14.4662765,
            "longitude": 100.1263505
        },
        "name": "แผนกช่างไฟฟ้ากำลัง วิทยาลัยสารพัดช่างบรรหาร-แจ่มใส สุพรรณบุรี",
        "phone": "035511880"
    },
    {
        "id": "378826488984712",
        "location": {
            "city": "Nakhon Ratchasima",
            "country": "Thailand",
            "latitude": 14.97795618,
            "longitude": 102.08463282
        },
        "name": "วิลัยเทคนิกนครราชสีมา แผนกช่างไฟฟ้ากำลัง"
    }
]