[
    {
        "about": "ไฟบ้าน ไฟโรงงานงานไฟฟ้าทุกชนิด\n0815964834",
        "id": "783021155081225",
        "name": "ช่างไฟฟ้าบ้าน ไฟโรงงาน รับเดินสายไฟทุกชนิดพร้อมติดตั้งอุปกรณ์"
    },
    {
        "about": "แผนกช่างไฟฟ้ากำลัง วิทยาลัยอาชีวศึกษาเทศบาลนครปฐม",
        "id": "252202708266630",
        "location": {
            "city": "นครปฐม",
            "street": "137/4 ต.พระปฐมเจดีย์ อ.เมือง จ.นครปฐม",
            "zip": "73000"
        },
        "name": "แผนกช่างไฟฟ้ากำลัง วิทยาลัยอาชีวศึกษาเทศบาลนครปฐม",
        "phone": "037-250096"
    },
    {
        "id": "905617159452588",
        "name": "แผนกช่างไฟฟ้า วิทยาลัยสารพัดช่างกาฬสินธุ์"
    },
    {
        "about": "ฝึกวิชาชีพไฟฟ้าสู่ชุมชน บนวัฒนธรรมอันหลากหลาย",
        "id": "617213788293975",
        "name": "แผนกวิชาช่างไฟฟ้า วิทยาลัยการอาชีพแม่สะเรียง"
    },
    {
        "about": "รูปกิจกรรม",
        "id": "490027684507474",
        "name": "ปวส. ช่างไฟฟ้ากำลัง วิทยาลัยการอาชีพเลิงนกทา2558"
    },
    {
        "about": "สร้างขึ้นเพื่อกระชับความสำพันธ์ระหว่างรุ่นพี่กับรุ่นน้อง\nรวมทั้งครูบาร์อาจารย์",
        "id": "102396283434508",
        "name": "IRPCT ช่างไฟฟ้า ใจข้าเกิน100"
    },
    {
        "id": "939184719430306",
        "location": {
            "city": "Suphan Buri",
            "country": "Thailand",
            "latitude": 14.472265746113,
            "longitude": 100.11263387132,
            "street": "74 ถนนขุนช้าง ตำบลท่าพี่เลี้ยง อำภอเมือง จังหวัดสุพรรณบุรี",
            "zip": "72000"
        },
        "name": "แผนกช่างไฟฟ้ากำลัง วิทยาลัยเทคนิคสุพรรณบุรี"
    },
    {
        "about": "SICC Electrical Power Department",
        "description": "เพจเพื่อประชาสัมพันธ์กิจกรรม และข้อมูลข่าวสาร ของแผนกวิชาช่างไฟฟ้กำลัง วิทยาลัยการอาชีพศรีสะเกษ",
        "id": "413731988726499",
        "location": {
            "city": "จ.ศรีสะเกษ",
            "street": "358 ถ.กสิกรรม ต.หนองครก อ.เมือง",
            "zip": "33000"
        },
        "name": "แผนกวิชาช่างไฟฟ้ากำลังวิทยาลัยการอาชีพศรีสะเกษ",
        "phone": "045611991 ต่อ 204"
    },
    {
        "about": "สามัคคี ไฟฟ้า \nมาด้วยใจ \nอย่าใส่ใจ แม้ใครหาว่านักเลง ....",
        "id": "121739048170778",
        "name": "Electricalpover - ช่างไฟฟ้ากำลัง รุ่นที่24"
    },
    {
        "about": "ลิงค์กลุ่มนะครับ https://www.facebook.com/groups/183734445084319/",
        "id": "585099964839080",
        "name": "ชมรมศิษย์เก่าช่างไฟฟ้ากำลัง วิทยาลัยการอาชีพนวมินทราชินีมุกดาหาร"
    },
    {
        "id": "1432089873786537",
        "name": "ช่างไฟฟ้ากำลัง. วิทยาลัยสารพัดช่างชัยภูมิ   รุ่นที่22"
    },
    {
        "about": "ช่างไฟฟ้า เทคนิคบุรีรัมย์",
        "id": "189990104355161",
        "location": {
            "street": "แผนกวิชาช่างไฟฟ้ากำลัง  วิทยาลัยเทคนิคบุรีรัมย์  322  ถนนจิระ  ตำบลในเมือง",
            "zip": "31000"
        },
        "name": "แผนกวิชาช่างไฟฟ้ากำลัง วิทยาลัยเทคนิคบุรีรัมย์",
        "phone": "086-4658321"
    },
    {
        "about": "รวบรวม ความ กวนๆๆ ของพวกเรา Omo FedFe ",
        "id": "465166663533386",
        "name": "เด็กช่างไฟฟ้า"
    },
    {
        "about": "คนดี คนดัง สาวสวย สาวงาม ของกาจนาภิเษก",
        "id": "205326589669040",
        "location": {
            "located_in": "192387937479333"
        },
        "name": "ขวัญใจช่างไฟฟ้า"
    },
    {
        "about": "แผนกวิชาช่างไฟฟ้า",
        "id": "449826275114080",
        "name": "แผนกวิชาช่างไฟฟ้า วิทยาลัยเทคโนโลยีไออาร์พีซี"
    },
    {
        "id": "110523662357338",
        "name": "ช่างไฟฟ้า(ติดตั้ง)"
    },
    {
        "id": "919740591453758",
        "location": {
            "city": "Sing Buri",
            "country": "Thailand",
            "street": "107/1หมู13 ต.หัวไผ่",
            "zip": "16000"
        },
        "name": "ช่างไฟฟ้า.สิงห์บุรี",
        "phone": "0874101025"
    },
    {
        "about": "221. ,. ต. บัวชุม อ. ชัยบาดาล จ.ลพบุรี 15130\nโทร. 036462050 ต่อ 118",
        "id": "451161074916577",
        "name": "แผนกช่างไฟฟ้ากำลัง วิทยาลัยการอาชีพชัยบาดาล"
    },
    {
        "description": "สมาคมวิชาชีพครูช่างไฟฟ้ากำลัง ภาคตะวันออกเฉียงเหนือ ย่อว่า สค.ฟฉ. เรียกเป็นภาษา อังกฤษว่า THE NORTH EASTHERN ELECTRICAL POWER TECHNICIAN’S TEACHER CAREER ASSOCIATION ย่อว่า NEPTA\n         เครื่องหมายของสมาคมมีลักษณะเป็นรูป ทรงกลมขนาดเส้นผ่าศูนย์กลาง 4 ซม. มีสายฟ้าอยู่ตรงกลาง ข้างล่างภาษาไทยกำกับว่า สมาคมวิชาชีพครูช่างไฟฟ้ากำลัง ภาคตะวันออกเฉียงเหนือ ภาษาอังกฤษข้างล่างสุดว่า NEPTA 2552 \n        สำนักงานของสมาคมตั้งอยู่ ณ วิทยาลัยการอาชีพเลิงนกทา ถนนสวาท - หนองแสง ตำบลสวาท อำเภอเลิงนกทา จังหวัดยโสธร ๓๕๑๒๐",
        "id": "471243619596811",
        "location": {
            "city": "Yasotorn",
            "country": "Thailand",
            "latitude": 16.1872051,
            "located_in": "572380702788174",
            "longitude": 104.5152687,
            "zip": "35000"
        },
        "name": "สมาคมครูช่างไฟฟ้ากำลัง ภาคตะวันออกเฉียงเหนือ",
        "phone": "045-709166"
    },
    {
        "id": "251175868404144",
        "location": {
            "city": "อำเภอเมืองราชบุรี จังหวัดราชบุรี, Muang Ratburi, Ratchaburi,Thailand",
            "street": "วิทยาลัยเทคนิคราชบุรี 433 ถนนศรีสุริยวงศ์ ตำบลหน้าเมือง",
            "zip": "70000"
        },
        "name": "แผนกวิชาช่างไฟฟ้ากำลัง  วิทยาลัยเทคนิคราชบุรี"
    },
    {
        "id": "192408134233128",
        "name": "เด็กช่างไฟฟ้ากำลัง กลุ่ม 1-2"
    },
    {
        "id": "484672284940548",
        "name": "ชมรมครูวิชาชีพช่างไฟฟ้า  Electrical_vec_club"
    },
    {
        "id": "1640381186186718",
        "name": "ช่างไฟฟ้ากำลัง รุ่น12"
    },
    {
        "id": "1059648340722071",
        "name": "ช่างไฟฟ้ากำลัง Ep3"
    },
    {
        "id": "1064041163630678",
        "name": "ช่างไฟฟ้ากำลัง รุ่น๔๒ปี"
    }
]