[
    {
        "id": "1500651326897895",
        "name": "ช่างไฟฟ้า/จานดาวเทียม"
    },
    {
        "id": "1607505509513163",
        "name": "ช่างไฟฟ้าระบบแอร์"
    },
    {
        "id": "1607666322799681",
        "name": "ช่างไฟฟ้า By เอก"
    },
    {
        "id": "1615094515411786",
        "name": "ช่างไฟฟ้าฮอตไลน์"
    },
    {
        "id": "960244570700622",
        "name": "ช่างไฟฟ้าคอนโทน"
    },
    {
        "id": "1675870942649559",
        "location": {
            "city": "Amphoe Nakhon Luang",
            "country": "Thailand"
        },
        "name": "ช่างไฟฟ้าลัง อยุธยา"
    },
    {
        "id": "100206547002240",
        "location": {
            "city": "Songkhla",
            "country": "Thailand"
        },
        "name": "ช่างไฟฟ้ากำลัง-Electricalpower"
    },
    {
        "id": "1039859769387602",
        "name": "ช่างไฟฟ้ากำลังปี48"
    },
    {
        "id": "165325743807876",
        "name": "ช่างไฟฟ้ากำลลัง"
    },
    {
        "id": "402902459901203",
        "name": "ช่างไฟฟ้ากำลัง กลุ่ม1"
    },
    {
        "id": "649998265139197",
        "name": "ช่างไฟฟ้า อาวุโส(แผนก)"
    },
    {
        "id": "717985021679608",
        "name": "ช่างไฟฟ้า   พาดูด"
    },
    {
        "id": "742388765906812",
        "name": "ช่างไฟฟ้า-อิเล็ก"
    },
    {
        "about": "รับติดตั้งไฟฟ้าไนอาคาร นอกอาคาร  ซ่อมแซม ต่อเติม และงานระบบไฟฟ้าทุกชนิด",
        "id": "897161373704969",
        "location": {
            "city": "Chumphon",
            "country": "Thailand",
            "latitude": 10.5,
            "longitude": 99.1667,
            "street": "อำเภอสวี",
            "zip": "86130"
        },
        "name": "ช่างไฟฟ้า สวี ชุมพร",
        "phone": "0980364785"
    },
    {
        "id": "913169768774907",
        "name": "ช่างไฟฟ้ากำลัง   หมก"
    },
    {
        "id": "210903015630107",
        "location": {
            "street": "460",
            "zip": "44000"
        },
        "name": "แผนกวิชาช่างไฟฟ้ากำลังเทคนิคมหาสารคาม"
    },
    {
        "id": "451652551655413",
        "location": {
            "city": "Bangkok",
            "country": "Thailand",
            "street": "วังทองหลาง",
            "zip": "10310"
        },
        "name": "ช่างไฟฟ้า ช่างต่อเติมก่อสร้างบ้าน มีโปรไฟล์ อุ่นใจเมื่อใช้บริการจากเรา",
        "phone": "0919566459"
    },
    {
        "id": "578647428860564",
        "name": "ช่างไฟฟ้ากำลัง  ปวส"
    },
    {
        "id": "337448279780382",
        "location": {
            "city": "Mae Mo",
            "country": "Thailand",
            "latitude": 18.3054318,
            "longitude": 99.7159216
        },
        "name": "ช่างไฟฟ้ารถยนต์ Sahakol Mae Moh"
    },
    {
        "about": "ยินดีต้อนรับ..แผนกวิชาช่างไฟฟ้ากำลัง วิทยาลัยการอาชีพท่าตูม จังหวัดสุรินทร์",
        "id": "156126784576294",
        "location": {
            "city": "ท่าตูม",
            "street": "วิทยาลัยการอาชีพท่าตูม",
            "zip": "321020"
        },
        "name": "แผนกวิชาช่างไฟฟ้ากำลัง วิทยาลัยการอาชีพท่าตูม"
    },
    {
        "about": "รับหมาไฟฟ้าโรงงานแล้วอาคารทุกชนิด\nติดต่อได้เลยรับประกันคุณภาพการทำงาน",
        "id": "108996639449680",
        "location": {
            "city": "ทุกจังหวัด",
            "street": "ทุกทีๆมีงาน",
            "zip": "32000"
        },
        "name": "สมาคมเด็กช่างไฟฟ้าโกอินเตอร์เนชันแนล",
        "phone": "0823527742"
    },
    {
        "id": "843594889081881",
        "name": "ช่างไฟฟ้า โซล่าเซลล์"
    },
    {
        "id": "1637009929876916",
        "name": "ช่างไฟฟ้า / นักพัฒนาชุมชน"
    },
    {
        "about": "รวบรวมศิษย์เก่าและศิษย์บัจจุบัน",
        "id": "418782794902860",
        "name": "ศิษย์เก่าช่างไฟฟ้า สารพัดช่างบรรหาร-แจ่มใส"
    },
    {
        "id": "196844663668562",
        "name": "ช่างไฟฟ้าซ่อมบำรุง"
    }
]