[
    {
        "description": "- รับเหมางานไฟฟ้า ภายในบ้านพัก อาคาร สำนักงาน ฯลฯ\nทั้งงานใหม่และงานซ่อมแซมติดตั้งเพิ่ม\n- รับทำระบบไฟฟ้าต่างๆ งานเดินท่อ ร้อยสาย เดินสายไฟ สายcctv\n- ติดตั้งอุปกรณ์ไฟฟ้าต่างๆ เช่น ปลั๊ก ดวงโคมแสงสว่าง ฯลฯ\nติดตั้งตู้ควบคุม ติดตั้งมิเตอร์ไฟฟ้า เดินสายเมน",
        "id": "727317863974592",
        "location": {
            "city": "Amphoe Muang Loei",
            "country": "Thailand",
            "latitude": 17.54144,
            "longitude": 101.71174,
            "street": "342/31 บ.เอื้ออาทร ต.เมือง อ.เมือง",
            "zip": "42000"
        },
        "name": "บ้านช่างไฟฟ้า",
        "phone": "0821712440"
    },
    {
        "id": "139856696183796",
        "location": {
            "street": "ศรีสัชนาลัย",
            "zip": "mygolf007@hotmail.com"
        },
        "name": "ช่างไฟฟ้า",
        "phone": " mygolf007@hotmail.com"
    },
    {
        "id": "227626467399428",
        "location": {
            "city": "Bangkok",
            "country": "Thailand",
            "latitude": 13.774,
            "longitude": 100.65728,
            "street": "123ลาดพร้าว 101",
            "zip": "10240"
        },
        "name": "ช่างไฟฟ้า",
        "phone": "0843977784"
    },
    {
        "about": "หน้าตาดี หล่อ รับงานทั่วราชอาณาจักร ติดต่อ083-869-2191",
        "id": "334050713345068",
        "name": "ช่างไฟฟ้าลายดอก"
    },
    {
        "about": "ชมรมศิษย์เก่าช่างไฟฟ้า วิทยาเขตเทคนิคภาคใต้",
        "id": "417870858355097",
        "name": "ชมรมศิษย์เก่าช่างไฟฟ้า วิทยาเขตเทคนิคภาคใต้"
    },
    {
        "about": "ติดตั้งระบบไฟฟ้าภายในและภายนอกออกแบบระบบไฟฟ้า",
        "id": "371801996361521",
        "location": {
            "city": "Chiang Mai",
            "country": "Thailand",
            "latitude": 18.7622604,
            "longitude": 98.9929581,
            "street": "392/1หมู่4 ต.สันทรายน้อย อ.สันทราย จ.เชียงใหม่",
            "zip": "50210"
        },
        "name": "สิน ช่างไฟฟ้า",
        "phone": "0835658376"
    },
    {
        "about": "ทำด้วยมือ  สู้ด้วยใจ รอบคอบ ว่องไว ปลอดภัย มีประสิทธิภาพ +น้ำไหล ไฟสว่าง",
        "id": "579084105440634",
        "location": {
            "street": "199 หมู่ 11 ต.แม่สูน อ.ฝาง",
            "zip": "50110"
        },
        "name": "แผนกวิชาช่างไฟฟ้ากำลัง วิทยาลัยการอาชีพฝาง"
    },
    {
        "id": "196322880379719",
        "name": "ช่างไฟฟ้ากำลัง"
    },
    {
        "about": "ช่างไฟฟ้่กำลัง วิทยาลัยการอาชีพเลิงนกทา",
        "id": "325151717630510",
        "location": {
            "street": "วิทยาลัยการอาชีพเลิงนกทา"
        },
        "name": "ช่างไฟฟ้ากำลัง  วิทยาลัยการอาชีพเลิงนกทา",
        "phone": "0879477146"
    },
    {
        "id": "405490466230137",
        "name": "ช่างไฟฟ้า วิทยาลัยเทคโนโลยี ดอนบอสโก บ้านโป่ง"
    },
    {
        "about": "ไฟฟ้ากำลัง",
        "id": "554801187872947",
        "name": "ช่างไฟฟ้า"
    },
    {
        "id": "308137772703085",
        "location": {
            "city": "Kalasin",
            "country": "Thailand",
            "latitude": 16.4492789,
            "longitude": 103.5318339
        },
        "name": "อาคารทักษะช่างไฟฟ้า มทร.กาฬสินธุ์"
    },
    {
        "id": "548980088582405",
        "name": "ช่างไฟฟ้า42/2"
    },
    {
        "about": "ช่างไฟฟ้ากำลัง",
        "id": "1381505515407523",
        "name": "ช่างไฟฟ้ากำลัง C3"
    },
    {
        "id": "189154544449603",
        "name": "ช่างไฟฟ้าเทคนิค"
    },
    {
        "about": "รับใช้ทุกบ้านทุกหลังคาเรื่อนด้วยราคามิตรภาพ",
        "id": "1477422099159064",
        "name": "ช่างไฟฟ้า ประจำบ้าน พิษณุโลก"
    },
    {
        "id": "101280233351233",
        "name": "ช่างไฟฟ้า วิทยาลัยเทคนิคบุรีรัมย์"
    },
    {
        "id": "134411249954423",
        "name": "ช่างไฟฟ้ารถยนต์"
    },
    {
        "about": "ช่างไฟฟา ช่างประปา ซื้อแอร์เก่า นวนคร",
        "description": "ระบบงานไฟฟ้า  เรารับบริการเดินสายไฟ  ติดตั้งเครื่องทำน้ำอุ่น\t \t \n \tสายไฟชำรุด  อื่นๆเกี่ยวกับปัญหาไฟฟ้าครับ\t \t \n-\tระบบงานปะปา  เราบริการเดินท่อปะปา  ก็อกน้ำเสีย ท่อแตก ท่อรั่ว \t \t \n \tและอื่นๆที่เกี่ยวกับงานประปา  ปรึกษาเราได้ครับ\t \t \n-\tงานต่อเติมบ้าน ทำที่จอดรถ ทาสีบ้าน ปูกระเบื้อง  ลูกบิดชำรุด  ประตูชำรุด  ติดกลอนเพิ่มเติม\n \tและอื่นๆ ลองสอบถามเราได้นะครับ\t \t \n-\tรับซื้อแอร์เก่า ย่าน นวนคร  พระอินทร์  อยุทธยา  ลำลูกกา รังสิต ปทุมธานี  \nHOSANNA\n\nร้องว่า โฮซันนา\n\nHosanna Service  : ช่างไฟฟ้า  ช่างประปา  ช่างทาสี  ปูกระเบื้อง  ต่อเติม  เดินสายไฟ\nHosanna Air        : ติดแอร์ แอร์ใหม่  แอร์มือสอง  รับซื้อแอร์มือสอง  ล้างแอร์  ซ่อมแอร์\nHosanna Agent    : ม้วนเหล็ก พับเหล็ก ตัดเหล็ก ดัดเหล็ก ขึ้นรูป  รับทำงานตามแบบ ตัด กลึง มิลลิ่ง\nงานช่าง งานแอร์ นวนคร พระอินทร์ รังสิต ปทุมธานี อยุทธยา   \nงานเหล็ก ปทุมธานี อยุทธยา ระยอง ชลบุรี สมุทรปราการ สมุทรสาคร นนทบุรี\n \n\nยินดีรับใช้ในทุกบริการ  0849429388 ",
        "emails": [
            "hmouyoen@gmail.com"
        ],
        "id": "775386022481127",
        "location": {
            "city": "Pathum Thani",
            "country": "Thailand",
            "latitude": 14.112713934548,
            "longitude": 100.59994934492,
            "zip": "12120"
        },
        "name": "ช่างไฟฟ้า ช่างประปา   ซื้อแอร์เก่า ติดแอร์ นวนคร Hosanna Service",
        "phone": "0837453630"
    },
    {
        "about": "รับเหมาติดตั้งระบบไฟฟ้า ประปา ประจำบ้าน",
        "id": "481340991965078",
        "name": "ช่างไฟฟ้า ช่างประปา ประจำบ้าน"
    },
    {
        "about": "ไว้พูดคุยกัลในห้อง หรือลงภาพฮาๆก่อนจบการศึกษา",
        "id": "129162247237605",
        "location": {
            "street": "21/1",
            "zip": "90000"
        },
        "name": "ช่างไฟฟ้า /7 ปี 53",
        "phone": "0843103312"
    },
    {
        "about": "รับเหมางานไฟฟ้าทั่ว จ.เพชรบุรี  จ.นนทบุรี และ กรุงเทพ",
        "id": "1428054510746865",
        "location": {
            "city": "Petchaburi",
            "country": "Thailand",
            "latitude": 13.0732857,
            "longitude": 99.9740171,
            "zip": "76150"
        },
        "name": "Top ช่างไฟฟ้า-บ้านลาด เพชรบุรี",
        "phone": "0844124315"
    },
    {
        "id": "369249903164006",
        "name": "ช่างไฟฟ้ากำลัง"
    },
    {
        "about": "สำหรับผู้ที่สนใจงานไฟฟ้า\r\n",
        "id": "445637142281739",
        "name": "ช่างไฟฟ้า"
    },
    {
        "about": "ระบบไฟฟ้า บ้านเรือน อาคาร โรงงาน",
        "id": "816399768432489",
        "location": {
            "city": "Samut Sakhon",
            "country": "Thailand"
        },
        "name": "ช่างไฟฟ้า",
        "phone": "0988492156"
    }
]