[
    {
        "about": "สื่อรึไง",
        "id": "239105806258566",
        "name": "ช่างไฟฟ้ากำลัง  วท.โพธาราม"
    },
    {
        "id": "101543613261352",
        "name": "ช่างไฟฟ้าระบบ"
    },
    {
        "about": "ยินดีต้อนรับพี่น้อง มนุษย์ไฟฟ้าทุกคนคร๊าฟ",
        "id": "487723741314472",
        "name": "ช่างไฟฟ้ากำลัง สานสัมพันธ์ พี่น้อง"
    },
    {
        "id": "452491371491260",
        "name": "แผนกช่างไฟฟ้า วิทยาลัยเทคนิคระนอง"
    },
    {
        "id": "404085079713468",
        "name": "ช่างไฟฟ้า เดินสายไฟ และรับเหมาต่อเติมบ้าน"
    },
    {
        "id": "401317803359277",
        "location": {
            "city": "Ban Rangsit",
            "country": "Thailand",
            "latitude": 13.99171529,
            "longitude": 100.58008854
        },
        "name": "แผนกช่างไฟฟ้ากำลัง วิทยาลัยการอาชีวศึกษาปทุมธานี"
    },
    {
        "id": "403119953100559",
        "location": {
            "city": "Phitsanulok",
            "country": "Thailand",
            "latitude": 16.811699825355,
            "longitude": 100.27223653635
        },
        "name": "แผนกช่างไฟฟ้ากำลัง วพล. พิษณุโลก"
    },
    {
        "id": "403843149711083",
        "location": {
            "city": "Lampang",
            "country": "Thailand",
            "latitude": 18.28763,
            "longitude": 99.485643333333
        },
        "name": "Lampang Technical college ช่างไฟฟ้า"
    },
    {
        "description": "มาแอบ ชาล์ แบต อ๊ากกๆ!!!\"",
        "id": "404542706325288",
        "location": {
            "city": "Bangkok",
            "country": "Thailand",
            "latitude": 13.764644303797,
            "longitude": 100.55974417722
        },
        "name": "ห้องเรียนช่างไฟฟ้า!!"
    },
    {
        "id": "408265389314525",
        "location": {
            "city": "Phitsanulok",
            "country": "Thailand",
            "latitude": 16.811839097928,
            "longitude": 100.27239142114,
            "zip": "65000"
        },
        "name": "แผนกช่างไฟฟ้ากำลัง วิทยาลัยเทคนิคพิษณุโลก"
    },
    {
        "id": "412618178923122",
        "location": {
            "city": "Amphoe Muang Rat Buri",
            "country": "Thailand",
            "latitude": 13.5319165,
            "longitude": 99.8079416,
            "zip": "70000"
        },
        "name": "แผนกช่างไฟฟ้ากำลัง วิทลัยเทคนิคราชบุรี"
    },
    {
        "id": "412650578936208",
        "location": {
            "city": "Chiang Mai",
            "country": "Thailand",
            "latitude": 18.574144,
            "longitude": 98.998801
        },
        "name": "แผนกช่างไฟฟ้า วิทยาลัยเทคนิคลำพูน"
    },
    {
        "id": "336826449830462",
        "location": {
            "city": "Hua Hin",
            "country": "Thailand",
            "latitude": 12.5934449,
            "longitude": 99.9514152
        },
        "name": "ตึก 4 ช่างไฟฟ้า ที่มีแต่ผู้ชาย"
    },
    {
        "about": "รับสมัคร งาน ช่างอิเล็กทรอนิกส์ ช่างไฟฟ้า ช่างเทคนิค TECHNICAL SERVICE ช่างซ่อม",
        "emails": [
            "supato_4u@hotmail.com"
        ],
        "id": "475012432575204",
        "location": {
            "city": "Bangkok",
            "country": "Thailand",
            "latitude": 13.758431837639,
            "longitude": 100.74408916855,
            "street": "127 ซอยร่มเกล้า 36 ถนนร่มเกล้า แขวงคลองสามประเวศ เขตลาดกระบัง กรุงเทพมหานคร 10520",
            "zip": "10520"
        },
        "name": "รับสมัครงาน ช่างอิเล็กทรอนิกส์ ช่างไฟฟ้า ช่างซ่อมอุตสาหกรรม",
        "phone": "02-737-9928"
    },
    {
        "id": "102920803124776",
        "name": "ช่างไฟฟ้ากำลัง DVT"
    },
    {
        "id": "1437094343287979",
        "name": "FC   ช่างไฟฟ้า"
    },
    {
        "id": "666562496778581",
        "name": "ช่างไฟฟ้า รุ่น1"
    },
    {
        "about": "รับติดตั้ง รื้อถอน ซ่อมแซม แก้ใข ออกแบบ สั่งทำ งานไฟฟ้าทุกชนิด",
        "id": "485293854951396",
        "location": {
            "city": "Lamphun",
            "country": "Thailand",
            "latitude": 18.5811,
            "longitude": 99.0092,
            "street": "67/1 หมู่8 ต.ริมปิง อ.เมือง จ.ลำพูน",
            "zip": "51000"
        },
        "name": "ริมปิง ช่างไฟฟ้า",
        "phone": "0612865343"
    },
    {
        "about": "ต้องคิดเป็น ทำเป็น",
        "id": "579312702154256",
        "location": {
            "city": "Bangkok",
            "country": "Thailand",
            "latitude": 13.7128201,
            "longitude": 100.3951874,
            "street": "พุทธมณฑล สาย 2",
            "zip": "10170"
        },
        "name": "ช่างไฟฟ้า รับติดตั้ง ซ่อมไฟฟ้า เดินสายไฟ แก้ไขไฟฟ้า ช่างซ่อมไฟฟ้า",
        "phone": "0865983332"
    },
    {
        "about": "เพื่อความบันเทิง",
        "id": "791500804220980",
        "location": {
            "city": "กรุงเทพ",
            "street": "Sakaew",
            "zip": "27120"
        },
        "name": "ช่างไฟฟ้ากำลัง/วท/สก",
        "phone": "1284"
    },
    {
        "about": "แหล่ศูนย์ร่วมคนไฟฟ้า แห่ง ช่างกลสยาม",
        "id": "331868100235313",
        "location": {
            "city": "Bangkok",
            "country": "Thailand",
            "latitude": 13.6031992,
            "longitude": 100.5399944,
            "zip": "10600"
        },
        "name": "ชมรมศิษย์เก่าช่างไฟฟ้าสยาม (ช่างกลสยาม)",
        "phone": "0-2864-0358-61"
    },
    {
        "about": "ช่างไฟฟ้า รับเหมาไฟฟ้า  ช่างซ่อมไฟฟ้า ",
        "id": "515612455155335",
        "name": "ช่างไฟฟ้า  รับเหมาไฟฟ้า ช่างซ่อมไฟฟ้า รับเหมาทาสี"
    },
    {
        "about": "หาช่างไฟฟ้า  หาช่างแอร์  ช่างประปา เชียงใหม่   ติดต่อผมได้คับผม  Tel.093-1421890   Tel.089-6911760  ช่างตั้ม",
        "id": "1088204081209366",
        "name": "หาช่างไฟฟ้าเชียงใหม่  หาช่างแอร์เชียงใหม่"
    },
    {
        "id": "994542233931136",
        "name": "ช่างไฟฟ้า ทองสมบูรณ์"
    },
    {
        "about": "นักศึกษาช่างไฟฟ้ากำลัง เทคนิคสตูล",
        "id": "1458895787773783",
        "location": {
            "city": "สตูล",
            "street": "เทคนิคสตูล",
            "zip": "91000"
        },
        "name": "นักศึกษาช่างไฟฟ้าวิทยาลัยเทคสตูล"
    }
]