[
    {
        "id": "857111911027568",
        "name": "ช่างไฟฟ้า0818531887"
    },
    {
        "id": "130162633710152",
        "name": "ช่างไฟฟ้า"
    },
    {
        "about": "ช่างไฟฟ้ากำลัง'ปวส.56 วิทยาลัยเทคนิคเพชรบูรณ์ ลูกศิษย์อาจารย์ เทพรักษ์ เพ็งคุ้ม รักฝุด'ฝุด \u003e\u003c",
        "id": "531527433578148",
        "name": "ช่างไฟฟ้ากำลัง'ปวส.56"
    },
    {
        "id": "1638979369719605",
        "name": "ช่างไฟฟ้าซ่า'า สาขา' สายเหลืองซิ่ง'งง"
    },
    {
        "id": "713518072091716",
        "location": {
            "city": "Chiang Mai",
            "country": "Thailand",
            "zip": "50100"
        },
        "name": "ช่างไฟฟ้า เชียงใหม่",
        "phone": "0810256077"
    },
    {
        "about": "รับงานพิเศษ",
        "id": "241366449391915",
        "name": "ช่างไฟฟ้า"
    },
    {
        "about": "ทำไว้ให้เพื่อนๆในกลุ่มได้คุยและแชร์ภาพกันคร๊าฟ",
        "id": "515506631800150",
        "name": "ช่างไฟฟ้ากำลัง ปวช.1/1และ1/2 วิทยาลัยเทคนิคนครสวรรค์"
    },
    {
        "about": "รับงานเดินระบบไฟฟ้า และบริการซ่อมระบบไฟฟ้า ด้วยราคาเป็นกันเอง ทำงานโดยช่างไฟมีฝีมือ",
        "id": "1524336247838363",
        "location": {
            "city": "สมุทรสาคร",
            "street": "กระทุ่มแบน",
            "zip": "74110"
        },
        "name": "ช่างไฟฟ้า กระทุ่มแบน",
        "phone": "0904985128"
    },
    {
        "about": "ช่างไฟฟ้ากำลัง B-Tech ",
        "id": "347561015347301",
        "name": "ช่างไฟฟ้ากำลัง B-Tech"
    },
    {
        "about": "ปรึกษาเรื่องไฟฟ้าได้ครับ",
        "id": "794615043902100",
        "location": {
            "city": "Chiang Rai",
            "country": "Thailand",
            "latitude": 20.02273,
            "longitude": 99.89404,
            "street": "481 ม.3 ต.ริมกก อ.เมือง จ.เชียงราย",
            "zip": "57100"
        },
        "name": "ช่างไฟฟ้ามิตราวิศวกรรม",
        "phone": "0817849924"
    },
    {
        "about": "รับซ่อม ประปา ไฟฟ้า แอร์ ลฯ อื่นๆ.....",
        "emails": [
            "oillovezone4_5500@hotmail.co.th"
        ],
        "id": "183768325133331",
        "location": {
            "city": "Garut 1",
            "country": "Indonesia",
            "latitude": -7.2157,
            "longitude": 107.89933,
            "street": "448/B",
            "zip": "08160"
        },
        "name": "ช่างไฟฟ้า/แอร์/ประปา ลฯ",
        "phone": "0876911392"
    },
    {
        "id": "172558016267708",
        "location": {
            "city": "Ban Thaeo",
            "country": "Thailand",
            "latitude": 14.313941,
            "longitude": 100.354862,
            "zip": "13110"
        },
        "name": "แผนกวิชาช่างไฟฟ้ากำลัง วิทยาลัยการอาชีพเสนา"
    },
    {
        "id": "183377245197126",
        "location": {
            "city": "Ubon Ratchathani",
            "country": "Thailand",
            "latitude": 15.23025667,
            "longitude": 104.85019053
        },
        "name": "เเผนกช่างไฟฟ้าวิทยาลัยสารพัดช่าง"
    },
    {
        "id": "176124812579259",
        "location": {
            "city": "Ayutthaya",
            "country": "Thailand",
            "latitude": 14.35670105,
            "longitude": 100.55151756,
            "zip": "13000"
        },
        "name": "แผนก ช่างไฟฟ้า วิทยาลัยเทคโนโลยีอยุธยา"
    },
    {
        "id": "175591792619929",
        "location": {
            "city": "Pattaya",
            "country": "Thailand",
            "latitude": 12.809915179399,
            "longitude": 100.92103812853,
            "zip": "20250"
        },
        "name": "แผนกช่างไฟฟ้าเทคนิคสัตหีบ"
    },
    {
        "id": "159663207508307",
        "location": {
            "city": "Phetchabun",
            "country": "Thailand",
            "latitude": 16.434555882603,
            "longitude": 101.15435971888,
            "zip": "67000"
        },
        "name": "ห้อง 442 แผนกช่างไฟฟ้ากำลัง วิทยาลัยเทคนิคเพชรบรณ์"
    },
    {
        "id": "184278978572971",
        "location": {
            "city": "Amphoe Ban Mo",
            "country": "Thailand",
            "latitude": 14.5727148,
            "longitude": 100.7728975,
            "street": "วิทยาลัยเทคนิคท่าหลวงซิเมนต์ไทยอนุสรณ์"
        },
        "name": "ห้องพักครู แผนกวิชาช่างไฟฟ้า วท.ท่าหลวงซิเมนต์อนุสรณ์"
    },
    {
        "description": "ศูนย์การศึกษา , วิทยาลัย",
        "id": "185915574943977",
        "location": {
            "city": "Lamphun",
            "country": "Thailand",
            "latitude": 18.6321798,
            "longitude": 99.058624,
            "street": "Lamphun"
        },
        "name": "แผนกช่างไฟฟ้ากำลัง @ วิทยาลัยเทคโนโลยีหมู่บ้านครูภาคเหนือ"
    },
    {
        "id": "187022834823263",
        "location": {
            "city": "Si Racha",
            "country": "Thailand",
            "latitude": 13.0704613,
            "longitude": 100.9136616
        },
        "name": "แผนกช่างไฟฟ้า ท่าเรือแหลมฉบัง"
    },
    {
        "id": "188515737871065",
        "location": {
            "city": "Chiang Mai",
            "country": "Thailand",
            "latitude": 18.57437412,
            "longitude": 98.99910401,
            "zip": "51000"
        },
        "name": "511 แผนกช่างไฟฟ้า"
    },
    {
        "id": "191316597709772",
        "location": {
            "city": "Kamphaeng Phet",
            "country": "Thailand",
            "latitude": 16.485738633201,
            "longitude": 99.528162628412
        },
        "name": "ช่างไฟฟ้า"
    },
    {
        "id": "171529766377884",
        "location": {
            "city": "Nakhon Chai Si",
            "country": "Thailand",
            "latitude": 13.773714572661,
            "longitude": 100.22148816203,
            "street": "วิทยาลัยเทคนิคนครปฐม"
        },
        "name": "สมาคมเด็กช่างไฟฟ้ากำลังเทคนิคนครปฐม"
    },
    {
        "id": "169495873388667",
        "location": {
            "city": "Amphoe Sai Noi",
            "country": "Thailand",
            "latitude": 14.104750960706,
            "longitude": 100.32141085445,
            "street": "ชั้น 2 ตึกอำนวยการ วท.นนทบุรี"
        },
        "name": "แผนกช่างไฟฟ้าวิทยาลัยเทคนิคนนทบุรี"
    },
    {
        "id": "168845653286890",
        "location": {
            "city": "Sichon",
            "country": "Thailand",
            "latitude": 8.9632565591398,
            "longitude": 99.897903010753
        },
        "name": "แผนกช่างไฟฟ้า   ณ. วิทยาลัยเทคนิคสิชล"
    },
    {
        "id": "167230550041294",
        "location": {
            "city": "Muang Sara Buri",
            "country": "Thailand",
            "latitude": 14.5332,
            "longitude": 100.91100166667,
            "zip": "18000"
        },
        "name": "แผนกช่างไฟฟ้ากำลัง"
    }
]