[
    {
        "id": "379676152238612",
        "location": {
            "city": "Ayutthaya",
            "country": "Thailand",
            "latitude": 14.3611583,
            "longitude": 100.5477116
        },
        "name": "แผนกช่างไฟฟ้ากำลังเทคโนอยุธยา"
    },
    {
        "id": "380455958818142",
        "location": {
            "city": "Bangkok",
            "country": "Thailand",
            "latitude": 13.648447333805,
            "longitude": 100.49556970596
        },
        "name": "แผนกช่างไฟฟ้ากำลัง วิทยาลัยเทคนิคราชสิทธาราม บางบอน"
    },
    {
        "id": "387332474689867",
        "location": {
            "city": "Bangkok",
            "country": "Thailand",
            "latitude": 13.9557853125,
            "longitude": 100.56869359375
        },
        "name": "แผนกช่างไฟฟ้ากำลัง 22 ปี วิทยาลัยเทคนิคดอนเมือง"
    },
    {
        "id": "340715709369182",
        "location": {
            "latitude": 34.757888793945,
            "longitude": 113.67398834229
        },
        "name": "แผนกวิชาช่างไฟฟ้ากำลัง วิทยาลัยเทคนิคบุรีรัมย์"
    },
    {
        "id": "393488057525820",
        "location": {
            "city": "Ban Chiang Kham",
            "country": "Thailand",
            "latitude": 19.567891666667,
            "longitude": 100.36725
        },
        "name": "แผนกช่างไฟฟ้า วิยาลัยการอาชีพเชียงคำ"
    },
    {
        "id": "394472917259590",
        "location": {
            "latitude": 16.09553,
            "longitude": 102.59161
        },
        "name": "วิทยาลัยการอาชีพขอนแก่นแผนกช่างไฟฟ้ากำลัง"
    },
    {
        "id": "395129923832312",
        "location": {
            "city": "Pak Chong",
            "country": "Thailand",
            "latitude": 14.704947,
            "longitude": 101.414125
        },
        "name": "ที่ทำงานกูเอง!!  จ.ช่างไฟฟ้า!!"
    },
    {
        "id": "396557900423474",
        "location": {
            "latitude": 14.139470909091,
            "longitude": 100.7065180303
        },
        "name": "แผนก ช่างไฟฟ้ากำลัง 22 ปี วิทยาลัยเทคนิคดอนเมือง"
    },
    {
        "id": "396672200506027",
        "location": {
            "city": "Hua Hin",
            "country": "Thailand",
            "latitude": 12.5508801,
            "longitude": 99.9595819
        },
        "name": "บ้านนายช่างไฟฟ้า"
    },
    {
        "id": "398502480195678",
        "location": {
            "city": "Nakhon Ratchasima",
            "country": "Thailand",
            "latitude": 14.972374,
            "longitude": 102.099403
        },
        "name": "ช่างไฟฟ้ากำลัง วิทยาลัยเทคนิคอุบลราชธานี"
    },
    {
        "id": "316546045212075",
        "location": {
            "city": "Ubon Ratchathani",
            "country": "Thailand",
            "latitude": 15.242507986531,
            "longitude": 104.84466198832
        },
        "name": "ห้องเรียนรวม แผนกช่างไฟฟ้ากำลัง"
    },
    {
        "id": "298782370246218",
        "location": {
            "city": "Bangkok",
            "country": "Thailand",
            "latitude": 13.7098843,
            "longitude": 100.4800918
        },
        "name": "ช่างไฟฟ้าหัวควย"
    },
    {
        "id": "302510206520400",
        "location": {
            "city": "Prachin",
            "country": "Thailand",
            "latitude": 14.057442527277,
            "longitude": 101.35994735183,
            "zip": "25000"
        },
        "name": "แผนกช่างไฟฟ้ากำลัง วิทยาลัยเทคนิคปราจีนบุรี"
    },
    {
        "id": "306078242847617",
        "location": {
            "latitude": 13.29794,
            "longitude": 101.163175
        },
        "name": "มอเตอร์3เฟสแผนกช่างไฟฟ้า ชั้น3 ตึกช่งไฟฟ้ากำลัง"
    },
    {
        "id": "308338099186318",
        "location": {
            "city": "Surat Thani",
            "country": "Thailand",
            "latitude": 9.1353646933102,
            "longitude": 99.330573098176
        },
        "name": "อาคารช่างไฟฟ้า"
    },
    {
        "id": "311080682412587",
        "location": {
            "city": "Phetchaburi",
            "country": "Thailand",
            "latitude": 13.118388942763,
            "longitude": 99.937910959125
        },
        "name": "ห้องช่างไฟฟ้า รพ.พระจอมเกล้า",
        "phone": "0903268775"
    },
    {
        "id": "622393217900819",
        "name": "ช่างไฟฟ้าภายในบ้าน"
    },
    {
        "id": "1468884766754796",
        "location": {
            "city": "Pattaya",
            "country": "Thailand"
        },
        "name": "ช่างไฟฟ้ากำลังพัทยา"
    },
    {
        "id": "247761608659993",
        "name": "ช่างไฟฟ้า"
    },
    {
        "id": "1502350533395697",
        "name": "ช่างไฟฟ้า\""
    },
    {
        "id": "1680330815533238",
        "name": "ช่างไฟฟ้า"
    },
    {
        "id": "739866032823990",
        "name": "ช่างไฟฟ้า (อบต.แพงพวย)"
    },
    {
        "id": "957612050965123",
        "name": "ช่างไฟฟ้า  มหานคร"
    },
    {
        "id": "1674462492777189",
        "name": "ช่างไฟฟ้าพลังงาน"
    },
    {
        "id": "129914733746598",
        "name": "ช่างไฟฟ้าอุตสาหกรรม"
    }
]