[
    {
        "about": "รับเหมาไฟฟ้า งานไฟฟ้า ติดต่อ 0869977232 (ช่างชินกฤษ)",
        "description": "ช่างไฟฟ้า รับเหมาไฟฟ้า\nรับประกันไม่มีทิ้งงาน ด้วยประสบการณ์มากกว่า 30 ปี \n\nเดินสายไฟ เดินท่อ EMT, S-LON \nระบบ LAN งานระบบไฟฟ้า ระบบโทรศัพท์ภายใน  ระบบกล้องวงจรปิด \nจานดาวเทียมทุกระบบ เสา TV ติดตั้งและเพิ่มจุดรับชม  \nรับเช็ค+ตรวจสอบระบบ(เช็คโหลด-เช็คช๊อต)  งานเกี่ยวกับ ระบบทุกชนิด งานน้อย งานมาก งานแก้ไข งานเพิ่มเติม อัฟเกรดระบบ \nเหมาตีราคา ทั้ง ค่าแรงรวม และค่าของ ติดต่องาน สอบถามราคา เรียกดูหน้างาน \n\nติดต่อสอบถาม ช่างชินกฤช โทร. 086-9977-232",
        "id": "641207529275062",
        "location": {
            "city": "Bangkok",
            "country": "Thailand",
            "latitude": 13.7522,
            "longitude": 100.494
        },
        "name": "ช่างไฟ ช่างชินกฤช ช่างไฟฟ้า รับเหมาไฟฟ้า เดินสายไฟ",
        "phone": "0869977232"
    },
    {
        "id": "522310137933700",
        "location": {
            "city": "Suphan Buri",
            "country": "Thailand"
        },
        "name": "ช่างไฟฟ้า"
    },
    {
        "emails": [
            "worakit_22@hotmail.com"
        ],
        "id": "263410003831654",
        "location": {
            "city": "Pathum Thani",
            "country": "Thailand",
            "latitude": 14.0167,
            "longitude": 100.733,
            "zip": "12130"
        },
        "name": "ช่างไฟฟ้าทีมงานการันตี รับเหมาเดินสายไฟฟ้า บ้าน อาคาร โรงงาน โทร089-1456522",
        "phone": "0891456522"
    },
    {
        "about": "ไลค์เยอะๆๆๆนะครับ",
        "id": "1481987095387020",
        "name": "ชมรมวิชาชีพช่างไฟฟ้า  วิทยาลัยการอาชีพนวมินทราชินีมุกดาหาร"
    },
    {
        "id": "527734594049472",
        "name": "ช่างไฟฟ้ารุ่น16/3"
    },
    {
        "about": "รับเหมาติดตั้งระบบไฟไฟ้ภายในบ้านพัก,อาคาร\nซ่อมแซมแก้ไข",
        "id": "1453179081613411",
        "location": {
            "city": "Udon Thani",
            "country": "Thailand",
            "latitude": 17.4167,
            "longitude": 102.75,
            "street": "เมืองอุดร"
        },
        "name": "ช่างไฟฟ้า..ณอุดรธานี",
        "phone": "0821123618"
    },
    {
        "about": "hahaha",
        "id": "1422460128030679",
        "location": {
            "city": "น่าน",
            "street": "ที่ไหนก้อได้",
            "zip": "55000"
        },
        "name": "สมาคมช่างไฟฟ้ากำลัง",
        "phone": "0855555555"
    },
    {
        "id": "142484445933278",
        "name": "ช่างไฟฟ้ากำลัง ปวส. รุ่น 3 ว.สารพัดช่างขอนแก่น"
    },
    {
        "about": "รับเหมาระบบไฟฟ้า ช่างไฟฟ้า รับซ่อมไฟฟ้า รับเดินสายไฟและแก้ไขไฟฟ้า",
        "description": "รับเหมาระบบไฟฟ้า ช่างไฟฟ้า รับซ่อมไฟฟ้า รับเดินสายไฟและแก้ไขไฟฟ้า บริการทั่วไทย ราคากันเอง",
        "id": "513192778818530",
        "location": {
            "city": "Nonthaburi",
            "country": "Thailand",
            "latitude": 13.93149,
            "longitude": 100.39004,
            "street": "33/1550 Moo 8 Pimolraj Bangbuathong",
            "zip": "11110"
        },
        "name": "ช่างไฟฟ้า รับเหมาระบบไฟฟ้า ราคาถูก โทร 081-988-2662",
        "phone": "081-988-2662"
    },
    {
        "about": "ยินดีต้อนรับสู่ แผนกช่างไฟฟ้า-อิเล็กทรอนิกส์ ATCC",
        "id": "273303576130325",
        "name": "แผนกช่างไฟฟ้า-อิเล็ก ATCC"
    },
    {
        "about": "มีปัญหาเรื่องไฟฟ้า ปรึกษาใด้",
        "id": "573848452630974",
        "location": {
            "city": "Nakhon Sawan",
            "country": "Thailand",
            "zip": "60160"
        },
        "name": "ช่างไฟฟ้า ประจำหมู่บ้าน",
        "phone": "087-3031805"
    },
    {
        "id": "320855798004702",
        "name": "ช่างไฟฟ้า รุ่นที่ 15 วิทยาลัยการอาชีพหัวไทร"
    },
    {
        "about": "ช่างไฟฟ้ากำลัง",
        "id": "833981006659006",
        "name": "แผนกช่างไฟฟ้า อี.เทค"
    },
    {
        "id": "652955588120977",
        "name": "ช่างไฟฟ้า"
    },
    {
        "about": "ช่างไฟฟ้า รับสมัครช่างไฟฟ้า ช่างติดตั้ง ช่างอิเล็กทอนิกส์ ด่วน! จำนวนมาก",
        "id": "570682102988661",
        "name": "รับสมัครช่างไฟฟ้า"
    },
    {
        "about": "แผนกวิชาช่างไฟฟ้า เทคนิคสุโขทัย",
        "id": "270429449647265",
        "location": {
            "street": "sukhothai",
            "zip": "64000"
        },
        "name": "แผนกวิชาช่างไฟฟ้า เทคนิคสุโขทัย",
        "phone": "055-611-201"
    },
    {
        "id": "144710352263658",
        "name": "ช่างไฟฟ้า"
    },
    {
        "id": "1408348416096454",
        "name": "ช่างไฟฟ้า3"
    },
    {
        "about": "รับเหมาติดตั้งระบบไฟฟ้า ในพื้นที่ลำปาง ลำพูน เชียงใหม่\n",
        "description": "สอบถามรายละเอียดเพิ่มเติมได้ที่ 080-8468075คุณเมธี ID LINE: Mayzaa natom\nและ 093-7926416คุณทวีศักดิ์ ID LINE: taweesak_electriclan",
        "emails": [
            "auy_auy2532@hotmail.com"
        ],
        "id": "1547947072121131",
        "location": {
            "city": "Lampang",
            "country": "Thailand",
            "latitude": 18.08017,
            "longitude": 99.59763,
            "street": "108/1 หมู่2 ต.บ้านกิ่ว อ.แม่ทะ จ.ลำปาง",
            "zip": "52150"
        },
        "name": "ช่างไฟฟ้า ลำปาง - รับเหมาเดินระบบไฟฟ้าทั้งในและนอกอาคาร",
        "phone": "093-7926416คุณทวีศักดิ์ และ 080-8468075คุณเมธี"
    },
    {
        "about": "ช่างไฟฟ้า รับเดินสายไฟ ระบบไฟฟ้า ติดตั้งไฟฟ้า อุปกรณ์ไฟฟ้าทุกชนิด",
        "description": "ช่างไฟฟ้า รับเหมา ติดตั้ง บริการ เพิ่ม ย้าย ปลั๊กไฟ สวิสไฟ ดาวน์ไลน์ หลอดไฟ โคมไฟ รับซ่อมแซม ตรวจเช็คแก้ไข อุปกรณ์ไฟฟ้าทุกชนิด รับทั้งของทั้งแรง หรือค่าแรงอย่างเดียว ยินดีให้คำปรึกษาพร้อมประเมินราคาฟรี นายช่างวิทูล โทร.082-327-4795",
        "emails": [
            "teewithoon@gmail.com"
        ],
        "id": "1588324974749104",
        "location": {
            "city": "Bangkok",
            "country": "Thailand",
            "latitude": 13.7522,
            "longitude": 100.494,
            "street": "ลาดพร้าว",
            "zip": "10230"
        },
        "name": "ช่างไฟฟ้า เดินระบบไฟฟ้า เดินสายไฟ บริการซ่อม ตรวจเช็ค อุปกรณ์ไฟฟ้าทุกชนิด",
        "phone": "0823274795"
    },
    {
        "about": "ช่างไฟฟ้า รับเหมาระบบไฟฟ้า ซ่อมไฟฟ้า เดินสายไฟ แก้ไขไฟฟ้า ช่างซ่อมไฟฟ้า",
        "id": "903120973073567",
        "location": {
            "city": "Nonthaburi",
            "country": "Thailand",
            "latitude": 13.93149,
            "longitude": 100.39004,
            "street": "33/1557 หมู่ 8 พิมลราช บางบัวทอง",
            "zip": "11110"
        },
        "name": "ช่างไฟฟ้า รับเหมาระบบไฟฟ้า เดินสายไฟ โทร 081-867-3305",
        "phone": "097-121-8110"
    },
    {
        "about": "รับเหมางานระบบไฟฟ้า แก้ไขไฟฟ้าติดตั้งต่อเติมไฟฟ้า งานไฟฟ้าทุกระบบครับ",
        "id": "1557558391164772",
        "location": {
            "city": "Amphoe Muang Kamphaeng Phet",
            "country": "Thailand",
            "latitude": 16.44207,
            "longitude": 99.49592,
            "street": "12ซ13ถ.ราชดำเนินต.ในเมือง",
            "zip": "62000"
        },
        "name": "ช่างไฟฟ้า t.n.",
        "phone": "0805064668"
    },
    {
        "about": "ช่างไฟฟ้า รับเหมาระบบไฟฟ้า ช่างประปา ซ่อมประปา ติดตั้งจานดาวเทียม",
        "id": "1452025658360394",
        "location": {
            "city": "Amphoe Muang Phet Buri",
            "country": "Thailand",
            "latitude": 13.07332,
            "longitude": 99.94521,
            "street": "อำเภอเมืองเพชรบุรี",
            "zip": "76000"
        },
        "name": "ช่างไฟฟ้า รับเหมาระบบไฟฟ้า ซ่อมไฟฟ้า ช่างประปา ซ่อมประปา ติดตั้งจานดาวเทียม",
        "phone": "084-0188395"
    },
    {
        "about": "ซ่อมคอมพิวเตอร์ ทุกอาการ 200 บาท",
        "id": "525276444241686",
        "location": {
            "city": "Chonburi",
            "country": "Thailand",
            "latitude": 12.68189,
            "longitude": 100.92461,
            "street": "สัตหีบ",
            "zip": "20180"
        },
        "name": "สยาม ช่างไฟฟ้า สัตหีบ",
        "phone": "0878575664"
    },
    {
        "about": "ให้คำปรึกษาปัญหาระบบไฟฟ้า \nช่างตูน 082-974-0622 ::: ช่างเบียร์ 087-747-0747\n\n",
        "description": "  ไฟฟ้าดูด ไฟฟ้ารั่ว ไฟฟ้าช๊อต ไฟฟ้าเกิน \n\nรับตรวจเช็คและแก้ไขปัญหาระบบไฟฟ้าทุกระบบ \nมีความเข้าใจในระบบไฟฟ้าเป็นอย่างดี\nและมีการตรวจวัดค่ากระแสไฟฟ้ารั่วลงกราวด์ ออกมาเป็นตัวเลข ของค่าmA ให้ลูกค้ารู้\n\n\n",
        "emails": [
            "bassddrum@hotmail.com"
        ],
        "id": "1573398189558611",
        "location": {
            "city": "Bangkok",
            "country": "Thailand",
            "latitude": 13.75395,
            "longitude": 100.50224
        },
        "name": "ช่างไฟฟ้า รับติดตั้งระบบไฟฟ้า / แก้ไขระบบไฟฟ้ารั่ว \u003eบ้าน อาคาร อื่นๆ",
        "phone": "ช่างตูน 082-974-0622 ::: ช่างเบียร์ 087-747-0747"
    }
]