[
    {
        "id": "1499413780374499",
        "name": "ช่างไฟฟ้าเทวดาคอนสายฟ้าของเทพซูส"
    },
    {
        "id": "204308602917641",
        "name": "ช่างไฟฟ้า-อิเลคทรอนิกส์."
    },
    {
        "id": "535604693256489",
        "location": {
            "city": "Bangkok",
            "country": "Thailand"
        },
        "name": "โรงเรียนบางปะกอกวิทยาคม(ช่างไฟฟ้ากำลัง)"
    },
    {
        "id": "877378302381643",
        "name": "ช่างไฟฟ้าซ่อมบำรุง ปวส บ.ซันฟู๊ด โรงฟัก"
    },
    {
        "id": "194027943955552",
        "name": "ปวส.ช่างไฟฟ้า"
    },
    {
        "about": "ครู",
        "description": "จบจากวังเทเวศน์",
        "emails": [
            "boypuu@gmail.com"
        ],
        "id": "193604093989593",
        "location": {
            "street": "53/3 หมู่ 7 ต.ป่าแมต อ.เมือง จ.แพร่",
            "zip": "54000"
        },
        "name": "ศิษย์เก่าช่างไฟฟ้าเทคนิคแพร่",
        "phone": "0894331496"
    },
    {
        "id": "1700639636888663",
        "name": "ช่างไฟฟ้า โอ๋(ทำไฟฟ้าบ้านใคลแล้วดีสุดๆมัง)"
    },
    {
        "id": "492516030922629",
        "location": {
            "city": "Phayao",
            "country": "Thailand",
            "latitude": 19.1667,
            "longitude": 99.9167,
            "street": "328ม.11บ้านห้วยลีก ต.บ้านตุ่น",
            "zip": "56000"
        },
        "name": "ช่างไฟฟ้าพะเยา ช่างบุญมี 0892630750  0820313855",
        "phone": "0892630750"
    },
    {
        "about": "เพื่อให้ทุกคนแลกเปลี่ยนความคิดเห็นกัน",
        "id": "569217546544844",
        "name": "ช่างไฟฟ้า ปวส.1 วิทยาลัยการอาลอง"
    },
    {
        "about": "งานระบบไฟฟ้า ตกแต่งให้แสงที่สวยงาม และช่อมบำรุงเกี่ยวกับระบบไฟ",
        "id": "1465786430308727",
        "location": {
            "city": "ladtprao wanghin",
            "street": "Bankkok",
            "zip": "10230"
        },
        "name": "บริษัท ไลท์ติ้ง คอนโทรล จำกัด ช่างไฟฟ้า",
        "phone": "0812552908"
    },
    {
        "id": "925131377552299",
        "name": "ช่างไฟฟ้ากำลัง ร่น 1"
    },
    {
        "about": "ช่างไฟฟ้า เราลูกช่าง เราจะไม่ยอมแพ้ใคร",
        "id": "575133289260711",
        "name": "Fc ช่างไฟฟ้า ปวส.1 เทคนิคตระการพืชผล"
    },
    {
        "id": "122488404464799",
        "name": "หัวหน้าช่างไฟฟ้า"
    },
    {
        "id": "167639733283343",
        "name": "พนักงานช่างไฟฟ้า"
    },
    {
        "id": "958784457514869",
        "name": "ช่างไฟฟ้ากำลัง กลุ่ม 7/8"
    },
    {
        "id": "1617846835139966",
        "name": "ช่างไฟฟ้ากำลัง ช.1 วทส"
    },
    {
        "about": "ช่างไฟ ทำตาม คอนโด ร.พ อื่นๆ ที่กำลังก่อสร้าง :-))",
        "id": "1533521023546718",
        "name": "ทีมงาน ช่างไฟฟ้า ชุด manud"
    },
    {
        "id": "353084548041474",
        "location": {
            "street": "เลย",
            "zip": "42000"
        },
        "name": "แผนกวิชาช่างไฟฟ้า"
    },
    {
        "id": "308663842591534",
        "name": "ช่างไฟฟ้ากำลัง 1/1 57"
    },
    {
        "id": "309222459271985",
        "name": "ช่างไฟฟ้ากำลลัง 56 ลูกพระวิษณุ กระบี่"
    },
    {
        "id": "100317860109312",
        "name": "ช่างไฟฟ้าโรงงานเหล็กกรุงเทพ บ.ล.ก.ท"
    },
    {
        "about": "ชมรมวิชาชีพช่างไฟฟ้ากำลัง วิทยาลัยการอาชีพหนองกุงศรี",
        "id": "236634446501238",
        "location": {
            "city": "กาฬสินธุ์",
            "street": "วิทยาลัยการอาชีพหนองกุงศรี",
            "zip": "46220"
        },
        "name": "ชมรมวิชาชีพช่างไฟฟ้ากำลัง วิทยาลัยการอาชีพหนองกุงศรี"
    },
    {
        "id": "668412269969560",
        "name": "ช่างไฟฟ้ากำลัง ปี1 น้ำตาล้อเล็ก classic"
    },
    {
        "id": "893292230744872",
        "name": "ช่างไฟฟ้ากำลัง \" ติดตั้งไฟฟ้าทวิภาคี \""
    },
    {
        "id": "799590983486425",
        "name": "ช่างไฟฟ้ากำลัง รุ่น 23 รอบบ่าย"
    }
]