[
    {
        "id": "165287876989276",
        "location": {
            "city": "Surat Thani",
            "country": "Thailand",
            "latitude": 9.0761003,
            "longitude": 99.3623886,
            "street": "Sai Soi 1 Road"
        },
        "name": "แผนกช่างไฟฟ้า ราดพัด สุราษฏร์ฯ"
    },
    {
        "id": "200234503447305",
        "location": {
            "city": "Muang Lopburi",
            "country": "Thailand",
            "latitude": 14.799236485356,
            "longitude": 100.61928887029
        },
        "name": "ซุ้มช่างไฟฟ้า เทคนิคลพุรี"
    },
    {
        "id": "159201854416094",
        "location": {
            "city": "Nakhon Nayok",
            "country": "Thailand",
            "latitude": 14.2031,
            "longitude": 101.215,
            "street": "วิทยาลัยเทคนิคนครนายก"
        },
        "name": "ฉอปช่างไฟฟ้า"
    },
    {
        "id": "155917181246856",
        "location": {
            "city": "Bangkok",
            "country": "Thailand",
            "latitude": 13.75395,
            "longitude": 100.50224,
            "street": "ถนนเพชรบุรีตัดใหม่"
        },
        "name": "แผนกช่างไฟฟ้ากำลัง ที่ วิทยาลัยเทคโนโลยีดอบอสโก"
    },
    {
        "id": "154535908062812",
        "location": {
            "city": "Muang Sara Buri",
            "country": "Thailand",
            "latitude": 14.535157703426,
            "longitude": 100.91143398827,
            "street": "PHAHON YOTHIN ROAD",
            "zip": "18000"
        },
        "name": "ห้อง อ.ดุลนนท์ แผนกช่างไฟฟ้า วท.สระบุรี"
    },
    {
        "id": "154023598088813",
        "location": {
            "latitude": 14.726662519132,
            "longitude": 101.49734709927
        },
        "name": "แผนกช่างไฟฟ้ากำลัง"
    },
    {
        "id": "221561374599817",
        "location": {
            "city": "Bangkok",
            "country": "Thailand",
            "latitude": 13.827299861111,
            "longitude": 100.57414305556
        },
        "name": "แผนกช่างไฟฟ้าและอิเล็กทรอนิกส์"
    },
    {
        "id": "244867705684354",
        "location": {
            "city": "Tha Sen",
            "country": "Thailand",
            "latitude": 13.04425,
            "longitude": 99.92225,
            "street": "เพชรบุรี"
        },
        "name": "แผนกช่างไฟฟ้ากำลัง วิทยาลัยเทคนิคเพชรบุรี"
    },
    {
        "id": "242357995915752",
        "location": {
            "city": "Pak Chong",
            "country": "Thailand",
            "latitude": 14.652137,
            "longitude": 101.3632119,
            "zip": "30130"
        },
        "name": "ห้องทำงานช่างไฟฟ้า"
    },
    {
        "id": "240318312834321",
        "location": {
            "city": "Bangkok",
            "country": "Thailand",
            "latitude": 13.8304613,
            "longitude": 100.5755629,
            "zip": "10900"
        },
        "name": "แผนกช่างไฟฟ้า โรงเรียนช่างฝีมือทหาร"
    },
    {
        "id": "239581226221200",
        "location": {
            "city": "Krabi",
            "country": "Thailand",
            "latitude": 8.0624559334298,
            "longitude": 98.908039696093
        },
        "name": "ห้อง 335 แผนกช่างไฟฟ้ากำลัง วิทยาลัยเทคนิคกระบี่"
    },
    {
        "id": "233700519984753",
        "location": {
            "city": "Chiang Mai",
            "country": "Thailand",
            "latitude": 18.575398,
            "longitude": 98.998448,
            "zip": "51000"
        },
        "name": "544 แผนกช่างไฟฟ้า"
    },
    {
        "id": "230313007179637",
        "location": {
            "city": "Pattani",
            "country": "Thailand",
            "latitude": 6.8659845,
            "longitude": 101.2428712
        },
        "name": "หน้าตึกช่างไฟฟ้า วิทยาลัยการอาชีพปัตตานี"
    },
    {
        "id": "228261723976121",
        "location": {
            "city": "Bangkok",
            "country": "Thailand",
            "latitude": 13.763864823529,
            "longitude": 100.64044798529
        },
        "name": "แผนกช่างไฟฟ้า เดอะมอลล์บางกะปิ"
    },
    {
        "id": "228158943891847",
        "location": {
            "city": "Ubon Ratchathani",
            "country": "Thailand",
            "latitude": 15.2395292875,
            "longitude": 104.838016255,
            "zip": "34000"
        },
        "name": "ช่างไฟฟ้า"
    },
    {
        "id": "225340737653947",
        "location": {
            "latitude": 10.290422045455,
            "longitude": 99.088304545455
        },
        "name": "แผนกช่างไฟฟ้า บจก. กลุ่มปาล์มธรรมชาติ จำกัด(ชุมพร)"
    },
    {
        "id": "224118401110853",
        "location": {
            "city": "Waeng",
            "country": "Thailand",
            "latitude": 16.30006,
            "longitude": 103.97803,
            "street": "การอาชีพโพนทองร้อยเอ็ด"
        },
        "name": "แผนกช่างไฟฟ้ากำลังวิทยาลัยการอาชีพโพนทอง"
    },
    {
        "about": "ช่างไฟฟ้า เดินสายไฟ ซ่อมแซมระบบไฟฟ้า ติดตั้งอุปกรณ์ไฟฟ้าทุกชนิดโดยทีมช่างไฟฟ้ามืออาชีพ",
        "description": "ช่างไฟฟ้า เดินสายไฟ บริการซ่อม-ตรวจเช็ค-แก้ไขสายไฟฟ้าชำรุด-สายไฟรั่ว แก้ไขปลั๊กชำรุด ปลั๊กรั่ว ไฟดับ ไฟช็อต บริการเพิ่ม-ย้าย ปลั๊ก สวิตซ์ หลอดไฟ อุปกรณ์ไฟฟ้าทุกชนิด",
        "emails": [
            "handyman2521@gmail.com"
        ],
        "id": "502399099911330",
        "location": {
            "city": "Bang Khen",
            "country": "Thailand",
            "street": "202/444",
            "zip": "10220"
        },
        "name": "ช่างไฟฟ้าบางเขน"
    },
    {
        "about": "เเนะนำเเลกเปลี่ยนประสบการ",
        "id": "561915683847019",
        "location": {
            "city": "Bangkok",
            "country": "Thailand",
            "street": "48000",
            "zip": "48000"
        },
        "name": "ช่างไฟฟ้า",
        "phone": "042523098"
    },
    {
        "about": "รับเหมา ไฟฟ้า  ซ่อมแก้ไขระบบไฟฟ้า",
        "id": "150046771861099",
        "location": {
            "city": "Ban Pong",
            "country": "Thailand",
            "latitude": 13.82088,
            "longitude": 99.89023,
            "street": "114/26-27 ต.บ้านโป่ง อ.บ้านโป่ง จ.ราชบุรี",
            "zip": "70110"
        },
        "name": "ช่างไฟฟ้า บ้านโป่ง",
        "phone": "0879092333"
    },
    {
        "about": "รับเหมาเดินระบบไฟฟ้า บริการติดตั้งซ่อมบำรุงระบบไฟฟ้า โดยทีมงานช่างไฟฟ้ามืออาชีพ",
        "description": "ช่างไฟฟ้า เดินสายไฟ ติดตั้งซ่อมบำรุงระบบไฟฟ้า โดยทีมช่างไฟฟ้ามืออาชีพ",
        "id": "642895452507126",
        "location": {
            "latitude": 13.8632956,
            "longitude": 100.6119385
        },
        "name": "ช่างไฟฟ้ารามอินทรา"
    },
    {
        "about": "ผู้ชาย ขี้เหงา",
        "id": "558288697571105",
        "location": {
            "city": "อุอิ",
            "street": "อุดร",
            "zip": "20153"
        },
        "name": "ช่างไฟฟ้าคับ",
        "phone": "0922877458"
    },
    {
        "id": "108188502572578",
        "name": "รวมช่างไฟฟ้า"
    },
    {
        "id": "210696412415808",
        "location": {
            "city": "Mon Nang",
            "latitude": 13.3321842,
            "longitude": 101.1890358,
            "street": "Soi 6 Nong Suang Nong Namkhao"
        },
        "name": "ที่แผนกช่างไฟฟ้า บ. เอ็นดีรับเบอร์"
    },
    {
        "id": "210475832432888",
        "location": {
            "city": "Ratchaburi",
            "country": "Thailand",
            "latitude": 13.539735,
            "longitude": 99.825,
            "street": "Samran Arom"
        },
        "name": "แผนกช่างไฟฟ้าวิทยาลัยสารพัดช่างราชบุรี"
    }
]