[
    {
        "about": "ต่อจากนี้ไปเราคือ เพื่อน พี่ น้องกันตลอดไป รักช่างไฟตลอดกาล",
        "id": "470174436365611",
        "name": "ช่างไฟฟ้ากำลัง"
    },
    {
        "about": "ช่างไฟฟ้ากำลัง รุ่น 11 วิทยาลัยการอาชีพชนแดน",
        "id": "468323636529207",
        "location": {
            "city": "Chon Daen",
            "country": "Thailand",
            "latitude": 16.18002854,
            "located_in": "405018756232027",
            "longitude": 100.90018573,
            "zip": "67150"
        },
        "name": "ช่างไฟฟ้ากำลัง",
        "phone": "083-4124139"
    },
    {
        "about": "สวัสดีไฟฟ้า",
        "description": "ชุมชนไฟฟ้า",
        "id": "1471846803133011",
        "location": {
            "city": "Chon Buri",
            "country": "Thailand",
            "latitude": 13.3667,
            "longitude": 100.983,
            "street": "163/9ม.3ต.บึง.ศรีราชาจ.ชลบุรี",
            "zip": "20230"
        },
        "name": "ช่างไฟฟ้า",
        "phone": "0989148106"
    },
    {
        "about": "โปรดใช้วิจารณญาณในการรับชม : เพจนี้สร้างขึ้นเพื่อนความสนุกสนานของคนบ้างส่วน ",
        "id": "446351265573452",
        "name": "ช่างไฟฟ้า ศรีสงคราม"
    },
    {
        "about": "ช่างไฟฟ้า รับเดินสายไฟ  ภายในอาคารโดยช่างที่มีประสบการณ์",
        "description": "ช่างไฟฟ้า เดินสายไฟ เพิ่มย้ายปลั๊กสวิทซ์ไฟ ซ่อมไฟฟ้า ตรวจเช็คไฟฟ้าและ อุปกรณ์ไฟอื่นๆ  บริการงานตามบ้าน-อาคารสูง ทั้งตึกทำได้ทั้งระบบ\nช่างไฟฟ้า\n- ช่างไฟฟ้า รับเดินสายไฟ เดินสายแลน เดินสายโทรศัพท์ เดินสายกล้องวงจรปิด\n- ช่างไฟฟ้า รับซ่อมตรวจเช็ค แก้ไข สายไฟฟ้าชำรุด สายไฟรั่ว ปลั๊กชำรุด ปลั๊กรั่ว ไฟดับ ไฟช็อต\nโดยทีมช่างที่มีประสบการณ์ กว่า 10 ปี\nราคาย่อมเยา\nสนใจติดต่อ ช่าง หนึ่ง  084-5239026",
        "id": "722718581142866",
        "location": {
            "city": "กรุงเทพมหานคร ",
            "street": "ลาดพร้าว 71 ซ.นาคนิวาส 48 แขวงลาดพร้าว เขตลาดพร้าว"
        },
        "name": "ช่างไฟฟ้า เดินสายไฟ",
        "phone": "0845239026"
    },
    {
        "about": "จัดทำขึ้นเพื่อประชาสัมพันธ์แผนก รวมทั้งเผยแพร่ความรู้ทางด้านไฟฟ้า ",
        "id": "419109348133701",
        "location": {
            "city": "Muang Sukotai",
            "country": "Thailand",
            "street": "11 หมู่ 13  ต.บ้านกล้วย อ.เมือง",
            "zip": "64000"
        },
        "name": "ช่างไฟฟ้ากำลัง วช.สุโขทัย"
    },
    {
        "about": "เพจรวมพลคนไฟฟ้าวิทยาลัยเทคนิคสุพรรณบุรีอย่างเป็นทางการ",
        "id": "203079829841514",
        "location": {
            "city": "Suphan Buri",
            "country": "Thailand",
            "latitude": 14.472503445,
            "longitude": 100.11244371,
            "street": "วิทยาลัยเทคนิคสุพรรณบุรี",
            "zip": "72000"
        },
        "name": "แผนกช่างไฟฟ้าวิทยาลัยเทคนิคสุพรรณบุรี",
        "phone": "035522101"
    },
    {
        "id": "160721683970018",
        "name": "ช่างไฟฟ้ากำลัง  วิทยาลัยเทคนิคสกลนคร"
    },
    {
        "about": "ช่างไฟฟ้ากำลัง วิทยาลัยหล่มสักบริหารธุรกิจ",
        "id": "511677228904098",
        "name": "ช่างไฟฟ้ากำลัง ไฮเทค-เทคโนโลยี เพชรบูรณ์"
    },
    {
        "description": "รับเดินสายไฟฟ้า ติดตั้งระบบไฟฟ้า ช่างไฟฟ้า ภายใน ภายนอก โดยช่างผู้ชำนาญการ\n\nโทร 0616190597 LINE ID: KLA40068\n ",
        "id": "323747534481257",
        "location": {
            "city": "Amphoe Bang Yai",
            "country": "Thailand",
            "latitude": 13.842496887892,
            "longitude": 100.41512489319,
            "street": "59/111 เนเชอร่า ปิ่นเกล้าพระราม5",
            "zip": "11140"
        },
        "name": "ช่างไฟฟ้า ปฏิภาณ การไฟฟ้า",
        "phone": "0616190597"
    },
    {
        "about": "ข่าวสาร กิจกรรม ของแผนกวิชาช่างไฟฟ้า วิทยาลัยเทคนิคหาดใหญ่\nสาระความรู้ในด้านต่างๆ",
        "id": "531713210209445",
        "name": "แผนกวิชาช่างไฟฟ้า วิทยาลัยเทคนิคหาดใหญ่"
    },
    {
        "about": "จัดทำขึ้นเพื่อประชาสัมพันธ์ข้อมูล และกิจกรรมของแผนกช่างไฟฟ้ากำลัง วิทยาลัยเทคนิคชลบุรี",
        "id": "461046490628294",
        "location": {
            "street": "250 วิทยาลัยเทคนิคชลบุรี ต.หนองชาก อ.บ้านบึง จ.ชลบุรี",
            "zip": "20170"
        },
        "name": "ช่างไฟฟ้ากำลัง วิทยาลัยเทคนิคชลบุรี"
    },
    {
        "about": "บ้าๆบอๆ",
        "id": "1466697516982950",
        "location": {
            "city": "ไทย",
            "street": "8636",
            "zip": "20110"
        },
        "name": "ช่างไฟฟ้า ช.1",
        "phone": "0853728459"
    },
    {
        "about": "ชมรมศิษย์เก่าช่างไฟฟ้า",
        "id": "945645688823154",
        "location": {
            "city": "Songkhla",
            "country": "Thailand",
            "latitude": 7.2008315326563,
            "longitude": 100.60081958771,
            "street": "มหาวิทยาลัยเทคโนโลยีราชมงคลศรีวิชัย คณะวิศวกรรมศาสตร์ สาขาวิศวกรรมไฟฟ้า",
            "zip": "90000"
        },
        "name": "ชมรมศิษย์เก่าช่างไฟฟ้า"
    },
    {
        "id": "140933492926407",
        "name": "ช่างไฟฟ้าประปาฝั่งธน ต่อเติมติดตั้งไฟฟ้าประปาราคาถูก"
    },
    {
        "about": "ประวัติความเป็นมา",
        "description": "แผนกวิชาช่างไฟฟ้า วิทยาลัยเทคนิคพิจิตร\nเลขที่ 33 ถนนพิจิตร-กำแพงเพชร ตำบลในเมือง อำเภอเมือง จังหวัดพิจิตร 66000\n\nพ.ศ. 2521 เริ่มเปิดสอนแผนกวิชาช่างไฟฟ้า\n\nพ.ศ. 2534 เปิดสอนหลักสูตรประกาศนียบัตรวิชาชีพชั้นสูง (ปวส.)\n\nพ.ศ. 2540 เปิดสอนหลักสูตรประกาศนียบัตรวิชาชีพชั้นสูง (ปวส.) (ภาคสมทบ)\n\nพ.ศ. 2542 เปิดสอนหลักสูตรประกาศนียบัตรวิชาชีพชั้นสูง (ปวส.) (ปวส.ม.6)\n\n\nวิสัยทัศน์\n\nผลิตและพัฒนานักเรียน-นักศึกษาแผนกวิชาช่างไฟฟ้าให้มีคุณภาพได้มาตรฐานวิชาชีพ\nตรงตามความต้องการของตลาดแรงงานและสังคม ตามแนวปรัชญาของเศรษฐกิจพอเพียง\n\n \nพันธกิจ\n1.พัฒนานักเรียน-นักศึกษาแผนกวิชาช่างไฟฟ้าให้มีความรู้และทักษะวิชาชีพ ได้คุณภาพตามมาตรฐานวิชาชีพสู่ตลาดแรงงาน\n\n2.พัฒนานักเรียน-นักศึกษาแผนกวิชาช่างไฟฟ้าให้มีศีลธรรม คุณธรรม จริยธรรม ภูมิปัญญา ศักยภาพ และบุคลิกตามแบบอย่างไทย\n3.พัฒนานักเรียน-นักศึกษาแผนกวิชาช่างไฟฟ้าให้เป็นศูนย์กลางวิชาชีพของจังหวัดพิจิตร และให้บริการวิชาชีพที่สอดคล้องกับความต้องการของสังคม",
        "id": "187727131338914",
        "location": {
            "city": "Muang Phichit",
            "country": "Thailand"
        },
        "name": "ช่างไฟฟ้า เทคนิคพิจิตร"
    },
    {
        "id": "174867779388852",
        "location": {
            "city": "Phetchaburi",
            "country": "Thailand",
            "latitude": 13.092101534616,
            "longitude": 99.95026802308,
            "zip": "76000"
        },
        "name": "แผนกช่างไฟฟ้า วิทยาลัยเทคนิคเพชรบุรี"
    },
    {
        "id": "114202995396611",
        "location": {
            "city": "Phetchabun",
            "country": "Thailand",
            "latitude": 16.435404266737,
            "longitude": 101.1564943197,
            "street": "ต.ในเมือง อ.เมือง จ.เพชรบูรณ์",
            "zip": "67000"
        },
        "name": "แผนกช่างไฟฟ้ากำลัง วิทยาลัยเทคนิคเพชรบูรณ์"
    },
    {
        "id": "277708465611444",
        "location": {
            "city": "Muang Chaiyapum",
            "country": "Thailand",
            "latitude": 15.81322038536,
            "longitude": 102.01466501788,
            "zip": "36000"
        },
        "name": "แผนกช่างไฟฟ้ากำลัง วิทยาลัยเทคนิคชัยภูมิ"
    },
    {
        "id": "516006241781413",
        "location": {
            "city": "Muang Surin",
            "country": "Thailand",
            "latitude": 14.87952947436,
            "longitude": 103.50070068778,
            "zip": "32000"
        },
        "name": "แผนกช่างไฟฟ้ากำลัง วิทยาลัยเทคนิคสุรินทร์"
    },
    {
        "id": "146789048779693",
        "location": {
            "city": "Chiang Mai",
            "country": "Thailand",
            "latitude": 18.792416108876,
            "longitude": 98.983051761256,
            "street": "สถานศึกษา",
            "zip": "50200"
        },
        "name": "แผนกวิชาช่างไฟฟ้ากำลัง วิทยาลัยเทคนิคเชียงใหม่"
    },
    {
        "id": "144921262290298",
        "name": "ช่างไฟฟ้า"
    },
    {
        "about": "บริการ ช่างไฟฟ้า ราคาย่อมเยา ใน จ.นนทบุรี และใกล้เคียง",
        "description": "บริกาารช่างไฟฟ้า ราคาถูก ติดตั้ง ซ่อมแซม สั่งสินค้า จัดหาอุปกรณ์ ไฟฟ้า สะดวกไม่ต้องหาซื้อเอง ด้วยช่างมืออาชีพ\nให้บริการในเขตพื้นที่ จ.นนทบุรี และใกล้เคียง\nยินดีให้คำปรึกษา ก่อนลงหน้างานจริง\nค่าแรงคราวๆ(ขึ้นอยู่กับหน้างานด้วยครับ)\nเปลี่ยน ปลั๊ก สวิทไฟ .100-150/จุด\nติดตั้งไหม่ .............150-300/จุด\nเปลี่ยนโคมไฟช่อ .....500-800/จุด\nติดตั้งใหม่ ..............800-1200/จุด\nเปลี่ยนโคมไฟเพดาน .150-200/จุด\nติดตั้งไหม่ ...............200-350จุด\nเปลี่ยนดาวไลท์ ..........100-150/จุด\nติดตั้งไหม่ ................150-250/จุด\nเปลี่ยนตู้เบรคเกอร์ .......800-1000/จุด\nติดตั้งไหม่ .................1000-1500/จุด\n(ในส่วนของการติดตั้งไหม่ ราคาจะรวมถึงการเดินสาย แต่จะไม่รวมราคาอุปกรณ์ต่าง และราคาจะขึ้นอยู่กับความยากง่ายของหน้างาน และระยะทางการเดินสาย ครับ)\nใช้บริการ โทร 089-212-0462\nหรือ ID Line marleyclub\nในเขต นนทบุรี และใกล้เคียง อาทิ เช่น\nประชาชื่น งามวงาน รัตานาทิเบส แจ้งวัฒนะ เกษตร ปากเกล็ด\nรัชดา บางซื่อ จรัญ เป็นต้น",
        "id": "365635220205621",
        "name": "ช่างไฟฟ้า นนทบุรีและใกล้เคียง ราคาถูก"
    },
    {
        "about": "รับติดตั้งซ่อมระบบไฟฟ้า,ระบบงานสายต่างๆ โทร. 084 8912382",
        "id": "565653196782579",
        "name": "ช่างไฟฟ้า Technician Service"
    },
    {
        "about": "ช่างไฟฟ้า ช่างประปา ช่างปั้มน้ำ ระบบสปริงเกอร์ พื้นที่เขตหัวหิน ราคาถูก 0810131666",
        "emails": [
            "sengpracha@hotmail.com"
        ],
        "id": "823655087677063",
        "location": {
            "city": "อ.หัวหิน",
            "street": "ต.หัวหิน",
            "zip": "77110."
        },
        "name": "ช่างไฟฟ้า หัวหิน 0810131666",
        "phone": "0810131666"
    }
]