[
    {
        "id": "826177897405248",
        "location": {
            "city": "สวี ชุมพร ถ.เขาปีบ-เขาทะลุ",
            "latitude": 10.1723048969,
            "longitude": 98.957840166986,
            "street": "143หมู่9ต. นาสัก อ.สวีจ.ชุมพร"
        },
        "name": "บ.เคคอเปอร์เรชั่น ศูนย์รวมช่างไฟฟ้าฝีมือดี",
        "phone": "0857945231"
    },
    {
        "about": "บริการราคากันเอง",
        "id": "712420395543496",
        "location": {
            "city": "Pathum Thani",
            "country": "Thailand",
            "latitude": 13.97531,
            "longitude": 100.65421,
            "street": "546 m.4 , Phahonyothin62 Road, Knu Khot, Lam Luk ka, pathum thani",
            "zip": "12130"
        },
        "name": "ช่างไฟฟ้า ซ่อมแซม ติดตั้ง ระบบไฟฟ้า ราคาย่อมเยาว์",
        "phone": "0865414638"
    },
    {
        "id": "708338069294795",
        "location": {
            "city": "Amphoe Muang Trang",
            "country": "Thailand",
            "latitude": 7.5153976439256,
            "longitude": 99.631309658602,
            "zip": "92000"
        },
        "name": "ตึกช่างไฟฟ้ากำลัง วิทยาลัยการอาชีพตรัง"
    },
    {
        "id": "706201666115666",
        "location": {
            "city": "Bangkok",
            "country": "Thailand",
            "latitude": 13.75395,
            "longitude": 100.50224,
            "street": "รพ .ธรรมศาสตร์"
        },
        "name": "แผนกช่างไฟฟ้า รพ.ธรรมศาสตร์"
    },
    {
        "id": "692477934099446",
        "location": {
            "city": "Ayutthaya",
            "country": "Thailand",
            "latitude": 14.34342,
            "longitude": 100.56622,
            "street": "ท่าวาสุกรี",
            "zip": "13000"
        },
        "name": "แผนกวิชาช่างไฟฟ้ากำลัง เทคนิคยุธยา"
    },
    {
        "id": "561689203951178",
        "location": {
            "city": "Ubon Ratchathani",
            "country": "Thailand",
            "latitude": 15.2416833,
            "longitude": 104.84433
        },
        "name": "ช่างไฟฟ้ากำลัง วิทยาลัยเทคนิคอุบลราชธานี."
    },
    {
        "id": "628631860498035",
        "location": {
            "city": "Maha Sarakam",
            "country": "Thailand",
            "latitude": 16.188679,
            "longitude": 103.296678
        },
        "name": "แผนกวิชาช่างไฟฟ้ากำลัง"
    },
    {
        "id": "621054484631282",
        "location": {
            "city": "Muang Lopburi",
            "country": "Thailand",
            "latitude": 14.8004682,
            "longitude": 100.620048
        },
        "name": "ห้อง Ep125 ห้องประลอง นิวแมติกส์ และ ไฮดรอลิกส์ แผนกช่างไฟฟ้ากำลัง"
    },
    {
        "id": "614399718616301",
        "location": {
            "latitude": 10.787855228385,
            "longitude": 99.204177335018
        },
        "name": "จุดสูงสุดของแผนกช่างไฟฟ้า"
    },
    {
        "id": "611469952290344",
        "location": {
            "city": "Bang Phutsa",
            "country": "Thailand",
            "latitude": 14.878015,
            "longitude": 100.4073336
        },
        "name": "แผนกช่างไฟฟ้า วิทยาลัยเทคนิคสิงห์บุรี"
    },
    {
        "about": "วิทยาลัยเทคนิคหนองบัวลำภู\n",
        "id": "560913577299850",
        "location": {
            "city": "เมือง",
            "zip": "หนองบัวลำภู"
        },
        "name": "แผนกวิชาช่างไฟฟ้ากำลัง"
    },
    {
        "about": "รับเดินไฟฟ้า และติดตั้งไฟฟ้า ภายใน และภายนอก ไม่ว่าจะงานเล็ก งานใหญ่เรารับหมด. ",
        "id": "908380612505837",
        "location": {
            "city": "ไทย",
            "street": "50/3",
            "zip": "25230"
        },
        "name": "ช่างไฟฟ้า รับเหมาเดินไฟบ้าน ติดตั้งระบบไฟภายใน ภายนอก",
        "phone": "0852266838"
    },
    {
        "id": "464657560284400",
        "name": "ช่างไฟฟ้ากำลัง"
    },
    {
        "about": "แผนกช่างไฟฟ้า วิทยาลัยสารพัดช่างพระนคร",
        "id": "1452802651647604",
        "location": {
            "city": "กรุงเทพ",
            "street": "286/1 ถ.บำรุงเมือง แขวงบ้านบาตร เขตป้อมปราบศัตรูพ่าย กรุงเทพฯ 10100",
            "zip": "10100"
        },
        "name": "วิทยาลัยสารพัดช่างพระนคร แผนกวิชาช่างไฟฟ้า",
        "phone": "02-223-1069"
    },
    {
        "id": "321303691285734",
        "name": "วิทยาลัยเทคนิคปทุมธานี{ช่างไฟฟ้ากำลัง ๒๕ ปี}"
    },
    {
        "id": "714462388657639",
        "name": "เด็กช่างไฟฟ้า."
    },
    {
        "about": "ช่างไฟฟ้ากำลัง สารพัดช่างพิจิตร",
        "id": "469013393239039",
        "name": "แผนกช่างไฟฟ้ากำลัง วิทยาลัยสารพัดช่างพิจิตร"
    },
    {
        "about": "แผนกวิชาช่างไฟฟ้ากำลัง วิทยาลัยการอาชีพท่าตูม",
        "id": "212951858853834",
        "name": "แผนกวิชาช่างไฟฟ้ากำลัง วิทยาลัยการอาชีพท่าตูม"
    },
    {
        "id": "1577975782422638",
        "location": {
            "street": "54/1  ม.2 ต.บ้านใหม่ อ.ท่าม่วง จ.กาญจนบุรี",
            "zip": "71110"
        },
        "name": "Fc.ช่างไฟฟ้ากำลัง Fml.",
        "phone": "0928047472"
    },
    {
        "id": "140439249312410",
        "name": "ผู้ช่วยช่างไฟฟ้า"
    },
    {
        "id": "181386208565787",
        "name": "ปวส.ช่างไฟฟ้ากำลัง"
    },
    {
        "id": "537531943042027",
        "location": {
            "city": "เมืองเลย",
            "street": "วิทยาลัยเทคนิคเลย",
            "zip": "42000"
        },
        "name": "ชมรมวิชาชีพช่างไฟฟ้า วท.เลย"
    },
    {
        "about": "แอร์ไม่เย็น ไฟฟ้ามีปัญหา โทรมาหาผม 0913523345",
        "id": "850932704981637",
        "location": {
            "city": "ไทย",
            "street": "จ.ร้อยเอ็ด",
            "zip": "45000"
        },
        "name": "ช่างแอร์ ช่างไฟฟ้า จังหวัดร้อยเอ็ด",
        "phone": "0913523345"
    },
    {
        "id": "1657860101125343",
        "location": {
            "city": "Bang Pa-in",
            "country": "Thailand"
        },
        "name": "นักศึกษาช่างไฟฟ้ากำลัง"
    },
    {
        "id": "485593688266697",
        "name": "แผนการช่างไฟฟ้ากำลัง"
    }
]