[
    {
        "about": "ช่างกุญแจรีโมทฝังชิพ จังหวัดลพบุรี โทร092-8721178 key immobilizer",
        "description": "ช่างกุญแจรีโมทฝังชิพ จังหวัดลพบุรี โทร092-872-1178 key immobilizer",
        "emails": [
            "speedmitsu_1@hotmail.com"
        ],
        "id": "235896386569709",
        "location": {
            "city": "Amphoe Muang Lop Buri",
            "country": "Thailand",
            "zip": "15000"
        },
        "name": "ช่างกุญแจรีโมทฝังชิพ ลพบุรี โทร092-8721178key immobilizer",
        "phone": "0928721178"
    },
    {
        "id": "608763999209809",
        "location": {
            "city": "Nakhon Ratchasima",
            "country": "Thailand",
            "latitude": 14.959615474096,
            "longitude": 102.06066066906,
            "street": "นครราชสีมา",
            "zip": "30000"
        },
        "name": "ช่างกุญแจนครราชสีมา 087 488 4333",
        "phone": "087 488 4333"
    },
    {
        "id": "724637390890631",
        "location": {
            "city": "Bangkok",
            "country": "Thailand",
            "latitude": 13.939043,
            "longitude": 100.6109543,
            "street": "วิภาวดี",
            "zip": "10000"
        },
        "name": "ช่างกุญแจวิภาวดี 087 488 4333",
        "phone": "087 488 4333"
    },
    {
        "about": "รับทำกุญแจอิมโมบิไลเซอร์ปลดล็อคกุญแจรถ",
        "id": "1513359905563728",
        "location": {
            "city": "Muang Lopburi",
            "country": "Thailand",
            "latitude": 14.8021,
            "longitude": 100.61434,
            "street": "69"
        },
        "name": "ช่างกุญแจโคกสำโรงลพบุรี080-5774942",
        "phone": "0899953363"
    },
    {
        "id": "478680852232267",
        "location": {
            "city": "Bangkok",
            "country": "Thailand",
            "latitude": 13.75395,
            "longitude": 100.50224,
            "street": "คู้บอน",
            "zip": "10000"
        },
        "name": "ช่างกุญแจคู้บอน 087 488 4333",
        "phone": "087 488 4333"
    },
    {
        "id": "1404618853150757",
        "location": {
            "city": "Bangkok",
            "country": "Thailand",
            "latitude": 13.7721004,
            "longitude": 100.5061874,
            "street": "ดุสิต สามเสน กรุงเทพ",
            "zip": "10000"
        },
        "name": "ช่างกุญแจดุสิต 087 488 4333",
        "phone": "087 488 4333"
    },
    {
        "id": "1382861518625063",
        "location": {
            "city": "Bangkok",
            "country": "Thailand",
            "latitude": 13.75395,
            "longitude": 100.50224,
            "street": "พระนคร หลักสี่ ดอนเมือง รามอินทรา สะพานใหม่ บางเขน รังสิต กรงเทพ",
            "zip": "10000"
        },
        "name": "ช่างกุญแจพระนคร  082 473 1555",
        "phone": "082 473 1555"
    },
    {
        "about": "ช่างกุญแจ บางรัก ชิดรม นานา ราชเทวี ประตูน้ำ พร้อมพงษ์ วิทยุ สยาม กรุงเทพ",
        "id": "152885531554014",
        "location": {
            "city": "Bangkok",
            "country": "Thailand",
            "street": "บางรัก ชิดรม นานา ราชเทวี ประตูน้ำ พร้อมพงษ์ วิทยุ สยาม กรุงเทพ",
            "zip": "10000"
        },
        "name": "ช่างกุญแจบางรัก 087 488 4333",
        "phone": "0874884333"
    },
    {
        "about": "ช่างกุญแจอ่างทอง วิเศษชัยชาญ โทร092-8721178",
        "id": "474941219283216",
        "location": {
            "city": "Amphoe Wiset Chai Chan",
            "country": "Thailand",
            "latitude": 14.56437,
            "longitude": 100.3074,
            "street": "743",
            "zip": "14110"
        },
        "name": "ช่างกุญแจอ่างทอง วิเศษชัยชาญ โทร092-8721178",
        "phone": "0928721178"
    },
    {
        "id": "730702023636059",
        "location": {
            "city": "Bangkok",
            "country": "Thailand",
            "latitude": 13.749836,
            "longitude": 100.5957489,
            "street": "สามย่าน พระราม 4",
            "zip": "10000"
        },
        "name": "ช่างกุญแจสามย่าน 087 488 4333",
        "phone": "087 488 4333"
    },
    {
        "id": "200332286827941",
        "location": {
            "city": "Bangkok",
            "country": "Thailand",
            "latitude": 13.75395,
            "longitude": 100.50224,
            "street": "32/3 หมู่1 ซอยคูขวาง1 ลาดหลุมแก้ว ปทุมธานี"
        },
        "name": "ร้านกุญแจช่างแขก รับทำกุญแจรีโมท กุญแจฝังชิพ 081-7606868",
        "phone": "0817606868"
    },
    {
        "id": "311587895659353",
        "location": {
            "city": "Maha Sarakam",
            "country": "Thailand",
            "latitude": 16.1939264,
            "longitude": 103.28433015,
            "zip": "44000"
        },
        "name": "ร้านกุญแจช่างโฟล์ค"
    },
    {
        "id": "860006844055033",
        "location": {
            "city": "Bangkok",
            "country": "Thailand",
            "latitude": 13.7718916,
            "longitude": 100.5815525,
            "street": "524 ถนน.ประชาอุทิศ แขวง.ห้วยขวาง เขต.ห้วยขวาง",
            "zip": "10310"
        },
        "name": "ช่างโย กุญแจ"
    },
    {
        "id": "429059100618701",
        "location": {
            "city": "Lamphun",
            "country": "Thailand",
            "latitude": 18.5811,
            "longitude": 99.0092,
            "street": "ร้านอำนาจกุญแจ",
            "zip": "51000"
        },
        "name": "ช่างกุญแจลำพูน ช่างกุญแจสารภี ช่างกุญแจบ้านธิ",
        "phone": "081-5954855"
    },
    {
        "about": "รับทำกุญแจทุกชนิด 24 ชั่่วโมง",
        "id": "430892710441255",
        "location": {
            "city": "Lamphun",
            "country": "Thailand",
            "latitude": 18.5811,
            "longitude": 99.0092,
            "street": "ประเทศไทย",
            "zip": "51000"
        },
        "name": "ช่างกุญแจลำพูนแท้ 24 ชั่วโมง 081-5954855",
        "phone": "081-5954855"
    },
    {
        "id": "741886062622515",
        "location": {
            "city": "Nakhon Ratchasima",
            "country": "Thailand",
            "latitude": 14.9596004,
            "longitude": 102.0606308,
            "street": "70 ถ.รถไฟ1 ต.บัวใหญ่ อ.บัวใหญ่ จ.นครราชสีมา",
            "zip": "30120"
        },
        "name": "ช่างกุญแจ บัวใหญ่",
        "phone": "0872521867"
    },
    {
        "about": "บริการ ปั๊มลูกกุญแจ ทำลูกกุญแจ ",
        "id": "309540065918020",
        "location": {
            "city": "Nan",
            "country": "Thailand",
            "latitude": 18.28445,
            "longitude": 100.78408,
            "street": "6 ม.3 ต.นาน้อย อ.นาน้อย",
            "zip": "55150"
        },
        "name": "ช่างกุญแจ บิ๊กคีย์นาน้อย จ.น่าน",
        "phone": "0869165649"
    },
    {
        "id": "1605921216312214",
        "location": {
            "city": "Hat Yai",
            "country": "Thailand",
            "latitude": 7.002787682,
            "longitude": 100.468658588,
            "street": "หาดใหญ่"
        },
        "name": "ช่างกุญแจ โรบินสันหาดใหญ่ 0841276253",
        "phone": "0841276253"
    },
    {
        "id": "984375391607455",
        "location": {
            "city": "Chumphon",
            "country": "Thailand",
            "latitude": 10.5,
            "longitude": 99.1667,
            "street": "สี่แยกปฐมพร ต.วังไผ่"
        },
        "name": "ช่างกุญแจชุมพร กุญแจรีโมท\u0026ฝังชิพ รถล๊อคลืมกุญแจรถหาย 081-458-5951ช่างโอม",
        "phone": "081-458-5951"
    },
    {
        "id": "397239837092319",
        "location": {
            "city": "Bangkok",
            "country": "Thailand",
            "latitude": 14.053529266667,
            "longitude": 100.4431597,
            "street": "ลาดหลุมแก้ว",
            "zip": "12140"
        },
        "name": "ร้านช่างแขก กุญแจ ลาดหลุมแก้ว 081-7606868",
        "phone": "0817606868"
    },
    {
        "id": "933522150013420",
        "location": {
            "city": "Lat Lum Kaeo",
            "country": "Thailand",
            "latitude": 14.027147566667,
            "longitude": 100.39268226667,
            "street": "ลาดหลุมแก้ว",
            "zip": "12140"
        },
        "name": "ร้านช่างแขก รับทำกุญแจ ลาดหลุมแก้ว 081-7606868",
        "phone": "0817606868"
    },
    {
        "about": "ช่างกุญแจ กุญแจหาย ลืมกุญแจ เปิดบ้าน เปิดรถ",
        "emails": [
            "dj_dew_2@hotmail.com"
        ],
        "id": "535276913279812",
        "location": {
            "city": "Ubon Ratchathani",
            "country": "Thailand",
            "latitude": 15.36575,
            "longitude": 104.89258,
            "street": "SUNEE TOWER",
            "zip": "34000"
        },
        "name": "ช่างกุญแจอุบลราชธานี  096 887 8868 กุญแจฝังชิบ เปิดรถ เปิดบ้าน KeyUbon",
        "phone": "0968878868"
    },
    {
        "about": "รับทำ ปั๊มกุญแจ โดยช่างทำกุญแจที่มีประสบการณ์มายาวนาน",
        "description": "www.chiangmaimedee.com/ช่างกุญแจเชียงใหม่\n\n รับทำกุญแจราคาถูก บริการทำกุญแจนอก สถานที่ ช่างกุญแจเปิดบ้าน ช่างกุญแจเปิดรถ ช่างกุญแจเปิดตู้เซฟ เปิด ติดตั้ง ซ่อม ดัดแปลง ผลิต จำหน่าย กุญแจทุกชนิด กุญแจตู้เซฟ  กุญแจรถหาย.โดยช่างทำกุญแจที่มีประสบการณ์มายาวนาน ",
        "id": "328745580596908",
        "location": {
            "city": "Amphoe Muang Chiang Mai",
            "country": "Thailand",
            "latitude": 18.810813899585,
            "longitude": 99.027863459699,
            "street": "สันทราย",
            "zip": "50210"
        },
        "name": "ช่างเอ กุญแจเชียงใหม่ 089-4316090",
        "phone": "0894316090"
    },
    {
        "id": "205265346324373",
        "location": {
            "city": "Hat Yai",
            "country": "Thailand",
            "latitude": 6.9936924,
            "longitude": 100.4773311,
            "street": "ตรงข้ามเซเว่น ถ.พลพิชัย",
            "zip": "90110"
        },
        "name": "ร้านช่างกุญแจ หาดใหญ่",
        "phone": "0817487569"
    },
    {
        "about": "บริการรับทำกุญแจ ชิพรีโมท IMMOBILIZER ทุกรุ่นดอกกุญแจหายทำเพิ่ม ทั่วไทย 0923451148",
        "description": "ช่างกุญแจบริการ24ชั่วโมง 092-3451148",
        "id": "492080924207033",
        "location": {
            "city": "Nakhon Sawan",
            "country": "Thailand",
            "zip": "60000"
        },
        "name": "ช่างกุญแจนครสวรรค์24ช.ม0923451148",
        "phone": "0923451148"
    }
]