[
    {
        "about": "ช่างกุญแจนครนายก บริกาาร24ชั่วโมง092-3451148",
        "description": "ช่างกุญแจIMMOBILIZER นครนายก 092-3451148",
        "id": "594921490543935",
        "location": {
            "city": "Amphoe Muang Nakhon Nayok",
            "country": "Thailand",
            "latitude": 14.25999,
            "longitude": 101.24449,
            "street": "675/23",
            "zip": "26000"
        },
        "name": "ช่างกุญแจนครนายก ทำกุญแจอิโม กุญแจรีโมท092-3451148",
        "phone": "0923451148"
    },
    {
        "about": "เปิดรถ ห้อง เซพ ไขกุญแจทุกชนิดนอกสถานที่ 24 ชม.\nทำกุญแจฝังชิพ รีโมทรถยนต์ ขายกุญแจทุกชนิด",
        "description": "- รับทำ-ซ่อมกุญแจครบวงจรทั้งในและนอกสถานที่\n- ทำกุญแจฝังชิพ รีโมทรถยนต์ บ้าน \n- กุญแจหาย เปิดรถ ห้อง เซพ 9ล9\n- รับงานสำนักงานทุกชนิด",
        "emails": [
            "keymanchonburi@hotmail.com"
        ],
        "id": "708920389149598",
        "location": {
            "city": "Chonburi",
            "country": "Thailand",
            "latitude": 13.36899,
            "longitude": 100.9957,
            "street": "อ.เมือง",
            "zip": "20000"
        },
        "name": "ช่างกุญแจชลบุรี ร้านช่างแมน 0807310666 เปิดรถ เซพ ไขกุญแจทุกชนิด 24ชม.",
        "phone": "0807310666"
    },
    {
        "about": "กุญแจฝังชิฟ,สมาร์คีย์, รีโมท, กุญแจทุกชนิด",
        "id": "720843484725878",
        "name": "แก้วช่างกุญแจไทย 24 ชั่วโมง"
    },
    {
        "about": "ช่างกุญแจสระบุรี กุญแจฝังชิพ 24 ชั่วโมง โทร 0863334941\n",
        "description": "ช่างกุญแจสระบุรี Unlockkey Thailand ช่างกุญแจสระบุรี 24 ชั่วโมง ทั่วไทย 0863334941\nปลดล็อคกุญแจทุกชนิด กุญแจบ้าน กุญแจรถ กุญแจตู้เซฟ ติดตั้งกุญแจทุกชนิด\nกุญแจฝังชิพ กุญแจรีโมท \nกุญแจระบบimmobilizer \nกุญแจระบบputstart\nช่างกุญแจสระบุรี\n",
        "emails": [
            "fk_114-2@hotmail.co.th"
        ],
        "id": "502576553131542",
        "location": {
            "city": "Ban Thai Phikun",
            "country": "Thailand",
            "zip": "18120"
        },
        "name": "ช่างกุญแจสระบุรี Unlockkey Thailand 24 ชั่วโมง 0863334941",
        "phone": "086-3334941"
    },
    {
        "id": "484654738278328",
        "location": {
            "city": "Bangkok",
            "country": "Thailand",
            "latitude": 13.75395,
            "longitude": 100.50224,
            "street": "พญาไท ราชเทวี พญาไท เสาวรีย์ ดินแดง สุขุมวิท สีลม",
            "zip": "10000"
        },
        "name": "ช่างกุญแจพญาไท 087 488 4333",
        "phone": "0874884333"
    },
    {
        "id": "831324506881488",
        "location": {
            "city": "Bangkok",
            "country": "Thailand",
            "latitude": 13.75395,
            "longitude": 100.50224,
            "street": "ลาซาล แบริ่ง",
            "zip": "10000"
        },
        "name": "ช่างกุญแจลาซาล แบริ่ง 087 488 4333",
        "phone": "087 488 4333"
    },
    {
        "about": "ร้าน MENiT KEY รับซ่อมกุญแจ ซ่อมรองเท้า กุญแจรถหาย อิมโมบิไลเซอร์\n\nติดต่อได้ที่ 093-4545524 ช่างบูน",
        "description": "ร้าน MENiT KEY รับซ่อมกุญแจ ซ่อมรองเท้า กุญแจรถหาย อิมโมบิไลเซอร์\n\n**สถานที่ตั้งร้าน - เดอะมอลล์นครราชสีมา ชั้นใต้ดินถัดจากธนาคารออมสิน\n\n**ติดต่อได้ที่ 093-4545524 ช่างบูน",
        "emails": [
            "kittiyotin@hotmail.com"
        ],
        "id": "1425538817747928",
        "location": {
            "city": "Nakhon Ratchasima",
            "country": "Thailand",
            "latitude": 14.9596004,
            "longitude": 102.0606308,
            "street": "thailand",
            "zip": "30000"
        },
        "name": "MENIT KEY ช่างกุญแจโคราช",
        "phone": "0984545524"
    },
    {
        "id": "184239491732557",
        "location": {
            "city": "Bangkok",
            "country": "Thailand",
            "latitude": 13.75395,
            "longitude": 100.50224,
            "street": "บางขุนเทียน บางบอน พระราม 2 ดาวคะนอง สมุทรสาคร",
            "zip": "10000"
        },
        "name": "ช่างกุญแจบางขุนเทียน 087 488 4333",
        "phone": "0874884333"
    },
    {
        "about": "ช่างกุญแจสิงห์บุรี ท่าช้าง โทร082-0707950",
        "description": "ช่างกุญแจสิงห์บุรี ท่าช้าง โทร082-0707950",
        "id": "1445093029047835",
        "location": {
            "city": "Tha Chang",
            "country": "Thailand",
            "latitude": 14.78067,
            "longitude": 100.38213,
            "street": "98",
            "zip": "16140"
        },
        "name": "ช่างกุญแจสิงห์บุรี ท่าช้าง โทร 082-0707950",
        "phone": "0820707950"
    },
    {
        "about": "รับบริการ ทำกญแจทุกชนิด กญแจบ้านหาย กุญแจรถหาย กุญแจเซฟหาย ในราคาย่อมเยา",
        "id": "412544272263140",
        "location": {
            "city": "Bangkok",
            "country": "Thailand",
            "street": "104/58 แขวงบางไผ่ เขตบางแค",
            "zip": "10160"
        },
        "name": "ช่างกุญแจกรุงเทพปริมณฑล 0858334263",
        "phone": "0858334263"
    },
    {
        "about": "รับทำกุญแจ  ทุกชนิดทั้งในและนอกสถานที่",
        "description": "ข้างเซเว้น หน้าที่ว่าการ หรือ ข้างร้าน ปุ๋มปุ๋ย",
        "id": "313658992099021",
        "location": {
            "city": "Khon Kaen",
            "country": "Thailand",
            "street": "ข้างเซเว้นที่ว่าก่รอำเภอบ้านไผ่ .",
            "zip": "40110"
        },
        "name": "ช่างกุญแจ  อ.บ้านไผ่",
        "phone": "0832681367"
    },
    {
        "id": "369537293157907",
        "location": {
            "city": "Bangkok",
            "country": "Thailand",
            "latitude": 13.75395,
            "longitude": 100.50224,
            "street": "พุทธมณฑล ท่าพระ บางแค จรัญสนิทวงศ์ เพชรเกษม  บางบอน",
            "zip": "10000"
        },
        "name": "ช่างกุญแจพุทธมณฑล 087 488 4333",
        "phone": "0874884333"
    },
    {
        "id": "256535091180594",
        "location": {
            "city": "Bangkok",
            "country": "Thailand",
            "latitude": 13.75395,
            "longitude": 100.50224,
            "street": "เยาวราช สุขุมวิท สีลม สาทร ราชเทวี โบ้เบ้ ปิ่นเกล้า ราชวัตร พระราม 4",
            "zip": "10000"
        },
        "name": "ช่างกุญแจเยาวราช 087 488 4333",
        "phone": "087 488 4333"
    },
    {
        "about": "ช่างกุญแจปราณบุรี เปิดรถ เปิดบ้าน ",
        "emails": [
            "wannachai191@hotmail.com"
        ],
        "id": "607396922739592",
        "location": {
            "city": "ปราณบุรี",
            "street": "19/82  ม.2 ต.เขาน้อย",
            "zip": "77120"
        },
        "name": "ช่างกุญแจปราณบุรี บิ๊กคีย์ 088-4546887",
        "phone": "088-4546887"
    },
    {
        "about": "ช่างกุญแจฝังชิพ กุญแจรีโมท ปลดล็อกทุกชนิด ",
        "description": "ช่างกุญแจ Unlockkey Thailand ลพบุรี 24 ชั่วโมง ทั่วไทย 0863334941\nปลดล็อคกุญแจทุกชนิด กุญแจบ้าน กุญแจรถ กุญแจตู้เซฟ ติดตั้งกุญแจทุกชนิด\nกุญแจฝังชิพ กุญแจรีโมท \nกุญแจระบบimmobilizer \nกุญแจระบบputstart\n",
        "emails": [
            "fk_114-2@hotmail.co.th"
        ],
        "id": "225003334335133",
        "location": {
            "city": "Muang Lopburi",
            "country": "Thailand",
            "latitude": 14.70477,
            "longitude": 100.81761,
            "street": "114/2หมู่9",
            "zip": "18120"
        },
        "name": "ช่างกุญแจลพบุรี รับทํากุญแจฝังชิพ immobilizer 0863334941",
        "phone": "0863334941"
    },
    {
        "id": "564265746966556",
        "location": {
            "city": "Bangkok",
            "country": "Thailand",
            "latitude": 13.75395,
            "longitude": 100.50224,
            "street": "บางเขน ดอนเมือง พหลโยธิน วิภาวดี รังสิต ปทุมธานี ลำลูกกา เกษตร นวมินทร์",
            "zip": "10000"
        },
        "name": "ช่างกุญแจบางเขน 082 473 1555 ช่างกุญแจหลักสี่ ช่างกุญแจดอนเมือง",
        "phone": "0824731555"
    },
    {
        "id": "164470610384474",
        "location": {
            "city": "Bangkok",
            "country": "Thailand",
            "latitude": 13.7483797,
            "longitude": 100.5632706,
            "street": "สุขุมวิท สาทร สีลม ลวงหลวง กรุง้ทพ",
            "zip": "10260"
        },
        "name": "ช่างกุญแจสุขุมวิท 082 473 1555 รับซื้อตู้เซฟ รับเปิดตู้เซฟ",
        "phone": "0824731555"
    },
    {
        "id": "1481475435400443",
        "location": {
            "city": "Chonburi",
            "country": "Thailand",
            "latitude": 13.36899,
            "longitude": 100.9957,
            "street": "ดอนหัวฬ่อ พานทอง พนัสนิคม อมตะนคร ชลบุรี",
            "zip": "20000"
        },
        "name": "ช่างกุญแจดอนหัวฬ่อ 087 488 4333",
        "phone": "087 488 4333"
    },
    {
        "about": "ช่างกุญแจนครนายก ปราจีนบุรี สระแก้ว จันทบุรี24ช.ม082-0707950",
        "description": "ช่างกุญแจนครนายก ปราจีนบุรี สระแก้ว จันทบุรี24ช.ม082-0707950",
        "id": "1379393978989702",
        "location": {
            "city": "Bangkok",
            "country": "Thailand",
            "latitude": 14.188989099774,
            "longitude": 101.16326610743,
            "zip": "26000"
        },
        "name": "ช่างกุญแจอิมโมบิไลเซอร์ จันทบุรี 082-0707950",
        "phone": "0820707950"
    },
    {
        "about": "ช่างกุญแจ พะเยา",
        "emails": [
            "wisarui27@hotmail.com"
        ],
        "id": "317396131801428",
        "location": {
            "city": "Phayao",
            "country": "Thailand",
            "latitude": 19.16541,
            "longitude": 99.86263,
            "street": "พะเยา",
            "zip": "56000"
        },
        "name": "แมนการช่าง กุญแจ",
        "phone": "095-9583757"
    },
    {
        "about": "บริการเกี่ยวกับกุญแจและอุปกรณ์ล็อค\nกุญแจหาย ลืมกุญแจไว้ในรถ ทำกุญแจเพิ่ม สอบถามได้ครับ",
        "description": "บริการเกี่ยวกับกุญแจและอุปกรณ์ล็อค\nกุญแจหาย ลืมกุญแจไว้ในรถ ทำกุญแจเพิ่ม สอบถามก่อนได้ ยินดีให้บริกาครับ 085-8643173",
        "id": "1550004091905877",
        "location": {
            "city": "Amphoe Fang",
            "country": "Thailand",
            "latitude": 19.939230024331,
            "longitude": 99.231383961009,
            "street": "ตำบลเวียง",
            "zip": "50110"
        },
        "name": "ช่างกุญแจเมืองฝาง 085 - 8643173",
        "phone": "085-8643173"
    },
    {
        "about": "บริการทำกุญแจฉุกเฉิน24ชั่วโมง",
        "id": "722194554468274",
        "location": {
            "city": "Saraburi",
            "country": "Thailand",
            "latitude": 14.53236,
            "longitude": 100.92238,
            "street": "99",
            "zip": "18000"
        },
        "name": "ช่างกุญแจสระบุรี หินกอง หนองแค 089-9953363",
        "phone": "0899953363"
    },
    {
        "about": "ช่างกุญแจสิงห์บุรี โทร0863334941 บริการ 24 ชั่วโมง กุญแจฝังชิพ ",
        "description": "ช่างกุญแจสิงห์บุรี โทร0863334941 บริการ 24 ชั่วโมง \nช่างกุญแจสิงห์บุรี Unlockkey Thailand สิงห์บุรี 24 ชั่วโมง ทั่วไทย 0863334941\nปลดล็อคกุญแจทุกชนิด กุญแจบ้าน กุญแจรถ กุญแจตู้เซฟ ติดตั้งกุญแจทุกชนิด\nกุญแจฝังชิพ กุญแจรีโมท \nกุญแจระบบimmobilizer \nกุญแจระบบputstart\nช่างกุญแจสิงห์บุรี โทร0863334941 บริการ 24 ชั่วโมง",
        "id": "170826816444194",
        "location": {
            "city": "Sing Buri",
            "country": "Thailand",
            "zip": "16000"
        },
        "name": "ช่างกุญแจสิงห์บุรี โทร0863334941 รับทํากุญแจฝังชิพ immobilizer",
        "phone": "0863334941"
    },
    {
        "about": "ช่างกุญแจนครนายก24ช.ม0923451148",
        "description": "ช่างกุญแจนครนายก24ช.ม0923451148",
        "id": "589336001149335",
        "location": {
            "city": "Nakon Nayok",
            "country": "Thailand",
            "latitude": 14.2031,
            "longitude": 101.215,
            "zip": "26000"
        },
        "name": "ช่างกุญแจนครนายก 24ช.ม083-8864391",
        "phone": "0923451148"
    }
]