[
    {
        "id": "134717710040339",
        "location": {
            "city": "Samut Prakan",
            "country": "Thailand",
            "latitude": 13.72412,
            "longitude": 100.52845,
            "street": "เมืองสมุทรปราการ สมุทรปราการ",
            "zip": "10270"
        },
        "name": "ช่างกุญแจ สมุทรปราการ 0874884333",
        "phone": "0874884333"
    },
    {
        "about": "ช่างกุญแจนครนายกบริการ24ชั่วโมง082-0707950",
        "description": "ช่างกุญแจนครนายก 24ช.ม082-0707950",
        "id": "195435903966969",
        "location": {
            "city": "Nakon Nayok",
            "country": "Thailand",
            "latitude": 14.20277065,
            "longitude": 101.2323389,
            "zip": "26000"
        },
        "name": "ช่างกุญแจนครนายก24ช.ม082-0707950เปิด",
        "phone": "0820707950"
    },
    {
        "about": "ช่างกุญแจพิจิตรบริการ24ชั่วโมง082-0707950",
        "description": "ช่างกุญแจพิจิตร 24ช.ม082-0707950",
        "id": "202836596550651",
        "location": {
            "city": "Changwat Phichit",
            "country": "Thailand",
            "zip": "72000"
        },
        "name": "ช่างกุญแจพิจิตร24ชั่วโมง 082-0707950",
        "phone": "0923451148"
    },
    {
        "id": "469509829802489",
        "location": {
            "city": "Bangkok",
            "country": "Thailand",
            "latitude": 13.75395,
            "longitude": 100.50224,
            "street": "พระราม 2 พระราม 3 พระราม 4 พระราม 7 พระราม 9",
            "zip": "10000"
        },
        "name": "ช่างกุญแจพระราม 2 โทร. 087 488 4333",
        "phone": "0874884333"
    },
    {
        "about": "ช่างกุญแจสิงห์บุรี อำเภอพรหมบุรี โทร082-0707950 บริการ24ชั่วโมง",
        "description": "ช่างกุญแจสิงห์บุรี พรหมบุรี โทร082-0707950",
        "id": "1448000875421739",
        "location": {
            "city": "Phrom Buri",
            "country": "Thailand",
            "latitude": 14.78116,
            "longitude": 100.45082,
            "street": "443",
            "zip": "16120"
        },
        "name": "ช่างกุญแจสิงห์บุรี พรหมบุรี24ช.ม 082-0707950",
        "phone": "0820707950"
    },
    {
        "id": "339529626179389",
        "location": {
            "city": "Changwat Rayong",
            "country": "Thailand",
            "street": "ระยอง แกลง ปลวกแดง บ้านฉาง มาบตาพุด สัตหีบ กะเฉด บ้านเพ ชลบุรี พัทยา บางแสน",
            "zip": "20300"
        },
        "name": "ช่างกุญแจระยอง 0831111938",
        "phone": "0831111938"
    },
    {
        "about": "ช่างกุญแจสิงห์บุรี ค่ายบางระจัน 24ชั่วโมง โทร 082-0707950",
        "description": "ช่างกุญแจสิงห์บุรี ค่ายบางระจัน 24ชั่วโมง โทร082-0707950",
        "id": "551524511600003",
        "location": {
            "city": "Sing",
            "country": "Thailand",
            "latitude": 14.82652,
            "longitude": 100.29657,
            "street": "311",
            "zip": "16150"
        },
        "name": "ช่างกุญแจสิงห์บุรี ค่ายบางระจัน24ช.ม 082-0707950",
        "phone": "0820707950"
    },
    {
        "id": "387661981371712",
        "location": {
            "city": "Chonburi",
            "country": "Thailand",
            "latitude": 13.20047,
            "longitude": 101.19065,
            "street": "บ้านบึง พนัสนิคม พานทอง ชลบุรี",
            "zip": "20220"
        },
        "name": "ช่างกุญแจบ้านบึง 087 488 4333",
        "phone": "087 488 4333"
    },
    {
        "id": "247245778732578",
        "location": {
            "city": "Bangkok",
            "country": "Thailand",
            "latitude": 13.9886465,
            "longitude": 100.6110687,
            "street": "ธัญบุรี รังสิต ปทุมธานี",
            "zip": "10000"
        },
        "name": "ช่างกุญแจธัญบุรี 087 488 4333",
        "phone": "087 488 4333"
    },
    {
        "id": "827182827296683",
        "location": {
            "city": "Chon Buri",
            "country": "Thailand",
            "latitude": 13.36211,
            "longitude": 100.98371,
            "street": "บางพระ อ่างศิลา บางแสน พัทยา บางพระ บางละมุง แหลมฉบัง ศรีราชา หนองมน นาเกลือ ชลบุรี",
            "zip": "20200"
        },
        "name": "ช่างกุญแจบางพระ 0874884333",
        "phone": "087 488 4333"
    },
    {
        "id": "195477990647072",
        "location": {
            "city": "Bangkok",
            "country": "Thailand",
            "latitude": 13.75395,
            "longitude": 100.50224,
            "street": "วัชรพล รามอินทรา ลาดพร้าว พหลโยธิน เกษตรนวมินทร์ รัชดาภิเษก รัชโยธิน",
            "zip": "10000"
        },
        "name": "ช่างกุญแจวัชรพล 082 473 1555",
        "phone": "082 473 1555"
    },
    {
        "id": "419508281512618",
        "location": {
            "city": "Bangkok",
            "country": "Thailand",
            "latitude": 13.75395,
            "longitude": 100.50224,
            "street": "เยาวราช สุขุมวิท สีลม สาทร ราชเทวี โบ้เบ้ ปิ่นเกล้า ราชวัตร พระราม 4",
            "zip": "10000"
        },
        "name": "ช่างกุญแจเยาวราช 082 473 1555",
        "phone": "082 473 1555"
    },
    {
        "id": "595272447168055",
        "location": {
            "city": "Bangkok",
            "country": "Thailand",
            "latitude": 13.7642403,
            "longitude": 100.6944504,
            "street": "สวนหลวง ดินแดง ห้วยขวาง สุทธิสาร รัชดาภิเษก ลาดพร้าว บางกะปิ รามคำแหง พระราม 9 ดินแดง กรุงเทพ",
            "zip": "10240"
        },
        "name": "ช่างกุญแจสวนหลวง 082 473 1555",
        "phone": "0824731555"
    },
    {
        "about": "ช่างกุญแจสิงห์บุรี อินทร์บุรี โทร082-0707950 ",
        "description": "ช่างกุญแจสิงห์บุรี อินทร์บุรี 24ชั่วโมง โทร082-0707950",
        "id": "237138536454313",
        "location": {
            "city": "Muang Inburi",
            "country": "Thailand",
            "latitude": 15.0289,
            "longitude": 100.3515,
            "street": "21",
            "zip": "16110"
        },
        "name": "ช่างกุญแจสิงห์บุรี อินทร์บุรี24ช.ม 082-0707950",
        "phone": "0820707950"
    },
    {
        "id": "334788923311292",
        "location": {
            "city": "Bangkok",
            "country": "Thailand",
            "latitude": 13.75395,
            "longitude": 100.50224,
            "street": "ลำปาง ลำพูน เชียงใหม่ เชียงราย แพร่ น่าน",
            "zip": "10000"
        },
        "name": "ช่างกุญแจลำปาง 087 488 4333",
        "phone": "0874884333"
    },
    {
        "id": "143147659204075",
        "location": {
            "city": "Bangkok",
            "country": "Thailand",
            "latitude": 13.75395,
            "longitude": 100.50224,
            "street": "นนทบุรี ปากเกร็ด บางบัวทอง งามวงศ์วาน บางเขน",
            "zip": "10000"
        },
        "name": "ช่างกุญแจนนทบุรี 087 488 4333",
        "phone": "0874884333"
    },
    {
        "about": "ช่างทำกุญแจนครปฐม",
        "description": "ปัญหาเรื่องกุญแจ ให้เราดูแลครับ\nบริการ ปั๊มกุญแจ ลืมกุญแจ กุญแจหาย\nเปิดเซฟ / บ้าน / รถ\nกุญแจรีโมทหาย หรือทำเพิ่ม ซ่อม เปลี่ยนถ่าน\nกรอบกุญแจรีโมทชำรุด แตก-หัก มีบริการครับ\nรับทำกุญแจระบบฝังชิพ ( IMMOBILIZER )\nรับติดตั้งอุปกรณ์ ล็อครถยนต์ รถจักรยานยนต์\nมีบริการนอกสถานที่....\nช่างกุญแจนครปฐม\nช่างกุญแจนครชัยศรี\nช่างกุญแจสามพราน\nช่างกุญแจศาลายา\nช่างกุญแจพุทธมลฑลสาย4\nช่างกุญแจพุทธมลฑลสาย5\nช่างกุญแจพุทธมลฑลสาย6\nช่างกุญแจพุทธมลฑลสาย7\nช่างกุญแจพุทธมลฑลสาย8\nช่างกุญแจดอนตูม\nช่างกุญแจบางเลน\nช่างกุญแจกำแพงแสน\nช่างกุญแจหนองดินแดง\nช่างกุญแจดอนยายหอม\nช่างต้น โทร-089-4112477 ยินดีครับ\n#thailandonly #nakhonpathom #ช่างกุญแจ ﻿\n\n",
        "id": "178306558920148",
        "location": {
            "city": "Nakhon Pathom",
            "country": "Thailand",
            "latitude": 13.819975060844,
            "longitude": 100.08063574068,
            "zip": "73000"
        },
        "name": "ช่างต้นกุญแจนครปฐม      089-4112477",
        "phone": " 0894112477"
    },
    {
        "about": "รับทำกุญแจทุกชนิด บริการเปิดรถทุกชนิด ฉุกเฉิน24ชม.",
        "id": "1415829541998919",
        "location": {
            "city": "Chonburi",
            "country": "Thailand",
            "latitude": 13.36899,
            "longitude": 100.9957,
            "street": "หน้าห้างวิคตอรี่ ชลบุรี เฉลิมไทย",
            "zip": "20000"
        },
        "name": "ช่างกุญแจชลบุรี โมเดิร์นคีย์ 087-7490969 เปิดกุญแจทุกชนิดด่วน 24 ช.ม.",
        "phone": "0877490969"
    },
    {
        "about": "ช่างกุญแจปราจีนบุรี24ชั่วโมง082-0707950",
        "description": "ช่างกุญแจปราจีนบุรี24ชั่วโมง082-0707950",
        "id": "623646160999414",
        "location": {
            "city": "Prachin",
            "country": "Thailand",
            "latitude": 14.058449971058,
            "located_in": "206544986037646",
            "longitude": 101.37161463577,
            "zip": "25000"
        },
        "name": "ช่างกุญแจปราจีนบุรี24ช.ม082-0707950",
        "phone": "0820707950"
    },
    {
        "about": "รับทำกุญแจ ทุกชนิด รับทำกุญแจ ฝังชิพ ( อิมโมไลเซอร์) เปิดรถ เปิดบ้าน เปิดตู้เซฟ โทร 082-2720446      ",
        "description": "รับทำกุญแจ ทุกชนิด รับทำกุญแจ ฝังชิพ ( อิมโมไลเซอร์) เปิดรถ เปิดบ้าน เปิดตู้เซฟ โทร 082-2720446   บริการตลอด 24 ชม.",
        "id": "227242310782565",
        "name": "ช่างกุญแจ ตรัง 082-2720446"
    },
    {
        "id": "1700184853545471",
        "location": {
            "city": "Prachin Buri",
            "country": "Thailand",
            "latitude": 13.8213196,
            "longitude": 101.5460968,
            "street": "นิคม304 นิคมโรจนะ ครองรั้ง ศรีมหาโพธิ",
            "zip": "25140"
        },
        "name": "ช่างกุญแจนิคม304นิคมโรจนะ ปราจีนบุรี ช่างมาด",
        "phone": "0925488849"
    },
    {
        "about": "บริการรับทำกุญแจครบวงจร ปลดล็อค ซ่อมแก้ไขทุกกรณี รับทำกุญแจระบบฝังชิพทุกรุ่น\n0923451148",
        "description": "ช่างกุญแจสระบุรี24ช.ม092-3451148",
        "id": "243193025832848",
        "location": {
            "city": "Saraburi",
            "country": "Thailand",
            "latitude": 13.92147129,
            "longitude": 100.50131458,
            "zip": "18000"
        },
        "name": "ช่างกุญแจสระบุรี24ช.ม0923451148",
        "phone": "0923451148"
    },
    {
        "id": "575362739229299",
        "location": {
            "city": "Bangkok",
            "country": "Thailand",
            "latitude": 13.8822708,
            "longitude": 100.5828094,
            "street": "เมืองทองธานี บางบัวทอง แจ้งวัฒนะ",
            "zip": "10000"
        },
        "name": "ช่างกุญแจเมืองทองธานี 087 488 4333",
        "phone": "087 488 4333"
    },
    {
        "id": "567750299909390",
        "location": {
            "city": "Bangkok",
            "country": "Thailand",
            "latitude": 13.77654,
            "longitude": 100.51799,
            "street": "บางนา บางพลี สุวรรณภูมิ ลาดกระบัง สวนหลวง อ่อนนุช อุดมสุข กรุงเทพ",
            "zip": "10300"
        },
        "name": "ช่างกุญแจบางนา 0874884333",
        "phone": "0874884333"
    },
    {
        "id": "263311090487725",
        "location": {
            "city": "Bangkok",
            "country": "Thailand",
            "latitude": 13.75395,
            "longitude": 100.50224,
            "street": "บางรัก สยาม ชิดลม เพลินจิต ราชเทวี ปทุมวัน ดินแดง ลาดพร้าว พระราม 4",
            "zip": "10000"
        },
        "name": "ช่างกุญแจบางรัก 0874884333",
        "phone": "0874884333"
    }
]