[
    {
        "id": "321660381293130",
        "location": {
            "city": "Bangkok",
            "country": "Thailand",
            "latitude": 13.75395,
            "longitude": 100.50224,
            "street": "ดอนเมือง บางเขน หลักสี่ รังสิต เกษตร นวมินทร์ กรุงเทพ",
            "zip": "10000"
        },
        "name": "ช่างกุญแจดอนเมือง 087 488 4333",
        "phone": "0874884333"
    },
    {
        "id": "170493686621643",
        "name": "หมูน้อย ช่างกุญแจพัทยา 087-949-6606."
    },
    {
        "about": "ช่างกุญแจศรีราชา หาย-ลืม รถยนต์ มอเตอร์ไซค์ ไขไม่ได้ บิดไม่ไป เบ้าขัด สตาร์ทไม่ติด Immobilizer 24ชม.",
        "emails": [
            "jjunlock24hr@gmail.com"
        ],
        "id": "1511880272363167",
        "location": {
            "city": "Ban Sriracha",
            "country": "Thailand",
            "latitude": 13.158759089668,
            "longitude": 100.96381389923,
            "street": "ศรีราชา บางพระ อ่าวอุดม",
            "zip": "20110"
        },
        "name": "ช่างกุญแจศรีราชา ฝังชิพ รีโมท 096-474-2862",
        "phone": "0964742862"
    },
    {
        "id": "127312440801851",
        "location": {
            "city": "Bangkok",
            "country": "Thailand",
            "latitude": 13.75395,
            "longitude": 100.50224,
            "street": "ลาดพร้าว รัชดา บางกะปิ รามคำแพง คลองตัน วังหิน",
            "zip": "10000"
        },
        "name": "ช่างกุญแจลาดพร้าว 087 488 4333",
        "phone": "0874884333"
    },
    {
        "id": "583543284996785",
        "location": {
            "city": "Bangkok",
            "country": "Thailand",
            "latitude": 13.75395,
            "longitude": 100.50224,
            "street": "ประเวศ สวนหลวง คลองตัน ลาดกระบัง เพชรบุรีตัดใหม่ รามคำแหง บางนา",
            "zip": "10000"
        },
        "name": "ช่างกุญแจสุขสวัสดิ์ 087 488 4333",
        "phone": "0874884333"
    },
    {
        "about": "www.okd-key.com โอเคดี กุญแจ 24 ชม.081-7606868",
        "description": "แขกช่างกุญแจ \nรับทำกุญแจบ้าน รถยนต์ รถมอเตอร์ไซค์ \nกุญแจอิมโมบิไลเซอร์ ระบบฝังชิพ รีโมท \nและกุญแจทุกชนิด \nบริการเปิดบ้าน เปิดรถ ฯลฯ \nบริการ ทั้งในและนอกสถานที่ \nบริการฉุกเฉิน 24 ชม. \nโทร.081-7606868 (ช่างแขก)",
        "emails": [
            "swk1965@hotmail.com"
        ],
        "id": "215852838472227",
        "location": {
            "city": "Amphoe Lat Lum Kaeo",
            "country": "Thailand",
            "latitude": 14.04167,
            "longitude": 100.41546,
            "street": "ร้านช่างแขก กุญแจ ลาดหลุมแก้ว 081-7606868",
            "zip": "12140"
        },
        "name": "แขกช่างกุญแจ ปทุมธานี 081-7606868",
        "phone": "0817606868"
    },
    {
        "about": " รับทำกุญแจอิมโมบิไลเซอร์และกุญแจฝังชิพ",
        "id": "232777070261709",
        "location": {
            "city": "Saraburi",
            "country": "Thailand",
            "latitude": 14.57628,
            "longitude": 100.99528,
            "street": "69",
            "zip": "18110"
        },
        "name": "ช่างกุญแจแก่งคอยสระบุรี 089-9953363",
        "phone": "0899953363"
    },
    {
        "id": "136845273166922",
        "location": {
            "city": "Phetchaburi",
            "country": "Thailand",
            "latitude": 13.07332,
            "longitude": 99.94521,
            "street": "ชะอำ หัวหิน ประจวบ เพขรบุรี",
            "zip": "76000"
        },
        "name": "ช่างกุญแจชะอำ 087 488 4333",
        "phone": "0874884333"
    },
    {
        "about": "ช่างกุญแจ 0909204304",
        "description": "บริการทำกุญแจรถยนต์ เปิดรถ เปิดบ้าน locktech กุญแจรถหาย รีโมทแตก กรอบรีโมท กุญแจชิบ อิมโมบิไลเซอร์ Immobilizer",
        "id": "689113671195007",
        "location": {
            "city": "Bangkok",
            "country": "Thailand",
            "latitude": 13.7522,
            "longitude": 100.494,
            "street": "+66909204304",
            "zip": "10220"
        },
        "name": "ช่างกุญแจ สายไหม ลำลูกกา ดอนเมือง หทัยราษฎร์ รังสิต ปทุมธานี มีนบุรี",
        "phone": "+66909204304"
    },
    {
        "about": "มีปัญหากุญแจทุกรุ้นทุก เปลี่ยนกรอบพับสวยๆๆดอกหายทำเพิ่ม เปิดบ้านเปิดรถโท0623521171",
        "id": "990772130956624",
        "location": {
            "city": "Uttaradit",
            "country": "Thailand",
            "latitude": 17.6311,
            "longitude": 100.101,
            "street": "45/2",
            "zip": "45120"
        },
        "name": "ช่างกุญแจจังหวัดอุตรดิตถ์ 0810466651",
        "phone": "0623521171"
    },
    {
        "id": "352858688151571",
        "location": {
            "city": "Samut Prakan",
            "country": "Thailand",
            "latitude": 13.59946,
            "longitude": 100.59695,
            "street": "ช่างกุญแจสมุทรปราการ กรุงเทพมหานคร",
            "zip": "10000"
        },
        "name": "ช่างกุญแจสมุทรปราการ 082 473 1555",
        "phone": "0824731555"
    },
    {
        "id": "438155349624273",
        "location": {
            "city": "Bangkok",
            "country": "Thailand",
            "latitude": 13.7766399,
            "longitude": 100.7386322,
            "street": "ประเวศ พัฒนาการ ลาดกระบัง บางนา ศรีนครินทร์ สวนหลวง ร่มเกล้า",
            "zip": "10250"
        },
        "name": "ช่างกุญแจประเวศ 082 473 1555",
        "phone": "0824731555"
    },
    {
        "about": "082-0707950 ช่างกุญแจ24ช.ม ",
        "description": "T.082-0707950 ช่างกุญแจอยุธยา ลพบุรี สระบุรี อ่างทอง สิงห์บุรี ชัยนาท สุพรรณบุรี ปลดล็อคกุญแจ ลืมกุญแจ กุญแจหายโทร",
        "emails": [
            "art_ming@hotmail.com"
        ],
        "id": "367537676664504",
        "location": {
            "city": "Ayuthaya",
            "country": "Thailand",
            "zip": "13000"
        },
        "name": "ช่างกุญแจอยุธยา ลพบุรี สระบุรี อ่างทอง สิงห์บุรี ชัยนาท สุพรรณบุรี",
        "phone": "082-0707950"
    },
    {
        "id": "820865544594269",
        "location": {
            "city": "Hat Yai",
            "country": "Thailand",
            "latitude": 6.9738881313307,
            "longitude": 100.44681577952
        },
        "name": "ช่างเปิดกุญแจตู้เซพหาดใหญ่ 0841276253",
        "phone": "0841276253"
    },
    {
        "id": "673290726137047",
        "location": {
            "city": "Amphoe Muang Chumphon",
            "country": "Thailand",
            "latitude": 10.505264282227,
            "longitude": 99.138107299805,
            "street": "สี่แยกปฐมพร ต.วังไผ่ อ.เมือง"
        },
        "name": "ช่างกุญแจชุมพร กุญแจรีโมท\u0026ฝังชิพ กุญแจหายรถล๊อค 082-246-2518ช่างโอม",
        "phone": "0842462518"
    },
    {
        "about": "บริการรับทำกุญแจรีโมทฝังชิบกุญแจระบบIMMOBILIZERทุกรุ่นบริการถึงที่0923451148",
        "description": "ช่างกุญแจชัยนาทบริการฉุกเฉิน24ชั่วโมง0923451148",
        "id": "608604759192400",
        "location": {
            "city": "Muang Chainat",
            "country": "Thailand",
            "latitude": 15.187711,
            "located_in": "143445352404806",
            "longitude": 100.12525,
            "zip": "17000"
        },
        "name": "ช่างกุญแจชัยนาท24ช.ม0923451148",
        "phone": "0923451148"
    },
    {
        "about": "ให้บริการด้วยใจครับ",
        "id": "212484752149518",
        "location": {
            "street": "202 ลาดพร้าวซอย62 วังทองหลาง กทม",
            "zip": "10310"
        },
        "name": "ช่างกุญแจลาดพร้าว 0809015154",
        "phone": "0809015154"
    },
    {
        "id": "416686631755009",
        "location": {
            "city": "Bangkok",
            "country": "Thailand",
            "latitude": 13.7988796,
            "longitude": 100.5860901,
            "street": "ถนนลาดพร้าว",
            "zip": "10000"
        },
        "name": "ช่างกุญแจ ลาดพร้าว 0874884333",
        "phone": "0874884333"
    },
    {
        "id": "260491604086428",
        "location": {
            "city": "Bangkok",
            "country": "Thailand",
            "latitude": 13.8150806,
            "longitude": 100.7084808,
            "street": "รามอินทรา กรุงเทพ",
            "zip": "10200"
        },
        "name": "ช่างกุญแจรามอินทรา 0824731555",
        "phone": "0824731555"
    },
    {
        "id": "371654802946332",
        "location": {
            "city": "Chacherngsao",
            "country": "Thailand",
            "latitude": 13.68755,
            "longitude": 101.07056,
            "street": "ฉะเชิงเทรา นครนายก นครราชสีมา ขอนแก่น อุดรธานี โคราช",
            "zip": "10000"
        },
        "name": "ช่างกุญแจฉะเชิงเทรา 087 488 4333",
        "phone": "0874884333"
    },
    {
        "id": "506326476092257",
        "location": {
            "city": "Nonthaburi",
            "country": "Thailand",
            "latitude": 13.77654,
            "longitude": 100.51799,
            "street": "เมืองนนทบุรี นนทบุรี งามวงศ์วาน บางบัวทอง บานเขน หลักสี่ ดอนเมือง เกษตร นวมินทร์",
            "zip": "10300"
        },
        "name": "ช่างกุญแจ นนทบุรี 0874884333",
        "phone": "0874884333"
    },
    {
        "about": "ช่างกุญแจ อุดรธานี ลืมกุญแจ เปิดรถ เปิดบ้าน\nโทร 086-8593054/084-4056566",
        "description": "ช่างกุญแจ อุดรธานี ลืมกุญแจ เปิดรถ เปิดบ้าน \nโทร 086-8593054/084-4056566",
        "id": "509900052392611",
        "name": "ช่างกุญแจ อุดรธานี 086 8593054,084 4056566"
    },
    {
        "id": "572435569474077",
        "location": {
            "city": "Chonburi",
            "country": "Thailand",
            "latitude": 13.36211,
            "longitude": 100.98371,
            "street": "บางแสน พัทยา ชลบุรี นาเกลือ บางละมุง จอมเทียน",
            "zip": "20300"
        },
        "name": "ช่างกุญแจบางแสน 082 473 1555",
        "phone": "0824731555"
    },
    {
        "id": "217604015078213",
        "location": {
            "city": "Bangkok",
            "country": "Thailand",
            "latitude": 13.75395,
            "longitude": 100.50224,
            "street": "วงเวียนใหญ่ ปิ่นเกล้า ท่าพระ บางแค จรัญ เพชรเกษม บางพลัด สนามหลวง",
            "zip": "10000"
        },
        "name": "ช่างกุญแจวงเวียนใหญ่ 087 488 4333",
        "phone": "0824731555"
    },
    {
        "about": "ช่างกุญแจ 24 ชั่วโมง โทร: 085-514-6169 / 084-978569",
        "id": "536024989779769",
        "location": {
            "city": "Bangkok",
            "country": "Thailand",
            "latitude": 13.81913,
            "longitude": 100.67546,
            "street": "เสนานิคม1",
            "zip": "10230"
        },
        "name": "ช่างกุญแจ 24 ช.ม.โทร: 0855146169",
        "phone": "0855146169"
    }
]