[
    {
        "about": "สาขา1 ช้างเอราวัณ สมุทรปราการ\nสาขา2 โรบินสัน สมุทรปราการ",
        "id": "366684990164275",
        "location": {
            "city": "Changwat Samut Prakan",
            "country": "Thailand",
            "latitude": 13.6183,
            "longitude": 100.61105,
            "street": "ช้างเอราวัณ สมุทรปราการ",
            "zip": "10270"
        },
        "name": "ช่างกุญแจโรบินสันสมุทรปราการ",
        "phone": "089-992-1283"
    },
    {
        "about": "เปิดบ้าน เปิดรถ เปิดเซฟ ซ่อมสวิทกุญแจรถยนต์ทุกชนิด ลืมกุญแจ กุญแจฝังซิฟ กุญแจอิมโม",
        "id": "841969585841064",
        "location": {
            "city": "Ban Non Than",
            "country": "Thailand",
            "latitude": 16.41358006031,
            "longitude": 102.85772531974,
            "street": "2579",
            "zip": "40000"
        },
        "name": "ช่างกุญแจขอนแก่น โทร.0933858031",
        "phone": "0933858031"
    },
    {
        "about": "บริการทำดอกกุญแจใหม่-ซ่อม-เปิด-รถ-บ้าน-ตู้เซฟ",
        "id": "469655846467454",
        "name": "หมู ช่างกุญแจธรรมดา"
    },
    {
        "about": "ทำกุญแจ",
        "id": "207002112757343",
        "name": "ช่างกุญแจ พระพุทธบาท 081-3646082",
        "phone": "081 - 3646082 : 083 - 7013133"
    },
    {
        "id": "1054618294566278",
        "location": {
            "city": "Suphan Buri",
            "country": "Thailand",
            "latitude": 14.4667,
            "longitude": 100.117,
            "street": "Angthong",
            "zip": "14000"
        },
        "name": "ช่างกุญแจจังหวัดอ่างทอง0818525235",
        "phone": "0818525235"
    },
    {
        "id": "445915045502170",
        "location": {
            "city": "Changwat Prachuap Khiri Khan",
            "country": "Thailand",
            "latitude": 11.8033,
            "longitude": 99.70769,
            "street": "หัวหิน ชะอำ ประจวบคีรีขันธ์ เพชรบุรี ราชบุรี กาญจนบุรี",
            "zip": "77000"
        },
        "name": "ช่างกุญแจหัวหิน 087 488 4333",
        "phone": "0874884333"
    },
    {
        "id": "797409813631377",
        "name": "ช่างกุญแจ อากาศอำนวย 0982294855"
    },
    {
        "id": "835163189897552",
        "name": "ช่างกุญแจ พิษณุโลก 0813862889"
    },
    {
        "about": "ช่างกุญแจบุรีรัมย์ 24ช.ม062-4484891",
        "description": "ช่างกุญแจบุรีรัมย์ 24ช.ม062-4484891",
        "id": "474192966095487",
        "name": "ช่างกุญแจบุรีรัมย์ 24ช.ม062-4484891",
        "phone": "0624484891"
    },
    {
        "id": "696625520361170",
        "location": {
            "city": "Changwat Trat",
            "country": "Thailand",
            "latitude": 12.21858,
            "longitude": 102.59519,
            "street": "ตราด จันทบุรี ขลุง ระยอง ชลบุรี ฉะเชิงเทรา พัทยา บางแสน",
            "zip": "23000"
        },
        "name": "ช่างกุญแจตราด 082 473 1555",
        "phone": "082 473 1555"
    },
    {
        "id": "1710248455868075",
        "location": {
            "city": "Ang Thong",
            "country": "Thailand",
            "latitude": 16.385145,
            "longitude": 99.52,
            "street": "แสวงหา",
            "zip": "14000"
        },
        "name": "ช่างกุญแจแสวงหา0818525235 -กุญแจระบบImmobilizer Push Start Smart Key",
        "phone": "0818525235"
    },
    {
        "id": "269177116595526",
        "location": {
            "city": "Hat Yai",
            "country": "Thailand",
            "latitude": 7.0152,
            "longitude": 100.39974,
            "street": "สาขา 1 ใต้สะพานลอยหาดใหญ่ สาขา 2 หน้ามิสเตอร์เคมินิมาร์ทเขต8",
            "zip": "90110"
        },
        "name": "ช่างกุญแจหาดใหญ่ 24ชม. 084-1276253",
        "phone": "084-1276253"
    },
    {
        "id": "294240864072918",
        "location": {
            "city": "Changwat Prachin Buri",
            "country": "Thailand",
            "latitude": 14.0688,
            "longitude": 101.38777,
            "street": "อำเมืองปราจีนบุรี  ปราจีนบุรี",
            "zip": "25000"
        },
        "name": "ช่างกุญแจปราจีนบุรี 087 488 4333",
        "phone": "087 488 4333"
    },
    {
        "id": "721968044520532",
        "location": {
            "city": "Saraburi",
            "country": "Thailand",
            "latitude": 14.53236,
            "longitude": 100.92238,
            "street": "สระบุรี",
            "zip": "18000"
        },
        "name": "ช่างกุญแจสระบุรี 087 488 4333",
        "phone": "087 488 4333"
    },
    {
        "about": "ช่างกุญแจบ้านโป่ง บริการปลดล็อครถ-บ้าน-ตู้เซฟ ปลดล็อคกุญแจทุกระบบ",
        "description": "บริการซ่อมกุญแจหัก กุญแจเสีย กุญแจรีโมทกดไม่ติด ลืมกุญแจไว้ในรถรถ กุญแจบ้าน กุญแจเซฟ กุญแจหาย ก๊อปปี๊รีโมทเพิ่ม กุญแจฝังชิพ ปลดล็อคกุญแจรถ  ปลดล็อคกุญแจเซฟ ทำกุญแจใหม่ ทำกุญแจเพิ่ม ช่างกุญแจฉุกเฉิน กุญแจรีโมทเสีย ก๊อปปี๊กุญแจรีโมทเสีย ",
        "emails": [
            "jojotuk2499@hotmail.com"
        ],
        "id": "445527888958785",
        "location": {
            "city": "Amphoe Ban Pong",
            "country": "Thailand",
            "latitude": 13.8167,
            "longitude": 99.8833,
            "street": "13/18",
            "zip": "70110"
        },
        "name": "ช่างกุญแจบ้านโป่ง080-8507334 บางแพ โพธาราม",
        "phone": "0808507334"
    },
    {
        "id": "918388971536040",
        "location": {
            "city": "Nakhon Ratchasima",
            "country": "Thailand",
            "latitude": 14.9596004,
            "longitude": 102.0606308,
            "street": "66/2มิตรภาพ15",
            "zip": "30000"
        },
        "name": "ช่างอั๋นกุญแจ..091-0202618",
        "phone": "0910202618"
    },
    {
        "about": "ช่างกุญแจอ่างทอง สามโก้ โทร092-8721178",
        "id": "550547725023128",
        "location": {
            "city": "Muang Ang Thong",
            "country": "Thailand",
            "latitude": 14.59522,
            "longitude": 100.25314,
            "street": "167",
            "zip": "14160"
        },
        "name": "ช่างกุญแจอ่างทอง สามโก้ โทร092-8721178",
        "phone": "0928721178"
    },
    {
        "id": "1481044532110150",
        "location": {
            "city": "Samut Songkhram",
            "country": "Thailand",
            "latitude": 13.39413,
            "longitude": 99.99346,
            "street": "สมุทรสงคราม",
            "zip": "75000"
        },
        "name": "ช่างกุญแจสมุทรสงคราม 087 488 4333",
        "phone": "087 488 4333"
    },
    {
        "id": "314011298729227",
        "location": {
            "city": "Bangkok",
            "country": "Thailand",
            "latitude": 13.75395,
            "longitude": 100.50224,
            "street": "บางกะปิ ลาดพร้าว รามอินทรา รามคำแพง คลองตัน",
            "zip": "10000"
        },
        "name": "ช่างกุญแจบางกะปิ 082 473 1555",
        "phone": "0824731555"
    },
    {
        "description": "รับทำกุญแจฝังชิพ ทุกชนิด\nทำดอกชิพเพิ่ม\nทำดอกกุญแจรีโมท\nดอกหายหมด ก็สามารถทำได้",
        "emails": [
            "keng_cb350@hotmail.co.th"
        ],
        "id": "1538397639767918",
        "location": {
            "city": "Chiang Mai",
            "country": "Thailand",
            "latitude": 18.68886,
            "longitude": 99.01732,
            "street": "222.7 ม.4 ต.หนองผึ้ง อ.สารภี",
            "zip": "50140"
        },
        "name": "ช่างกุญแจเชียงใหม่ 24ชม  086-2055040",
        "phone": "086-2055040 , 095-4487520"
    },
    {
        "id": "1412482642354636",
        "location": {
            "city": "Changwat Tak",
            "country": "Thailand",
            "latitude": 17.15946,
            "longitude": 99.15262,
            "street": "อำเมือง ตาก",
            "zip": "63120"
        },
        "name": "ช่างกุญแจตาก 087 488 4333",
        "phone": "087 488 4333"
    },
    {
        "about": "บริการแบบมืออาชีพ ราคาเป็นกันเอง",
        "id": "126138207575129",
        "location": {
            "city": "Si Racha",
            "country": "Thailand",
            "latitude": 13.101208164627,
            "longitude": 100.96236214209,
            "street": "หน้าเครือสหพัฒน์",
            "zip": "20230"
        },
        "name": "ช่างกุญแจอ๊อดเจี๊ยบชลบุรี เครือสหพัฒน์ ศรีราชา 081-7701339",
        "phone": "0817701339"
    },
    {
        "about": "รับทำกุญแจครบวงจร..รับทำรีโมทเพิ่มเติม..ซ่อมนาฬิกา,เปลี่ยนถ่านนาฬิกา,ถ่านรีโมท",
        "description": "บริการงานกุญแจ เปิดรถ เปิดบ้าน กัดดอก ทำเพิ่ม รับทำกุญแจกรณีดอกหายอาทิ กุญแจรถยนต์ มอไซต์ รถเครื่อง รถเกี่ยว รถไถ รถไฟฟ้า สกูตเตอร์ แม็คโคร คูโบต้า ซาเล้ง รถถีบ สิบล้อ สามล้อ ตุ้กตุ้ก รถบรรทุก รถเมล์ ลูกบิด ประตูเลื่อน บานสวิง สี่แฉก ตู้เซฟ โต๊ะทำงาน ตู้เอกสาร ตู้จดหมาย โซเล็กซ์ โซโล.\nรับทำกุญแจรถยนต์อิมโมบิไลเซอรฝังชิพ\nรบก็อปปี้รีโมทเพิ่มและเปลี่ยนถ่านรีโมทคุณภาพมราตราฐานศูนย์  \nบริการงานซ่อมนาฬิกา เช็คเครื่อง ล้างเครื่อง เปลี่ยนถ่าน เปลี่ยนสาย เปลี่ยนกระจก ถ่านรีโมทรถ เครื่องชั่งน้ำหนัก เครื่องคิดเลข เกมกด ทามาก็อต เพจเจอร์ เฟอร์บี้ เวอร์เนียว รับทำแก้ไขนาฬิกาแขวนผนัง",
        "emails": [
            "patiroop03@gmail.com"
        ],
        "id": "608918295862950",
        "location": {
            "city": "Bangkok",
            "country": "Thailand",
            "latitude": 13.99219,
            "longitude": 100.78867,
            "street": "Lam Luk Ka Patumtani Thailand",
            "zip": "12150"
        },
        "name": "ช่างกุญแจตลาดเอซี ลำลูกกา คลองสี่ สายไหม 085-1717852 รับเปิดกุญแจทุกชนิด",
        "phone": "085-1717-852"
    },
    {
        "id": "539924126055847",
        "location": {
            "city": "Chonburi",
            "country": "Thailand",
            "latitude": 13.36211,
            "longitude": 100.98371,
            "street": "พัทยา ชลบุรี บางแสน จอมเทียน นาเกลือ บางละมุง สัตหีบ หนองมน บางพระ ระยอง",
            "zip": "20300"
        },
        "name": "ช่างกุญแจพัทยา  083 1111 938",
        "phone": "0831111938"
    },
    {
        "about": "ช่างกุญแจสิงห์บุรี24ชั่วโมง 082-0707950 ทุกเมื่อเรื่องกุญแจ",
        "description": "ช่างกุญแจสิงห์บุรี24ชั่วโมง รับทำกุญแจครบวงจร ปลดล็อค ซ่อมแก้ไขทุกกรณี\nรับทำกุญแจimmobilizerทุกยี่ห้อ 082-0707950",
        "emails": [
            "speedmitsu_4@hotmail.com"
        ],
        "id": "179929435520023",
        "location": {
            "city": "Sing",
            "country": "Thailand",
            "zip": "16000"
        },
        "name": "ช่างกุญแจสิงห์บุรี24ช.ม.082-0707950",
        "phone": "0820707950"
    }
]