[
    {
        "id": "423452814418632",
        "location": {
            "city": "Bangkok",
            "country": "Thailand",
            "latitude": 13.75395,
            "longitude": 100.50224,
            "street": "เกษตร นวมินทร์ ลาดพร้าว บางเขน ดอนเมือง รามอินทรา",
            "zip": "10000"
        },
        "name": "ช่างกุญแจเกษตร นวมินทร์ 082 473 1555",
        "phone": "0824731555"
    },
    {
        "about": "ช่างกุญแจอ่างทอง ป่าโมก โทร092-8721178 ",
        "id": "337915463014986",
        "location": {
            "city": "Pa Mok",
            "country": "Thailand",
            "latitude": 14.494949830617,
            "located_in": "131304476932156",
            "longitude": 100.4463712011,
            "zip": "14130"
        },
        "name": "ช่างกุญแจอ่างทอง ป่าโมก โทร092-8721178",
        "phone": "0928721178"
    },
    {
        "about": "รับทำกุญแจอิมโมบิไลเซอร์และกุญแจฝังชิพ",
        "id": "288975464591067",
        "location": {
            "city": "Saraburi",
            "country": "Thailand",
            "latitude": 14.57628,
            "longitude": 100.99528,
            "street": "69",
            "zip": "18110"
        },
        "name": "ช่างกุญแจมวกเหล็กสระบุรี24ชม089-9953363",
        "phone": "0899953363"
    },
    {
        "description": "ช่างเปิดกุญแจรถยนต์สงขลา, ช่างทำกุญแจฝังชิพสงขลา, ช่างเปิดกุญแจตู้เซพสงขลา, ลืมกุญแจ, กุญแจหายโทร.084-1276253 ช่างกุญแจสงขลา",
        "id": "648375421895718",
        "location": {
            "city": "Songkhla",
            "country": "Thailand",
            "latitude": 7.05226125,
            "longitude": 100.50593535,
            "street": "สงขลา",
            "zip": "90110"
        },
        "name": "ช่างกุญแจสงขลา 084-1276253",
        "phone": "084-1276253"
    },
    {
        "id": "258693724271477",
        "location": {
            "city": "Bangkok",
            "country": "Thailand",
            "latitude": 13.75395,
            "longitude": 100.50224,
            "street": "ปิ่นเกล้า ท่าพระ บางแค เพชรเกษม ดาวคะนอง ตากสิน",
            "zip": "10000"
        },
        "name": "ช่างกุญแจปิ่นเกล้า 082 473 1555",
        "phone": "0824731555"
    },
    {
        "about": "บริการเปิดรถ24ชั่วโมงและทำกุญแจอิมโมบิไลเซอร์",
        "id": "746674555353140",
        "location": {
            "city": "Prachin Buri",
            "country": "Thailand",
            "latitude": 14.5881,
            "longitude": 101.003,
            "zip": "18000"
        },
        "name": "ช่างกุญแจสระบุรีนครนายกปราจีนบุรี089-9953363",
        "phone": "0899953363"
    },
    {
        "id": "252784358249533",
        "location": {
            "city": "Chonburi",
            "country": "Thailand",
            "latitude": 13.36899,
            "longitude": 100.9957,
            "street": "บางแสน",
            "zip": "20000"
        },
        "name": "ช่างกุญแจบางแสน.0813531301 เปิดรถ ห้อง เซพ ทำกุญแจฝังชิพ ก็อปปี้รีโมท",
        "phone": "0813531301"
    },
    {
        "id": "308778795921462",
        "location": {
            "city": "Bangkok",
            "country": "Thailand",
            "latitude": 13.646421102703,
            "longitude": 100.48108248138,
            "street": "นครปฐม กาญจนบุรี ราชบุรี บ้านโป่ง อ้อมน้อย  อ้อมใหญ่ สมุทรสงคราม สมุทรสาคร ชะอำ หิวหิน",
            "zip": "73000"
        },
        "name": "ช่างกุญแจ และตู้เซฟ นครปฐม  โทร0895024977 ถาม bug 1113  สวนผึ้ง สมุทรสาคร",
        "phone": "0895024977"
    },
    {
        "about": "บริการ รับทำกุญแจ ชิฟ รีโมท อิมโมบิไลเซอร์ สายด่วน 24 ช.ม. ทั่วไทย 081 - 3646082",
        "id": "152429174955456",
        "name": "ช่างกุญแจUnlock Keyพระพุทธบาท สระบุรี",
        "phone": "083 - 7013133"
    },
    {
        "id": "163213560514264",
        "location": {
            "city": "Bangkok",
            "country": "Thailand",
            "latitude": 13.75395,
            "longitude": 100.50224,
            "street": "ชุมพร เพชรบุรี กาญจนบุรี ราชบุรี นครปฐม ระนอง หัวหิน ชะอำ",
            "zip": "10000"
        },
        "name": "ช่างกุญแจชุมพร 087 488 4333",
        "phone": "0874884333"
    },
    {
        "about": "ช่างกุญแจอุบลราชธานี ทำกุญแจอิมโมบิไลเซอร์ทุกรุ่น 092-8721178\n\n    \n",
        "id": "319640444901631",
        "name": "ช่างกุญแจอุบลราชธานี ทำกุญแจอิมโมบิไลเซอร์ทุกรุ่น 092-8721178"
    },
    {
        "id": "568635346489881",
        "location": {
            "city": "Bangkok",
            "country": "Thailand",
            "latitude": 14.93783,
            "longitude": 102.10076,
            "street": "อุดรธานี ขอนแก่น หนองคาย ร้อยเอ็ด อุบล สุรินทร์ โคราช",
            "zip": "30000"
        },
        "name": "ช่างกุญแจอุดรธานี 082 473 1555",
        "phone": "0824731555"
    },
    {
        "id": "596820657004420",
        "location": {
            "city": "Bangkok",
            "country": "Thailand",
            "latitude": 13.75395,
            "longitude": 100.50224,
            "street": "ปทุมธานี รังสิต ดอนเมือง บางเขน หลักสี่ ลำลูกกา วังน้อย",
            "zip": "10000"
        },
        "name": "ช่างกุญแจปทุมธานี 082 473 1555",
        "phone": "0824731555"
    },
    {
        "id": "394534690698002",
        "location": {
            "city": "Changwat Rayong",
            "country": "Thailand",
            "latitude": 12.68957,
            "longitude": 101.29684,
            "street": "บ้านค่าย จังหวัดระยอง",
            "zip": "21000"
        },
        "name": "ช่างกุญแจบ้านค่าย ระยอง โทร. 082-473-1555",
        "phone": "0874884333"
    },
    {
        "id": "499351516786747",
        "location": {
            "city": "Bangkok",
            "country": "Thailand",
            "latitude": 13.75395,
            "longitude": 100.50224,
            "street": "ลำพูน ลำปาง เชียงใหม่ เชียงราย แพร่ น่าน",
            "zip": "10000"
        },
        "name": "ช่างกุญแจลำพูน 087 488 4333",
        "phone": "0874884333"
    },
    {
        "id": "498821653507632",
        "location": {
            "city": "Bangkok",
            "country": "Thailand",
            "latitude": 13.6924725,
            "longitude": 100.48349,
            "street": "ท่าพระ บางแค จรัญ สุขสวัสดิ์ ดาวตะนอง ตลิ่งชัน ราษฎร์บูรณะ กรุงเทพ",
            "zip": "10600"
        },
        "name": "ช่างกุญแจท่าพระ 087 488 4333",
        "phone": "0874884333"
    },
    {
        "id": "365151500255607",
        "location": {
            "city": "Rat Buri",
            "country": "Thailand",
            "latitude": 13.54313,
            "longitude": 99.75721,
            "street": "ราชบุรี เพชรบุรี ประจวบ หัวหิน ชะอำ กาญจนบุรี ชุมพร นครปฐม",
            "zip": "70000"
        },
        "name": "ช่างกุญแจราชบุรี 087 488 4333",
        "phone": "0874884333"
    },
    {
        "id": "479581282091591",
        "location": {
            "city": "Bangkok",
            "country": "Thailand",
            "latitude": 13.7642403,
            "longitude": 100.6944504,
            "street": "สวนหลวง ศรีนครินทร์ บางนา เทพารักษ์ ประเวศ รามคำแหง พระราม 9 กรุงเทพ",
            "zip": "10240"
        },
        "name": "ช่างกุญแจสวนหลวง 087 488 4333",
        "phone": "0874884333"
    },
    {
        "id": "307800699350482",
        "location": {
            "city": "Bangkok",
            "country": "Thailand",
            "latitude": 13.75395,
            "longitude": 100.50224,
            "street": "จรัญสนิทวงศ์ เพชรเกษม พุทธมณฑล ท่าพระ บางแค บางบอน",
            "zip": "10000"
        },
        "name": "ช่างกุญแจจรัญสนิทวงศ์ 087 488 4333",
        "phone": "0874884333"
    },
    {
        "id": "210722169101147",
        "location": {
            "city": "Bangkok",
            "country": "Thailand",
            "latitude": 13.75395,
            "longitude": 100.50224,
            "street": "นวนคร รังสิต ดอนเมือง หลักสี่ ลำลูกกา สายไหม บางเขน",
            "zip": "10000"
        },
        "name": "ช่างกุญแจนวนคร รังสิต 082 473 1555",
        "phone": "0824731555"
    },
    {
        "about": "ช่างกุญแจ ",
        "emails": [
            "olekey1@gmail.com"
        ],
        "id": "157145907825560",
        "location": {
            "city": "Bangkok",
            "country": "Thailand",
            "latitude": 13.677432275375,
            "longitude": 100.63858521617,
            "zip": "10260"
        },
        "name": "ช่างกุญแจ สุขุมวิท ศรีนครินทร์ 084 356 8948",
        "phone": "084-356-8948"
    },
    {
        "id": "867185656640347",
        "location": {
            "city": "Bangkok",
            "country": "Thailand",
            "latitude": 13.75395,
            "longitude": 100.50224,
            "street": "ลาดปลาเค้า",
            "zip": "10000"
        },
        "name": "ช่างกุญแจลาดปลาเค้า 087 488 4333",
        "phone": "087 488 4333"
    },
    {
        "id": "606991369342150",
        "location": {
            "city": "Bangkok",
            "country": "Thailand",
            "latitude": 13.75395,
            "longitude": 100.50224,
            "street": "กรุงเทพ ลาดพร้าว ดินแดง บางนา รังสิต นนบุรี ปทุมธานี ทั่วประเทศ"
        },
        "name": "ช่างกุญแจรีโมทฝังชิพ 087 488 4333",
        "phone": "0874884333"
    },
    {
        "id": "1459355470966696",
        "location": {
            "city": "Bangkok",
            "country": "Thailand",
            "latitude": 13.8460903,
            "longitude": 100.541069,
            "street": "พงษ์เพชร",
            "zip": "10000"
        },
        "name": "ช่างกุญแจพงษ์เพชร 087 488 4333",
        "phone": "087 488 4333"
    },
    {
        "id": "260103520808898",
        "location": {
            "city": "Bangkok",
            "country": "Thailand",
            "latitude": 13.75395,
            "longitude": 100.50224,
            "street": "อโศก สุขุมวิท อ่อนนุช อุดมสุข เพลินจิต พร้อมพงษ์ ชิดลม",
            "zip": "10000"
        },
        "name": "ช่างกุญแจอโศก 082 473 1555",
        "phone": "0824731555"
    }
]