[
    {
        "id": "663064067048973",
        "location": {
            "city": "Bangkok",
            "country": "Thailand",
            "latitude": 13.8348598,
            "longitude": 100.5381012,
            "street": "ประชาชื่น พงษ์เพชร งามวงศ์วาน เกษตร บางเขน หลักสี่ นนทบุรี",
            "zip": "10800"
        },
        "name": "ช่างกุญแจประชาชื่น 082 473 1555",
        "phone": "0824731555"
    },
    {
        "about": "ช่างกุญแจจังหวัดปราจีนบุรี โทร092-3451148",
        "description": "ช่างกุญแจจังหวัดปราจีนบุรี โทร092-3451148",
        "id": "657190510968923",
        "location": {
            "city": "Prachin",
            "country": "Thailand",
            "latitude": 14.0688,
            "longitude": 101.38777,
            "street": "899/44",
            "zip": "25000"
        },
        "name": "ช่างกุญแจจังหวัดปราจีนบุรี092-3451148",
        "phone": "0923451148"
    },
    {
        "about": "รับเปิดและรับทำกุญแจทุกชนิดนอกสถานที่ เช่น รถยนต์ รถจัการยานยนต์ ลูกบิดระตู แม่กุญแจ ฯลฯ",
        "id": "230978073737352",
        "location": {
            "city": "Bangkok",
            "country": "Thailand",
            "latitude": 13.774,
            "longitude": 100.65728,
            "street": "ย่านถนนรามคำแหง",
            "zip": "10240"
        },
        "name": "ช่างกุญแจ",
        "phone": "086-532-1487"
    },
    {
        "general_info": "จำหน่ายแม่กุญแจและลูกกุญแจทุกชนิด\nรับติดตั้งกุญแจรถยนต์กันขโมยทุกชนิด\nเปิดรถยนต์ กุญแจบ้าน และกุญแจทุกชนิด",
        "id": "260577714103870",
        "location": {
            "city": "Sakol",
            "country": "Thailand",
            "latitude": 17.15008,
            "longitude": 104.13757,
            "street": "685/1 ถ.ยุววัฒนา อ.เมือง จ.สกลนคร",
            "zip": "47000"
        },
        "name": "ช่างกุญแจ สกลนคร",
        "phone": "081-3694662"
    },
    {
        "about": "ช่างกุญแจ อ่างทอง24ช.ม082-0707950 0923451148 ",
        "description": "ช่างกุญแจอ่างทอง24ชั่วโมง 09-23451148",
        "id": "1388067294757738",
        "location": {
            "city": "Muang Ang Thong",
            "country": "Thailand",
            "zip": "14000"
        },
        "name": "ช่างกุญแจอ่างทอง24ช.ม09-23451148",
        "phone": "0923451148"
    },
    {
        "about": "ช่างกุญแจลพบุรี24ชั่วโมง 082-0707950 ",
        "description": "ช่างกุญแจจังหวัดลพบุรี 082-0707950 บริการ24ชั่วโมงครบวงจรเรื่องกุญแจทุกชนิด",
        "emails": [
            "speedmitsu_1@hotmail.com"
        ],
        "id": "407399449378127",
        "location": {
            "city": "Muang Lopburi",
            "country": "Thailand",
            "zip": "15000"
        },
        "name": "ช่างกุญแจลพบุรี24ช.ม082-0707950",
        "phone": "0820707950"
    },
    {
        "about": "รับทำ กุญแจรถยนต์ , ฝั่งชิป immobilizer , ก๊อปปี้รีโมทรถยนต์-บ้าน , กุญแจสำนักงาน-บ้าน",
        "id": "637689533013353",
        "location": {
            "city": "Bangkok",
            "country": "Thailand",
            "latitude": 13.7106543,
            "longitude": 100.6330338,
            "street": "1852 อ่อนนุช ใกล้ซอย 54",
            "zip": "10250"
        },
        "name": "ช่างใหญ่ กุญแจ",
        "phone": "081-726-5729"
    },
    {
        "id": "282159088587376",
        "location": {
            "city": "Bangkok",
            "country": "Thailand",
            "latitude": 13.75395,
            "longitude": 100.50224,
            "street": "สาทร สีลม สุขุมวิท ราชเทวี สนามหลวง สยาม",
            "zip": "10000"
        },
        "name": "ช่างกุญแจสาทร 082 473 1555",
        "phone": "0824731555"
    },
    {
        "id": "367760146663543",
        "location": {
            "city": "Chang Rai",
            "country": "Thailand",
            "street": "เชียงราย เชียงใหม่ พิษณุโลก ลำพูน ลำปาง น่าน แพร่ เลย",
            "zip": "60000"
        },
        "name": "ช่างกุญแจเชียงราย 087 488 4333",
        "phone": "0874884333"
    },
    {
        "about": "บริการทำกุญแจทุกประเภท โทร 086-960-5969",
        "description": "บริการทำกุญแจทุกประเภท\nกุญแจบ้าน กุญแจรถ ตู้เซฟ ฯลฯ\nบริการทั้งในและนอกสถานที่\n\nปรึกษาปัญหาและสอบถามค่าบริการ โทร 086-960-5969",
        "id": "140361342796246",
        "location": {
            "city": "Amphoe Hat Yai",
            "country": "Thailand",
            "latitude": 9.1220812,
            "longitude": 99.3267498,
            "zip": "90110"
        },
        "name": "ช่างกุญแจ เซ็นทรัลเฟสติวัล หาดใหญ่",
        "phone": "0869605969"
    },
    {
        "about": "ซ้อมกุญแจทุกชนิด ฝังชิพ หักหาย เซฟ เรื่องกุญแจทุกระบบ สร้อยเลส ตลับพระ ปลีกส่ง",
        "id": "1062135377149359",
        "location": {
            "city": "Sa Kaeo",
            "country": "Thailand",
            "latitude": 13.8167,
            "longitude": 102.067,
            "street": "ตำบลวัฒนานคร อำเภอวัฒนานคร",
            "zip": "27160"
        },
        "name": "ช่างกุญแจ - jomkeeman",
        "phone": "0928807256"
    },
    {
        "id": "231939806963370",
        "location": {
            "city": "Bangkok",
            "country": "Thailand",
            "latitude": 13.75395,
            "longitude": 100.50224,
            "street": "ดุสิต สามเสน เกียกกาย ประชาชื่น เตาปูน จตุจักร เสาวรีย์",
            "zip": "10000"
        },
        "name": "ช่างกุญแจดุสิต สามเสน 083 1111 938",
        "phone": "0831111938"
    },
    {
        "about": "we are a locksmith",
        "id": "383287651872369",
        "location": {
            "city": "Bangkok",
            "country": "Thailand",
            "latitude": 13.7522,
            "longitude": 100.494,
            "street": "Thonburi",
            "zip": "10600"
        },
        "name": "ช่างกุญแจ",
        "phone": "0818185357"
    },
    {
        "emails": [
            "thaikeyworld@hotmail.com"
        ],
        "id": "527294860634542",
        "name": "ช่างกุญแจสงขลา T.0839955585 Key World กุญแจฝังชิพ ช่างเปิดตู้เซฟ",
        "phone": "0839955585"
    },
    {
        "about": "ช่างกุญแจ24ชั่วโมง082-0707950",
        "description": "ช่างกุญแจ24ชั่วโมง082-0707950",
        "id": "184441745070826",
        "location": {
            "city": "Ayuthaya",
            "country": "Thailand",
            "zip": "13000"
        },
        "name": "ช่างกุญแจอยุธยา วังน้อย โรจนะ บางปะอิน 082-0707950",
        "phone": "0820707950"
    },
    {
        "about": "ช่างกุญแจนครราชสีมา ปากช่อง24ช.ม082-0707950 ",
        "description": "ช่างกุญแจนครราชสีมา ปากช่อง 24ช.ม082-0707950 ",
        "id": "575395005882880",
        "location": {
            "city": "Pak Chong",
            "country": "Thailand",
            "latitude": 14.707251875,
            "longitude": 101.41654125,
            "zip": "30130"
        },
        "name": "ช่างกุญแจนครราชสีมา ปากช่อง24ช.ม082-0707950",
        "phone": "0820707950"
    },
    {
        "id": "464283780313383",
        "location": {
            "city": "Muang Samut Sakhon",
            "country": "Thailand",
            "latitude": 13.54714,
            "longitude": 100.27434,
            "street": "สมุทรสาคร บางขุนเทียน บางบอน พระราม 2 ดาวคะนอง",
            "zip": "10000"
        },
        "name": "ช่างกุญแจสมุทรสาคร 087 488 4333",
        "phone": "0874884333"
    },
    {
        "about": "ทำกุญแจ ทุกชนิด ทั่วภาคใต้08-4422-4688 ช่างกุญแจ ช่างนนท์",
        "description": "เปิดรถ เปิดบ้าน เปิดเซฟ ทำรีโมท เปลี่ยนกรอบ เปลี่ยนถ่าน กุญแจ immobilizer",
        "id": "142254079254586",
        "name": "ช่างกุญแจนครศรีฯ 108  ช่างนนท์Modern-Key    เปิดทำกุญแจทุกชนิด 24 ชม."
    },
    {
        "id": "1665291463689415",
        "location": {
            "city": "Bangkok",
            "country": "Thailand",
            "latitude": 13.6290226,
            "longitude": 100.504631,
            "street": "524 ถนน.ประชาอุทิศ แขวง.ห้วยขวาง เขต.ห้วยขวาง",
            "zip": "10310"
        },
        "name": "ช่างโย กุญแจ",
        "phone": "0849077908"
    },
    {
        "id": "573665659319542",
        "location": {
            "city": "Pathum Thani",
            "country": "Thailand",
            "latitude": 13.965939300357,
            "longitude": 100.53564814431,
            "street": "เมืองปทุมธานี ปทุมธานี",
            "zip": "10400"
        },
        "name": "ช่างกุญแจ ปทุมธานี 0874884333",
        "phone": "0874884333"
    },
    {
        "about": "ช่างกุญแจนครสวรรค์ ทำกุญแจimmobilizer ทุกยี่ห้อ 09-23451148",
        "description": "ช่างกุญแจ ระบบฝังชิพ นครสวรรค์ โทร092-3451148",
        "id": "389731231129094",
        "location": {
            "city": "Nakhon Sawan",
            "country": "Thailand",
            "zip": "60000"
        },
        "name": "ช่างกุญแจนครสวรรค์ ทำกุญแจอิโม กุญแจรีโมท24ช.ม0923451148",
        "phone": "0820707950"
    },
    {
        "about": "รับสะเดาะกุญแจ รถ บ้าน ตู้เซฟ เปลี่ยนถ่านรีโมทรถยนต์ นาฬิกา กรอบรีโมทรถยนต์ ",
        "id": "183946401796833",
        "location": {
            "city": "Bangkok",
            "country": "Thailand",
            "latitude": 14.065171723158,
            "longitude": 100.61778662825,
            "street": "หน้าร้านห้างเพชรทองบางขันธ์ 91/14 หมู่ 8 ตำบลคลองหนึ่ง อำเภอคลองหลวง จังหวัดปทุมธานี",
            "zip": "12120"
        },
        "name": "ช่างกุญแจ/นาฬิกาบางขันธ์-ม.ธรรมศาสตร์ ศูนย์รังสิต,คลองหลวง โทร.0860003635",
        "phone": "0860003635"
    },
    {
        "about": "ช่างกุญแจลพบุรี ชัยบาดาล โทร082-0707950",
        "description": "ช่างกุญแจลพบุรี ชัยบาดาล โทร082-0707950",
        "id": "467203493389334",
        "location": {
            "city": "Chai Badan",
            "country": "Thailand",
            "latitude": 15.07025,
            "longitude": 101.16944,
            "street": "321",
            "zip": "15230"
        },
        "name": "ช่างกุญแจลพบุรี ชัยบาดาล โทร082-0707950",
        "phone": "0820707950"
    },
    {
        "id": "478750948865029",
        "location": {
            "city": "Ubon Ratchathani",
            "country": "Thailand",
            "latitude": 13.75395,
            "longitude": 100.50224,
            "street": "อุบลราชธานี อุดรธานี ขอนแก่น หนองคาย มหาสารคาม โคราช สุรินทร์ สระแก้ว",
            "zip": "34000"
        },
        "name": "ช่างกุญแจอุบลราชธานี 087 488 4333",
        "phone": "0874884333 "
    },
    {
        "about": "\"ช่างกุญแจภูเก็ต\", โทร.081 893 2578 รับเปิดรถและสะเดาะกุญแจ",
        "description": "ช่างกุญแจภูเก็ต โทร.0818932578 รับเปิดรถ สะเดาะกุญแจ รถ บ้าน\nุรับทำกุญแจและบริการ 24 ชม.\n\"ช่างกุญแจเปิดรถ\", ช่างกุญแจเปิดตู้เซฟ \n\"ช่างกุญแจ\", อำเภอกะทู้ ตำบลป่าตอง ตำบลกะทู้ ตำบลกมลา\n\"ช่างกุญแจ\",\u003c-- อำเภอถลาง ตำบลไม้ขาว ตำบลเทพกระษัตรี ตำบลป่าคลอก ตำบลสาคู\n\"ช่างกุญแจ\", วิลล่าดาวรุ่ง วัดเทพนิมิตร เมืองทอง อ่าวมะขาม บ้านบ่อแร่, ซอยตาเอียด,การไฟฟ้า, \n\"ช่างกญแจ\", เจ้าฟ้า สวนหลวง นาคา เซ็นทรัล โฮมเวิคดิ์ เขารัง, สามกอง, ตลาดท้ายรถ, \nช่างกุญแจ กวางตุ้ง ถนนศักดิเดช ถนนเจ้าฟ้า วิลล่า3 นาบอน บ้านป่าหล่าย\nช่างกุญแจ ห้าแยก ฉลอง ราไวย์ แหลมพรมเทพ ในหาน ไสยวน\n\"ช่างกุญแจกะตะ\", กะรน ป่าตอง กระหลิม กมมา\nช่างกุญแจ กะทู้ สนามก๊อป แยกเก้จโฮ แยกไทนาน แยกโลตัส สามกอง ศรีสุชาติ บายพาส เกาะแก้ว\nช่างกุญแจ โบ๊ทลากูน ท่าเรือ บางเทา บางโจ หม้านิก เชิงทะเล หาดสุรินทร์ ลากูน่า \nช่างกุญแจ ถนนเทพกษัตย์ตรี ราชภัฏ ซุปเปอร์ชีพ ควนดินแดง บ้านล๊อคการ์เด้น บ้านศรีสุชาติ บายพาส\nช่างกุญแจ แยกโตโยต้า เกาะแก้ว โบ๊ทลากูน อนุเสาวรีเท้ากระษัตย์ตรี ท่าเรือ ถลาง เชิงทะเล กมลา ภูเก็ตแฟนตาชี\nช่างกุญแจ สนามบิน ท่าฉัตรชัย โคกกลอยตำบล",
        "id": "357505140997179",
        "location": {
            "city": "Phuket",
            "country": "Thailand",
            "latitude": 7.8753099,
            "longitude": 98.3937988,
            "street": "เมืองภูเก็ต",
            "zip": "83000"
        },
        "name": "ช่างกุญแจภูเก็ต โทร.081-8932578 รับเปิดตู้เซฟ สะเดาะกุญแจรถ, บ้าน",
        "phone": "0818932578"
    }
]