[
    {
        "about": "ช่างกุญแจมวกเหล็ก สระบุรีโทร092-8721178",
        "description": "ช่างกุญแจมวกเหล็ก สระบุรี โทร092-8721178",
        "id": "438302619605348",
        "location": {
            "city": "Ban Muak Lek",
            "country": "Thailand",
            "latitude": 14.655430699804,
            "longitude": 101.19861052105,
            "zip": "18180"
        },
        "name": "ช่างกุญแจสระบุรี มวกเหล็ก โทร092-8721178 เปิดรถ บ้าน เซพ ทำกุญแจฝังชิพ",
        "phone": "0928721178"
    },
    {
        "id": "611602645573892",
        "location": {
            "city": "Rayong",
            "country": "Thailand",
            "latitude": 12.68957,
            "longitude": 101.29684,
            "street": "จันทบุรี แกลง ขลุง นายายอาม ท่าใหม่ มะขาม เขาสมิง แหลมสิงห์",
            "zip": "21000"
        },
        "name": "ช่างกุญแจในเมืองจันทบุรี 087 139 8088",
        "phone": "087 139 8088"
    },
    {
        "id": "507751412596171",
        "location": {
            "city": "Bangkok",
            "country": "Thailand",
            "latitude": 13.75395,
            "longitude": 100.50224,
            "street": "ร้อยเอ็ด อุดรธานี ขอนแก่น หนองคาย มหาสารคาม ชัยภูมิ โคราช สุรินทร์",
            "zip": "10000"
        },
        "name": "ช่างกุญแจร้อยเอ็ด 087 488 4333",
        "phone": "0874884333"
    },
    {
        "description": "รับซ่อมระบบล๊อคทุกชนิด\n\nเซ็นทรัลล๊อค\n\nมอเตอร์เสียแก้ไขดัดแปลง\n\nซ่อม/แก้ไข/เปลี่ยนชุดใหม่\n\nชำนาญเป็นพิเศษ ฟอร์ด ฮอนด้า อิซูซุ นิสสัน โตโยต้า ฯลฯ\n\n\n \n ลืมกุญแจตู้เซฟ - ลืมกุญแจตู้เซฟ ดอกกุญแจหาย - ลืมรหัสตู้เซฟ มีรหัสเปิดไม่ออก - ดอกกุญแจหักคา(รับเปิดตู้เซฟทั่วราชอณาจักรไทย) \n ลืมกุญแจบ้าน รับเปิดกุญแจบ้าน ทุกชนิด - ลืมกุญแจบ้านลูกบิด กุญแจคล้องสายยู - กุญแจฝังไม้ประตูกระจกประตูเหล็ก \n ลืมกุญแจรถ รับเปิดกุญแจรถยนต์ ทุกชนิด - กุญแจ รถยุโรป รถญี่ปุ่น ( ชำนาญพิเศษ กุญแจ BMW,BENZ ) \n \n Immobilizer Services Center รับทำกุญแจระบบ IMMOBILIZER TOYOTA Camry,Altis,Fortuner HONDA อื่นๆ  \n รับทำดอกกุญแจรถยนต์ทุกชนิด  - ดอกหัก หรือ ดัดแปลงแก้ไขระบบ - ฟันกุญแจ ที่สึก ซื่งเกิดจากการใช้งาน - กุญแจรถหายทำได้โดยไม่ต้องรื้อ หรืองัด เจาะใดๆทั้งสิ้น \n รับทำดอกกุญแจบ้านทุกชนิด  - ดอกหัก หรือ ดัดแปลงแก้ไขระบบ - ฟันกุญแจ ที่สึก ซื่งเกิดจากการใช้งาน \n รับผลิตดอกกุญแจ MAKE TO ORDER สั่งตามจำนวน ไม่ว่าจำนวนน้อยแค่ไหน \n จำหน่ายกุญแจกันขโมยสำหรับบ้านทุกชนิด - กุญแจระบบฝังประตูเสริมความปลอดภัย - กุญแจประตูไม้ ประตูเหล็ก ประตูกระจก - อุปกรณ์กันขโมย รถยนต์ มอเตอร์ไซด์ ( สินค้าทุกชิ้นรับประกันจากทางร้าน 3 ปี )  \n จำหน่ายกุญแจกันขโมยสำหรับรถยนต์ - กุญแจล็อคพวงมาลัย ล็อคคลัช เบลค ล็อคล้อ - อุปกรณ์กันขโมย รถยนต์ มอเตอร์ไซด์ ( สินค้าทุกชิ้นรับประกันจากทางร้าน 1 ปี )  \n \n ติดตั้งกุญแจประตูบ้าน - กุญแจระบบฝัง เสริมความปลอดภัย - กุญแจประตูไม้ประตูเหล็กประตูกระจก กุญแจฝัง\n  \n รับติดตั้งระบบ KEY CARD  - ระบบล็อคแม่เหล็ก - ระบบใช้บัตรทาบ รับประกันนาน 3-10 ปี \n รับติดตั้งระบบ KEY TAG  - ระบบล็อคในห้องโรงแรม รับประกันนาน 1-2 ปี  \n รับวางระบบ MASTER KEY - ระบบ KEY A LIKE - ระบบ MASTER KEY - ระบบ GRAND MASTER KEY \n\nติดตั้งวางระบบกุญแจ เหมาะสำหรับโรงแรม\n\nเก็จเฮ้า อาพาเม้นท์ ห้องเช่า สปา สำนักงาน\n\nทำงานอย่างมีระบบ เพื่อความคล่องตัวสะดวก\n\nประหยัดกุญแจ แม่บ้านไม่ต้อง \"แบก \"กุญแจ-\n\nไปทำการเปิด ใช้เพียงดอก \"เดียว\"ไขทุกห้อง\n \n\nข่าวประชาสัมพันธ์\n\n  โดยได้รับความไว้วางใจ\n\nจากบริษัทชั้นนำ โรงแรมระดับห้าดาว\n\nหน่วยงานรัฐ หลายระรดับมาแล้วหลายท่าน \n\nและบริษัทชั้นนำอื่นๆอีกมากมาย\n \n   บริการ เป็นที่ยอมรับ ในกลุ่มลูกค้า\n\nผลงาน ติดตั้งกุญแจ\n \n   รับเปิดตู้เซฟ เปลี่ยน ติดตั้ง แก้ไข ดัดแปลง\n\n รหัสเซฟ กุญแจหาย\n\nต้องการเปลี่ยนใหม่เพื่อความปลอดภัย\n \n  ผลงาน เปลี่ยนรหัสเป็นกุญแจระบบมาสเตอร์คีย์\n\n ด้วยการทำงานที่รวดเร็ว\n\nโดยไม่ต้องทำลายกุญแจ เปิดกุญแจตู้เซฟ เปิดรหัส\n\nและตั้งรหัส\n\nมาตรฐาน KEY WORLD,BIG KEY\n \n   ผลงานอื่นๆ \n\n  ซ่อมติดตั้งโช๊คประตูบริษัท\n\nคอมพิวเตอร์\n\nชื่อดัง\n \n\n ได้รับวางใจให้ติดตั้งกุญแจ\n\n เปิดและติดตั้งกุญแจ\n\nร้านค้าชั้นนำหลายสาขา\n\nทั้งภูเก็ต2-3ครั้ง\n \n ได้รับวางใจให้ติดตั้ง\n\nฟิตติ่งและโช๊คประตูกระจก\n \n   ได้ใว้วางให้ติดตั้งโช๊คระบบผังพื้น\n\nบริษัทชั้นนำ\n \n น ติดตั้งกุญแจ\n\nงานเปลี่ยนกุญแจรถรอบคัน\n\nหรือเปลี่ยนรหัสฟันใหม่\n \n\n\n \n\n \n\n \n\n \n\nวัตถุประสงค์ \n\nในการก่อตั้งแฟรนไชส์หลักใหญ่เนื่่องจากธุรกิจกุญแจมีการเติบโตอย่างต่อเนื่อง \n\nแต่ขาดปัญจัยหลายด้านในการที่จะทำให้ประสบความสำเร็จใจความสำคัญคือ\n\n1. ขาดผู้ที่มีความรู้เฉพาะทางด้านช่างกุญแจเพื่อถ่ายทอด\n\nและขาดผู้ที่มีประสบการณ์ด้านการตลาดที่คอยให้คำชี้แนะ \n\nและในปัจจุบันธุรกิจ SME มีการรวมตัวกันสูง \n\nแต่แข่งขันกันอย่างไม่มีทิศทางจึงต้องมีการรวมกลุ่มของช่างกุญแจ\n\nจำนวนหนึ่งเพื่อให้ใช้สัญลักษณ์สำคัญขนาดใหญ่เพื่อตั้งเป็นมาตรฐานใหม่ในวงการกุญแจ \n\nโดยใช้หลักการในการทดสอบฝีมือด้านช่างกุญแจและมอบสัญลักษณ์นี้ให้แก่ผู้ที่มีฝีมือเท่านั้น\n\n2. ทำการตลาดการ\n\nอย่างไม่เป็นรูปธรรมไม่ไปในทิศทางเดียวกันแตกแยกกันไม่จริงจังในธุรกิจ \n\nจึงทำให้ธุรกิจไม่มั่งคงไม่ยั่งยืนไม่เดินหน้าไม่ก้าวไป\n\n3. ต่างกันวัตถุดิบที่ใช้ \n\nปัจจุบันมีการสั่งสินค้าจากจีนเข้ามาขายในประเทศไทยจึงทำให้กุญแจที่ได้มีการคลาดเคลื่อน \n\nตัดกุญแจไปไขไม่ออกร่องกุญแจไม่ได้มาตรฐานไขไม่กี่ครั้งก็หักเนื่องจากวัสดุกุญแจ \n\nไม่มีความแข็งแรงทนทานเหมือนเนื้อโลหะทำให้ช่างส่วนใหญ่ดูไม่เป็นอีกทั้งไม่เข้าใจในขบวนการผลิตและการวิเคราะห์ต้นทุนกับคุณภาพที่ได้จึงสั่งของไม่มีมาตรฐานที่\n\nเข้ามาร้านในสุดท้าย ... สินค้าชิ้นนั้นลูกค้าเป็นผู้รับทำให้เป็นการเอาเปรียบผู้บริโภค \n\nเนื่องจากรับสินค้าเกรด C-จากจีนแต่ขายเท่าราคากุญแจเกรด A +\n\n4. ราคา \n\nหลายคนไม่เข้าใจในต้นทุนสินค้าที่แท้จริงไม่เข้าใจในต้นทุนแฝง \n\nการคิดต้นทุนที่มีหลักการจึงไม่ก่อเกิดจึงทำให้ช่างกุญแจหลายคนไม่ก้าวหน้าในธุรกิจ\n\nเนื่องจากกุญแจ 1 ดอกใช้ได้นานอย่างน้อย 10 กว่านั้นปีหรือนาน\n\nนั่นหมายถึงการคิดราคาย่อมเป็นไปตามเวลาของกุญแจ\n\n(แต่ปัจจุบันคนที่มีความคิดที่ผิดเพี้ยนไม่ใช่ช่างกุญแจอย่างแท้จริง\n\nอ้างว่าราคากุญแจต้นทุนเพียง 2 บาทขาย 15 บาทเพื่อดึงคนให้มาสนใจในธุรกิจกุญแจ \n\nและหลอกขายเครื่องและสินค้าที่แพงเกินจริง)\n\n5. ค่าบริการนอกสถานที่ต่างกัน \n\nจึงได้มีการถ่ายทอดแนวคิดและแง่คิดการดำเนินธุรกิจค่าบริการนอกสถานที่\n\nภายใต้ความสำเร็จที่เห็นเป็นรูปธรรมและชัดเจนที่สุดและพิสูจน์มาแล้วว่ามีลูกค้ามากกว่า 90% \n\nเห็นด้วยและยอมรับในราคาเมื่อเทียบกับการบริการที่ได้รับซึ่งการบริการในแต่ละครั้งนั้น\n\nมีการใช้ฝีมือและระมัดระวังเสมือนว่ารถลูกค้าเป็นของเรา\n\n6. ในปัจจุบันเครื่องมือ\n\nมีการนำเครื่องมือจากต่างประเทศมาขายบางส่วนรับผิดชอบในคุณสมบัติ \n\nในสินค้าและใช้เป็นจากผู้รู้จริง (แต่เป็นส่วนน้อย) แต่บางส่วนกลับนำสินค้ามาขาย \n\nทั้งๆที่ไม่สามารถใช้งานได้จริงและไม่สามารถสอนได้ทั้งๆที่เป็นผู้ขาย\n\nหรือใช้งานได้ไม่กี่ครั้งก็มีความเสียหายเครื่องมือการทำกุญแจนั้น\n\nไม่จำเป็นที่จะต้องไปหาซื้อจากที่ไหนแต่สามารถสร้างขึ้นมาเองได้เพื่อให้เหมาะกับมือ \n\nและการใช้งาน Key Big จึงกำหนดการใช้เครื่องมือการทำกุญแจ่ต่างๆ\n\n   \"ขนาดใหญ่ที่สำคัญจึงเกิดขึ้นมาโดยไม่ใช้กฎหมายของธุรกิจแฟรนไชส์ \n\nเข้ามาควบคุมดูแลหรือเซ็นสัญญา \n\nแต่ใช้กฏข้อเดียวคือพึ่งพารวมตัวสร้างมาตรฐาน\n\nแต่ต้องผ่านการทดสอบฝีมือและทัศนะคติเพื่ออบรม \" \n\n \n\nข้อความทั้งหมดนี้เป็นลิขสิทธิ์ห้ามดัดแปลงตัดต่อแต่งเติมหากต้องการนำไปให้ใส่ \n\nชื่อผู้เขียนคมเดชอุดมยิ่งเจริญ \n\nwww.Thaibigkey.com\n\n\n\n",
        "general_info": "ช่างกุญแจ",
        "id": "118280971608938",
        "name": "ช่างกุญแจ 085 7826622"
    },
    {
        "id": "364553593744269",
        "location": {
            "city": "Rayong",
            "country": "Thailand",
            "latitude": 12.6742,
            "longitude": 101.279,
            "street": "15/11",
            "zip": "21140"
        },
        "name": "ช่างกุญแจระยอง 0870114618 0853731438",
        "phone": "0870114618"
    },
    {
        "id": "416186105146897",
        "location": {
            "city": "Nakhon Nayok",
            "country": "Thailand",
            "latitude": 14.19947,
            "longitude": 101.20967,
            "street": "นครนายก นครราชสีมา ขอนแก่น อุดรธานี โคราช ฉะเชิงเทรา",
            "zip": "10000"
        },
        "name": "ช่างกุญแจนครนายก 087 488 4333",
        "phone": "0874884333"
    },
    {
        "about": "ช่างกุญแจพัทยา\nรับทำกุญแจรีโมท-ฝังชิพ immobilizer\nเปิดบ้าน-รถ-เซฟ\nตลอด 24 ช.ม \nTel.080-6338565,089-6005672",
        "description": "รับทำกุญแจ-ก็อปปี้คีย์การ์ด\nบริการเปิดบ้าน-รถ-เซฟ\nทั้งในและนอกสถานที่\nตลอด 24 ชั่วโมง\nโทร 0806338565",
        "emails": [
            "naruwat2009@hotmail.com"
        ],
        "id": "128166060662357",
        "location": {
            "city": "Chonburi",
            "country": "Thailand",
            "street": "327/257 ม.9 ต.หนองปรือ",
            "zip": "20150"
        },
        "name": "ช่างกุญแจชลบุรี-พัทยา-สัตหีบ 0806338565",
        "phone": "0806338565"
    },
    {
        "id": "1383854421845131",
        "location": {
            "city": "Bangkok",
            "country": "Thailand",
            "latitude": 13.75395,
            "longitude": 100.50224,
            "street": "จรัญสนิทวงศ์ เพชรเกษม ท่าพระ บางแค บางบอน หนองแขม พระราม 2 สุขสวัสดิ์",
            "zip": "10000"
        },
        "name": "ช่างกุญแจจรัญสนิทวงศ์ หนองแขม 083 1111 938",
        "phone": "0831111938"
    },
    {
        "id": "308534682606405",
        "location": {
            "city": "Bangkok",
            "country": "Thailand",
            "latitude": 13.75395,
            "longitude": 100.50224,
            "street": "ช่างกุญแจรามคำแหง กรุงเทพมหานคร",
            "zip": "10000"
        },
        "name": "ช่างกุญแจรามคำแหง 087 488 4333",
        "phone": "0874884333"
    },
    {
        "about": "ช่างกุญแจรีโมทฝังชิพ จังหวัดปราจีนบุรี โทร092-3451148",
        "description": "ช่างกุญแจรีโมทฝังชิพ จังหวัดปราจีนบุรี โทร092-3451148",
        "id": "1387839644795735",
        "location": {
            "city": "Prachin",
            "country": "Thailand",
            "latitude": 14.0688,
            "longitude": 101.38777,
            "street": "209/121",
            "zip": "25000"
        },
        "name": "ช่างกุญแจรีโมทฝังชิพปราจีนบุรี092-3451148key immobilizer",
        "phone": "0923451148"
    },
    {
        "id": "430214983773135",
        "location": {
            "city": "Bangkok",
            "country": "Thailand",
            "latitude": 13.75395,
            "longitude": 100.50224,
            "street": "ประตูน้ำ ชิดลม เพลินจิต ราชเทวี ดินแดง อโศก พญาไท พัฒนาการ กรุงเทพ",
            "zip": "10000"
        },
        "name": "ช่างกุญแจประตูน้ำ 087 488 4333",
        "phone": "087 488 4333"
    },
    {
        "id": "489080617826583",
        "location": {
            "city": "Bangkok",
            "country": "Thailand",
            "latitude": 13.75395,
            "longitude": 100.50224,
            "street": "นวนคร รังสิต ปทุมธานี ลำลูกกา คลองหลวง วังน้อย",
            "zip": "10000"
        },
        "name": "ช่างกุญแจนวนคร 087 488 4333",
        "phone": "0874884333"
    },
    {
        "id": "641281405898876",
        "location": {
            "city": "Bangkok",
            "country": "Thailand",
            "latitude": 13.75395,
            "longitude": 100.50224,
            "street": "ปราจีนบุรี นครนายก โคราช สระแก้ว สุรินทร์ ฉะเชิงเทรา ขอนแก่น อุดรธานี",
            "zip": "10000"
        },
        "name": "ช่างกุญแจปราจีนบุรี 087 488 4333",
        "phone": "0874884333"
    },
    {
        "id": "256082381207475",
        "location": {
            "city": "Bangkok",
            "country": "Thailand",
            "latitude": 13.75395,
            "longitude": 100.50224,
            "street": "ลำสาลี รามคำแหง บางกะปิ คลองตัน ศรีนครินทร์ บางนา",
            "zip": "10000"
        },
        "name": "ช่างกุญแจลำสาลี 082 473 1555",
        "phone": "0824731555"
    },
    {
        "about": "ช่างกุญแจบางแพ 0890317475 ช่างกุญแจวัดเพลง ช่างกุญแจโพธาราม เปิดรถ เปิดเซฟ มืออาชีพ",
        "description": "ช่างกุญแจบางแพ ช่างกุญแจวัดเพลง ช่างกุญแจโพธาราม รับทำกุญแจเสีย กุญแจหาย กุญแจไขไม่ได้ ลืมกุญแจไว้ในรถ ลืมกุญแจไว้ในบ้าน ปลดล๊อคกุญแจรถยนต์ ปลดล๊อคกุญแจบ้าน ปลดล๊อคเบรค ปลดล๊อคครัช กุญแจเซฟหาย กุญแจเซฟไม่มีรหัส ลืมรหัสเซฟ ต้องการรหัสเปิดเซฟ บริการตลอดเวลา 0890317475",
        "emails": [
            "gibz0808@hotmail.com"
        ],
        "id": "455820154595420",
        "location": {
            "city": "Rat Buri",
            "country": "Thailand",
            "latitude": 13.5333,
            "longitude": 99.8,
            "street": "43/1หมูุ่6 ถ.เขาช่องพราน ต.นางแก้ว",
            "zip": "70120"
        },
        "name": "ช่างกุญแจบางแพ 0890317475 วัดเพลง โพธาราม",
        "phone": "0890317475"
    },
    {
        "id": "546864818699554",
        "location": {
            "city": "Nakorn Panom",
            "country": "Thailand",
            "latitude": 17.4,
            "longitude": 104.783,
            "street": "นครพนม มุกดาหาร ศรีษะเกษ ชัยภูมิ บุรีรัมย์ ร้อยเอ็ด",
            "zip": "60000"
        },
        "name": "ช่างกุญแจนครพนม 087 488 4333",
        "phone": "0874884333"
    },
    {
        "id": "363961280381668",
        "location": {
            "city": "Bangkok",
            "country": "Thailand",
            "latitude": 13.75395,
            "longitude": 100.50224,
            "street": "ลาดกระบัง บางนา สุวรรณภูมิ กรุงเทพ",
            "zip": "10000"
        },
        "name": "ช่างกุญแจลาดกระบัง 087 488 4333",
        "phone": "0874884333"
    },
    {
        "id": "717086638306412",
        "location": {
            "city": "Bangkok",
            "country": "Thailand",
            "latitude": 13.75395,
            "longitude": 100.50224,
            "street": "บางพลัด เพชรเกษม ท่าพระ บางแค พุทธมณฑล พระราม 2 บางขุนเทียน บางบอน",
            "zip": "10000"
        },
        "name": "ช่างกุญแจบางพลัด เพชรเกษม083 1111 938",
        "phone": "0831111938"
    },
    {
        "id": "403562589740920",
        "location": {
            "city": "Bangkok",
            "country": "Thailand",
            "latitude": 13.75395,
            "longitude": 100.50224,
            "street": "เชียงราย เชียงใหม่ พิษณุโลก ลำพูน ลำปาง น่าน แพร่ เลย",
            "zip": "10000"
        },
        "name": "ช่างกุญแจเชียงราย 087 488 4333 ช่างกุญแจลำพูน ช่างกุญแจปาง",
        "phone": "0874884333"
    },
    {
        "about": "บริการเปิดบ้าน เปิดรถยนต์ นอกสถานที่ ลืม หาย เราเปิดได้ 081-6967332",
        "description": "ช่างกุญแจ OKD-KEY Service 24hr ช่างกุญแจ ปทุมธานี 081-6967332 www.okd-key.com บริการ เปิดบ้าน เปิดรถยนต์ นอกสถานที่ รับทำกุญแจรถยนต์ ญี่ปุ่น ยุโรป ระบบกุญแจฝังชิพ Immobilizer กุญแจรีโมท กุญแจบ้าน รถยนต์หายหมดทำใหม่ได้้ มาตราฐานศูนย์ บริการว่องไว มีปัญหาเรื่องกุญแจ โทรเลย 081-6967332 บริการเปิดบ้าน ลูกบิด แม่กุญแจ ลืมกุญแจบ้านกุญแจหาย กุญแจสายยู ประตูกระจก\nบริการเปิดรถยนต์ ลืมกุญแจรถ กุญแจหาย\n- Mercedes-Benz. C180. C200. C250. E200. E240. E250. S320\n- BMW. 318i. 320d. 325i. 520d. 525i. 730il. 730ld. X1. X3. X5. X6. BMWMini. Series 3 5 7\n- Volkswagen. Beetle. Polo. Golf. Jetta. Passat. Touran. Sharan. Phaeton. Tiguan. Touareg\n- Volvo. S80. XC90\n- Toyota Camry. Altis. Vigo. Vios\n- Honda. Accord. City. Civic. Cr-v. Jazz. Freed. Brio.\n- Ford. Escape. Everest. Focus. Fiesta. Ranger\n- Mazda2 Mazda3\n- Hyundai. H1. Sonata\n- Nissan. March. Tiida. Almera. Teana\n- ISUZU. D-Max. V-Cross. Mu-7\nบริการเปิดตู้เซฟ\nช่างกุญแจ ปทุมธานี ช่างกุญแจ รังสิต ช่างกุญแจ ดอนเมือง ช่างกุญแจ สายไหม ช่างกุญแจ ธัญบุรี ช่างกุญแจ ลำลูกกา ช่างกุญแจ คลองหลวง ช่างกุญแจ นวนคร ช่างกุญแจ นครนายก ช่างกุญแจ วังน้อย ช่างกุญแจ องครักษ์ ช่างกุญแจ สะพานใหม่",
        "emails": [
            "kapolotum@gmail.com"
        ],
        "general_info": "ช่างกุญแจ OKD-KEY Service 24hr ช่างกุญแจ ปทุมธานี 081-6967332 www.okd-key.com บริการ เปิดบ้าน เปิดรถยนต์ นอกสถานที่ รับทำกุญแจรถยนต์ ญี่ปุ่น ยุโรป ระบบกุญแจฝังชิพ Immobilizer กุญแจรีโมท กุญแจบ้าน รถยนต์หายหมดทำใหม่ได้้ มาตราฐานศูนย์ บริการว่องไว มีปัญหาเรื่องกุญแจ โทรเลย 081-6967332 บริการเปิดบ้าน ลูกบิด แม่กุญแจ ลืมกุญแจบ้านกุญแจหาย กุญแจสายยู ประตูกระจก\nบริการเปิดรถยนต์ ลืมกุญแจรถ กุญแจหาย\n- Mercedes-Benz. C180. C200. C250. E200. E240. E250. S320\n- BMW. 318i. 320d. 325i. 520d. 525i. 730il. 730ld. X1. X3. X5. X6. BMWMini. Series 3 5 7\n- Volkswagen. Beetle. Polo. Golf. Jetta. Passat. Touran. Sharan. Phaeton. Tiguan. Touareg\n- Volvo. S80. XC90\n- Toyota Camry. Altis. Vigo. Vios\n- Honda. Accord. City. Civic. Cr-v. Jazz. Freed. Brio.\n- Ford. Escape. Everest. Focus. Fiesta. Ranger\n- Mazda2 Mazda3\n- Hyundai. H1. Sonata\n- Nissan. March. Tiida. Almera. Teana\n- ISUZU. D-Max. V-Cross. Mu-7\nบริการเปิดตู้เซฟ\nช่างกุญแจ ปทุมธานี ช่างกุญแจ รังสิต ช่างกุญแจ ดอนเมือง ช่างกุญแจ สายไหม ช่างกุญแจ ธัญบุรี ช่างกุญแจ ลำลูกกา ช่างกุญแจ คลองหลวง ช่างกุญแจ นวนคร ช่างกุญแจ นครนายก ช่างกุญแจ วังน้อย ช่างกุญแจ องครักษ์ ช่างกุญแจ สะพานใหม่",
        "id": "542128519166745",
        "location": {
            "city": "Bangkok",
            "country": "Thailand",
            "latitude": 14.013394116667,
            "located_in": "140236812710305",
            "longitude": 100.62197685,
            "zip": "12130"
        },
        "name": "ตั้ม ช่างกุญแจ รังสิต ปทุมธานี ลำลูกกา สายไหม คลองหลวง 24 ชม. 081-6967332",
        "phone": "081-696-7332"
    },
    {
        "id": "174975689294002",
        "location": {
            "city": "Bangkok",
            "country": "Thailand",
            "latitude": 13.794554867713,
            "longitude": 100.54994535835,
            "zip": "10400"
        },
        "name": "ช่างหมิง กุญแจเทวดา"
    },
    {
        "about": "ช่างกุญแจ 24 ชั่วโมง 0866171482 กุญแจรถหาย กุญแจรีโมท กรอบรีโมท กรอบแตก กุญแจชิบ เปิดรถ ",
        "description": "บริการเปิดกุญแจ ตลอด 24 ชั่วโมง  \n\n\n-บ้าน- \nกุญแจบ้านหาย กุญแจบ้านพัง งัดกุญแจ สะเดาะกุญแจ \nเปิดกุญแจล๊อกบ้าน กุญแจเสีย  \n\n-รถ- \nลืมกุญแจไว้ในรถ กุญแจรถหาย ไขสตารท์ไม่ติด  กรอบรีโมท กรอบแตก กุญแจชิบ ทำสำรอง ทำเพิ่ม\nบิดกุญแจรถไม่ได้ กุญแจเสีย กุญแจรถพัง \nhonda / toyota /mitsubishi/ nissan /mazda /ford/chevrolet/ benz \n\n-อื่นๆ-  \nเปิดลูกบิด กุญแจหล่นท่อ  กุญแจผี  กุญแจสำนักงาน \nกุญแจลิ้นชัก ทำดอกกุญแจลิ้นชัก   รับเหมาเปิดกุญแจ  \n\n- พื้นที่บริการ(ช่างก๊อต) -  \nกรุงเทพและปริมณฑล\n\nหมายเหตุ : เรามีทีมงานทั่วกรุงเทพฯ และปริมณฑล \n\nติดต่อได้ที่ 086 617 1482   \n ",
        "id": "495830923823179",
        "location": {
            "city": "Bangkok",
            "country": "Thailand",
            "latitude": 13.941668637659,
            "longitude": 100.64117074013,
            "zip": "10220"
        },
        "name": "ช่างก๊อต กุญแจ 24 ชั่วโมง",
        "phone": "086-617-1482"
    },
    {
        "about": "ช่างกุญนครนายก  ปากพลี24ช.ม092-8721178",
        "description": "ช่างกุญนครนายก  ปากพลี24ช.ม092-8721178",
        "id": "807615485921057",
        "location": {
            "city": "Nakon Nayok",
            "country": "Thailand",
            "latitude": 14.186459032565,
            "longitude": 101.29857953054,
            "zip": "26130"
        },
        "name": "ช่างกุญแจนครนายก ปากพลี24ช.ม092-8721178",
        "phone": "0928721178"
    },
    {
        "id": "339058112866972",
        "location": {
            "city": "Bangkok",
            "country": "Thailand",
            "latitude": 13.81913,
            "longitude": 100.67546,
            "street": "โชคชัย4",
            "zip": "10230"
        },
        "name": "ช่างกุญแจ",
        "phone": "029333246"
    },
    {
        "about": "ช่างกุญแจเลย24ช.ม082-0707950",
        "description": "ช่างกุญแจเลย24ช.ม082-0707950",
        "id": "492438077533737",
        "location": {
            "city": "Muang Loei",
            "country": "Thailand",
            "latitude": 17.466502768599,
            "longitude": 101.72523637578,
            "zip": "42000"
        },
        "name": "ช่างกุญแจเลย24ช.ม082-0707950",
        "phone": "0820707950"
    }
]