[
    {
        "about": "บริการรับทำกุญแจครบวงจร ปลดล็อค ซ่อมแก้ไขทุกกรณี ทำกุญแจระบบฝังชิพทุกรุ่น082-0707950",
        "id": "1420665878146246",
        "location": {
            "city": "Ban Pathum",
            "country": "Thailand",
            "latitude": 14.116669868692,
            "longitude": 100.61807521099,
            "zip": "12000"
        },
        "name": "ช่างกุญแจนวนคร 082-0707950บริการ24ช.ม",
        "phone": "0820707950"
    },
    {
        "id": "454249114668562",
        "location": {
            "city": "Bangkok",
            "country": "Thailand",
            "latitude": 13.75395,
            "longitude": 100.50224,
            "street": "จันทบุรี ระยอง ชลบุรี ตราด ฉะเชิงเทรา ปราจีนบุรี",
            "zip": "10000"
        },
        "name": "ช่างกุญแจจันทบุรี 082 473 1555",
        "phone": "0824731555"
    },
    {
        "about": "ช่างกุญแจลพบุรี หนองม่วง โทร082-0707950",
        "description": "ช่างกุญแจลพบุรี หนองม่วง โทร082-0707950",
        "id": "222070497974949",
        "location": {
            "city": "Ban Nong Muang",
            "country": "Thailand",
            "latitude": 15.30235,
            "longitude": 100.70855,
            "street": "32",
            "zip": "15170"
        },
        "name": "ช่างกุญแจลพบุรี หนองม่วง โทร082-0707950",
        "phone": "0820707950"
    },
    {
        "id": "1615223838753885",
        "location": {
            "city": "Nakhon Pathom",
            "country": "Thailand",
            "latitude": 13.81521582,
            "longitude": 100.06556349,
            "street": "ข้างศูนย์อีซูซุตั้งเซียฮวดทุ่งพระเมรุนครปฐม",
            "zip": "73000"
        },
        "name": "ช่างกุญแจนครปฐม ชัยการกุญแจ 086-7040874",
        "phone": "086-7040874  085-1955883"
    },
    {
        "about": "ข่างกุญแจพิษณุโลกรับเปิดบ้าน,เปิดรถ,ทำกุญแจฝังชิฟ,รีโมท",
        "id": "504939869658270",
        "location": {
            "city": "Phitsanulok",
            "country": "Thailand",
            "latitude": 16.8036613,
            "longitude": 100.2327423,
            "street": "83/316  ประชาอุทิศ",
            "zip": "65000"
        },
        "name": "ช่างกุญแจพิษณุโลก บิ๊กคีย์ 0881774238,0834113366",
        "phone": "0881774238"
    },
    {
        "about": "ช่างกุญแจ เปิดรถ เปิดบ้าน เปิดตู้เซฟ บริการ24 ชั่วโมง",
        "description": "ช่างกุญแจ ปลดล็อคกุญแจ 24 ชั่วโมง 0849429251\nปลดล็อคกุญแจทุกชนิด กุญแจบ้าน กุญแจรถ กุญแจตู้เซฟ ติดตั้งกุญแจทุกชนิด\nกุญแจฝังชิพ กุญแจรีโมท \nกุญแจระบบimmobilizer \nกุญแจระบบputstart\nรับสอนวิชาชีพช่างกุญแจ จำหน่ายอุปกรณ์สำหรับช่างกุญแจ\nช่างกุญแจ ปลดล็อคกุญแจ 24 ชั่วโมง 0849429251 ยินดีให้บริการ",
        "emails": [
            "fk_114-2@hotmail.co.th"
        ],
        "id": "146088148934694",
        "location": {
            "city": "Bangkok",
            "country": "Thailand",
            "zip": "18120"
        },
        "name": "ช่างกุญแจ ปลดล็อคกุญแจ 24 ชั่วโมง 0849429251",
        "phone": "0849429251"
    },
    {
        "id": "263383133811011",
        "location": {
            "city": "Bangkok",
            "country": "Thailand",
            "latitude": 13.75395,
            "longitude": 100.50224,
            "street": "แหลมฉบัง จอมเทียน ชลบุรี พัทยา บางแสน นาเกลือ บางละมุง ศรีราชา",
            "zip": "10000"
        },
        "name": "ช่างกุญแจแหลมฉบัง 082 473 1555",
        "phone": "0824731555"
    },
    {
        "id": "1410382415882591",
        "location": {
            "city": "Bangkok",
            "country": "Thailand",
            "latitude": 13.75395,
            "longitude": 100.50224,
            "street": "แจ้งวัฒนะ บางบัวทอง ปากเกร็ด งามวงศ์วาน หลักสี่ ดอนเมือง รังสิต นนทบุรี ปทุมธานี",
            "zip": "10000"
        },
        "name": "ช่างกุญแจแจ้งวัฒนะ 082 473 1555",
        "phone": "082 473 1555"
    },
    {
        "id": "335459023242215",
        "location": {
            "city": "Rayong",
            "country": "Thailand",
            "latitude": 13.36899,
            "longitude": 100.9957,
            "street": "เมืองระยอง ระยอง แกลง บ้านฉาง ปลวกแดง มาบตาพุด ระยอง บ้านเพ",
            "zip": "21000"
        },
        "name": "ช่างกุญแจระยอง 0824731555 แกลง บ้านฉาง ปลวกแดง",
        "phone": "0824731555"
    },
    {
        "id": "397706283661465",
        "location": {
            "city": "Bangkok",
            "country": "Thailand",
            "latitude": 13.7609301,
            "longitude": 100.5666199,
            "street": "สุทธิสาร รัชดาภิเษก ห้วยขวาง ดินแดง ลาดพร้าว กรุงเทพ",
            "zip": "10321"
        },
        "name": "ช่างกุญแจสุทธิสาร 087 488 4333",
        "phone": "0874884333"
    },
    {
        "about": "ช่างกุญแจนครนายก บ้านนา24ช.มT 092-8721178",
        "description": "ช่างกุญแจนครนายก บ้านนา24ช.ม T.082-0707950",
        "id": "420216238081721",
        "location": {
            "city": "Amphoe Ban Na",
            "country": "Thailand",
            "latitude": 14.258067125109,
            "located_in": "201481123219157",
            "longitude": 101.0703975,
            "zip": "26110"
        },
        "name": "ช่างกุญแจนครนายก บ้านนา24ช.ม T092-8721178",
        "phone": "0928721178"
    },
    {
        "about": "ช่างกุญแจชลบุรี-T0839955585-เปิดกุญแจรถทำ-กุญแจฝังชิพ-เปิดตู้เซฟ",
        "emails": [
            "thaikeyworld@hotmail.com"
        ],
        "id": "519528338196706",
        "location": {
            "city": "Chon Buri",
            "country": "Thailand",
            "latitude": 13.3667,
            "longitude": 100.983,
            "street": "178/27 ต บางละมุง อ บางละมุง จ ชลบุรี",
            "zip": "20150"
        },
        "name": "ช่างกุญแจชลบุรี Big Key T.0839955585 เปิดกุญแจรถทำกุญแจฝังชิพเปิดตู้เซฟ",
        "phone": "0839955585"
    },
    {
        "id": "480360038685958",
        "location": {
            "city": "Chiang Mai",
            "country": "Thailand",
            "latitude": 18.78603,
            "longitude": 99.02265,
            "street": "เขียงใหม่ เชียงราย ลำป่าง น่าน แพร่ ลำพูน",
            "zip": "50000"
        },
        "name": "ช่างกุญแจเขียงใหม่ เชียงราย 082 473 1555",
        "phone": "0824731555"
    },
    {
        "id": "548950011815609",
        "location": {
            "city": "Bangkok",
            "country": "Thailand",
            "latitude": 13.75395,
            "longitude": 100.50224,
            "street": "ท่าพระ เพชรเกษม ปิ่นเกล้า บางแค ดาวคะนอง ตากสิน",
            "zip": "10000"
        },
        "name": "ช่างกุญแจท่าพระ 082 473 1555",
        "phone": "0824731555"
    },
    {
        "about": "บริการทำกุญแจรถยนต์ฝังชิพ Immobilizer  รับเปิดกุญแจรถยนต์หาดใหญ่และจังหวัดใกล้เคียง",
        "emails": [
            "chokeza9@gmail.com"
        ],
        "id": "607000859433095",
        "location": {
            "city": "Amphoe Hat Yai",
            "country": "Thailand",
            "latitude": 7.0152,
            "longitude": 100.39974,
            "street": "291 ถ.ราษฏร์ยินดี",
            "zip": "90110"
        },
        "name": "ช่างกุญแจหาดใหญ่ รับทำกุญแจฝังชิพ 081-9595610",
        "phone": "081-9595610 , 074-891491"
    },
    {
        "about": "บริการเกี่ยวกับกุญแจและอุปกรณ์ล็อคทุกชนิด",
        "description": "บริการเกี่ยวกับกุญแจและอุปกรณ์ล็อคทุกชนิด\nกุญแจรถ,บ้าน ทำเพิ่ม กุญแจหาย ปลดล็อครถ,บ้าน รับก๊อบปี้รีโหมดรถยนต์ เปลี่ยนกรอบ เปลี่ยนถ่าน บริการ 24 ชั่วโมง สอบถามได้ครับ 085-8643173 ",
        "id": "502890603183159",
        "location": {
            "city": "Fang",
            "country": "Thailand",
            "latitude": 19.9388414,
            "longitude": 99.231199
        },
        "name": "ช่างกุญแจเมืองฝาง ฝางคีย์สมิธ",
        "phone": "085-8643173"
    },
    {
        "about": "ช่างกุญแจห้วยกระเจา ช่างกุญแจเลาขวัญ ช่างกุญแจตลาดเขต 0860667975",
        "description": "ช่างกุญแจห้วยกระเจา ช่างกุญแจเลาขวัญ ช่างกุญแจตลาดเขต รับทำกุญแจหาย กุญแจเสีย กุญแจพัง กุญแจไขไม่ได้ กรอบรีโมทเสีย กรอบรีโมทแตก กุญแจรถยนต์หาย กุญแจบ้านหาย ลืมกุญแจไว้ในรถ ปลดล๊อคกุญแจรถยนต์ ปลดล๊อคกุญแจบ้าน สะเดาะกุญแจรถยนต์ สะเดาะกุญแจบ้าน กุญแจตู้เซฟหาย ลืมรหัสตู้เซฟ ต้องการรหัสตู้เซฟ เปิดตู้เซฟ รีโมทกดไม่ติด รีโมทเสีย รีโมทถ่านหมด ต้องการทำรีโมทเพิ่ม ก๊อปปี้รีโมทบ้าน ก๊อปปี้รีโมทรถยนต์ บริการตลอดเวลา 0860667975 ",
        "emails": [
            "sommaisirinak@hotmail.com"
        ],
        "id": "685469324929902",
        "location": {
            "city": "Kanchana",
            "country": "Thailand",
            "latitude": 14.025491887347,
            "longitude": 99.543846845627,
            "street": "354 ถนนอู่ทอง ต.ปากแพรก อ.เมืิอง",
            "zip": "71000"
        },
        "name": "ช่างกุญแจห้วยกระเจา 0860667975 ช่างกุญแจเลาขวัญ ช่างกุญแจตลาดเขต",
        "phone": "0860667975"
    },
    {
        "about": "บริการทำกุญแจรีโมทฝังชิพimmobilizerบริการนอกสถานที่24ชม.",
        "id": "1522504944660391",
        "location": {
            "city": "Chonburi",
            "country": "Thailand",
            "latitude": 13.36899,
            "longitude": 100.9957,
            "street": "737/9 ถ.โพธิ์ทอง  อ.เมืองชลบุรี  จใชลบุรี",
            "zip": "20000"
        },
        "name": "ช่างต้นกุญแจชลบุรีอมตะนคร พานทอง 0877490969",
        "phone": "0877490969"
    },
    {
        "about": "Copy transponder chip. Copy remote car for key. Add key",
        "id": "534264229978140",
        "location": {
            "city": "Muang Tak",
            "country": "Thailand",
            "latitude": 16.876187136856,
            "longitude": 99.122376908355,
            "street": "939/5 ถ.ตากสิน อ.เมือง จ.ตาก (939/5 taksin road Muang Tak Thailand)",
            "zip": "63000"
        },
        "name": "ร้านกุญแจเพชร จ.ตากและแม่สอด 0897068929 ช่างเขต",
        "phone": "0897068929 และ 0882905941"
    },
    {
        "id": "436054366526695",
        "location": {
            "city": "Bangkok",
            "country": "Thailand",
            "latitude": 14.04167,
            "longitude": 100.41546,
            "street": "วัดคูบางหลวง",
            "zip": "12140"
        },
        "name": "ร้านแขกช่างกุญแจคูบางหลวง 081-7606868",
        "phone": "081-7606868"
    },
    {
        "about": "รับทำกุญแจระบบImmobilizer-ทำเพิ่มรีโมทรถ:บ้าน-ดอกหาย\nเปิดบ้าน-รถ-ตู้ ไร้ริ้วรอย 24ชม.\n☎️☎️ 089-833-8803 , 086-408-6688",
        "id": "829232377119604",
        "name": "ช่างกุญแจลาดพร้าว อิมพีเรียลลาดพร้าว :::ช่างปิง::: 0898338803 : 0864086688"
    },
    {
        "id": "619076578159710",
        "location": {
            "city": "Bangkok",
            "country": "Thailand",
            "latitude": 13.7275801,
            "longitude": 100.4861526,
            "street": "ดาวคะนอง สุขสวัสดิ์ ราษฎร์บูรณะ พระประแดง พระราม 2 บางบอน ท่าพระ บางแค เพชรเกษม พระราม 2",
            "zip": "10600"
        },
        "name": "ช่างกุญแจดาวคะนอง 082 473 1555",
        "phone": "082 473 1555"
    },
    {
        "about": "ช่างกุญแจปราจีนบุรี",
        "description": "ช่างกุญแจปราจีนบุรี-นครนายก",
        "emails": [
            "tetee.zip@gmail.com"
        ],
        "id": "2017130471759192",
        "location": {
            "city": "Prachin Buri",
            "country": "Thailand",
            "latitude": 14.0503,
            "longitude": 101.37,
            "zip": "25000"
        },
        "name": "ช่างกุญแจ อำเภอเมือง ปราจีนบุรี  0800907117",
        "phone": "0800907117"
    },
    {
        "description": "ร้านอมรชัย ทำกุญแจ นครปฐม\nรับปั๊มกุญแจ กุญแจหาย ลืมกุญแจ\nกุญแจรถยนต์ มอเตอร์ไซค์ กุญแจบ้าน ตู้เซฟ\nเปิดกิจการมาแล้วกว่า 40 ปี รับบริการนอกสถานที่ \nติดต่อ 086-111464, 034-253191, 034-259537",
        "id": "1586285724943098",
        "location": {
            "city": "Nakhon Pathom",
            "country": "Thailand",
            "latitude": 13.823765937312,
            "longitude": 100.06120204926,
            "street": "6 ซอยทรัพย์สิน1 ถ.พญาพาน ต.พระปฐมเจดีย์ อ.เมือง",
            "zip": "73000"
        },
        "name": "ช่างกุญแจนครปฐม อมรชัยทำกุญแจ",
        "phone": "089-6111464, 034-253191, 034-259537"
    },
    {
        "about": "รับก๊อปปี้คีย์การ์ด รีโมทย์บ้าน รีโมทย์รถยนต์ทุกชนิด",
        "emails": [
            "ondee41@gmail.com"
        ],
        "id": "469945436452943",
        "location": {
            "city": "Bangkok",
            "country": "Thailand",
            "street": "ประชาอุทิศ 16 แขวง.ห้วยขวาง เขต.ห้วยขวาง",
            "zip": "10310"
        },
        "name": "ช่างกุญแจ ช่างโย โทร.084-9077908 รับทำกุญแจทุกชนิด เปิดบ้าน รถยนต์ ตู้เซฟ",
        "phone": "0849077908"
    }
]