[
    {
        "about": "รับทำกุญแจรถยนต์ฝังชิพ รถญี่ปุ่น รถยุโรป\nราคถูก บริการมืออาชีพ\nกุญแจหาย โทรเลย 085-550-5898",
        "description": "รับทำกุญแจรถยนต์ทุกชนิด ทั่วประเทศ\nกุญแจหาย ลืมกุญแจ \nBMW BENZ PORSCHE VOLVO MINI COOPER VOLKSWAGEN AUDI FERRARI LAMBOGINI\nTOYOTA HONDA NISSAN ISUZU CHEVROLET\n\nเอาเป็นว่ารถทุกรุ่นเลยละกัน....\n\nรับซ่อมกุญแจรถ ซ่อมระบบเดินสายไฟ\nเพราะเราคือทีมงานระดับมืออาชีพ\nสตาร์ทไม่ติด เราไม่เก็บตังค์\n\nวางใจใช้บริการ\nช่างกุญแจ ช่างแม็ค กุญแจ 24 ชม. 085-550-5898\n\nwww.maxkey24hr.com",
        "emails": [
            "maxkey24hr@gmail.com"
        ],
        "id": "264413590342548",
        "location": {
            "city": "Bangkok",
            "country": "Thailand",
            "latitude": 13.782459313092,
            "longitude": 100.58226463979,
            "street": "ซอยรัชดา 18",
            "zip": "10400"
        },
        "name": "ช่างกุญแจ ช่างแม็ค กุญแจ 24 ชม. 085-550-5898",
        "phone": "0855505898"
    },
    {
        "about": "รับเปิด บ้าน รถ เซฟ ตลอด 24 ช.ม Tel.0806338565,089-6005672",
        "description": "ช่างแน็ตกุญแจ\nรับเปิด บ้าน รถ เซฟ ตลอด 24 ช.ม Tel.0806338565,089-6005672\n เน้น เปิดรถ ทางรูกุญแจ ไม่ทำให้รถของท่านเสียหาย",
        "emails": [
            "naruwat2009@hotmail.com"
        ],
        "id": "1439652276258148",
        "location": {
            "city": "Pattaya",
            "country": "Thailand",
            "latitude": 12.92902,
            "longitude": 100.97929,
            "street": "327/257",
            "zip": "20150"
        },
        "name": "ช่างกุญแจพัทยา 080-6338565",
        "phone": "080-6338565,089-6005672"
    },
    {
        "about": "ช่างกุญแจเชียงราย\nช่างมอส 084-1504041,086-1797050\n รีโมทรถยนต์ Immobilizerรีโมทประตูบ้าน\n",
        "description": "ช่างกุญแจเชียงราย\nกุญแจหายนึกถึงเรา Moskeytime \n-ระบบฝังชิพ กุญแจรีโมท ทุกยี่ห้อ ทุกรุ่น\n-กุญแจระบบImmobilizer Push Start Smart Key\n-รับก๊อปปี้กุญแจระบบฝังชิพ กุญแจรีโมท ทุกยี่ห้อ\nบริการตลอด 24 ชั่วโมง\nช่างมอส 0841504041 ,0861797050",
        "id": "1462043127366643",
        "location": {
            "city": "Chiang Rai",
            "country": "Thailand",
            "latitude": 19.83658,
            "longitude": 99.73888,
            "street": "หน้า Big C และ ใน เซ็นทรัล",
            "zip": "57000"
        },
        "name": "ช่างกุญแจเชียงราย084-1504041",
        "phone": "084-1504041"
    },
    {
        "about": "ช่างกุญแจรถยนต์ บริการนอกที่ ราคาถูก",
        "description": "รับทำกุญแจรถยนต์ กุญแจฝังชิพ กุญแจรีโมท กุญแจหาย ลืมกุญแจไว้ในรถ  ทำกุญแจเพิ่ม กุญแจรถยนต์หาย  กุญแจรถมอเตอร์ไซด์บิ๊กไบค์(bigbike)หาย กุญแจเสีย กุญแจพัง กุญแจไขไม่ได้\nทำให้ดอกกุญแจที่หายไปไม่สามารถนำกลับมาใช้งานได้  ไม่งัด ไม่แงะ\nเรามีทีมงาน ช่างกุญแจระดับมืออาชีพคอยให้บริการครอบคลุมทุกพื้นที่ในกทม รับประกัน โดยช่างผู้ชำนาญ ติดต่อช่างกุญแจ088-537-9722 24ชม. www.ช่างกุญแจกรุงเทพ.com",
        "emails": [
            "matador2499@gmail.com"
        ],
        "id": "384835748341041",
        "location": {
            "city": "Bangkok",
            "country": "Thailand",
            "latitude": 13.782437686178,
            "longitude": 100.58228007153,
            "street": "20 มิถุนา แยก 20 แขวง ห้วยขวาง เขต ห้วยขวาง กรุงเทพมหานคร 10310",
            "zip": "10310"
        },
        "name": "ช่างกุญแจ",
        "phone": "088-537-9722"
    },
    {
        "about": "ช่างกุญแจ 24 ชม.",
        "description": "รับเปิดกุญแจบ้าน สำนักงาน คอนโด ห้องพัก หอพัก \n- กุญแจลูกบิด กุญแจประตูบานเลื่อน กุญแจประตูกระจก กุญแจโต๊ะ กุญแจลิ้นชัก \n- โดยช่างกุญแจผู้ชำนาญงาน (มีความชำนาญในการเปิดกุญแจบ้านทุกชนิด)\n- เปิดแบบไม่งัด ไม่รื้อ ไม่เจาะ เปิดทางรูกุญแจ ประตูบ้านของท่านจะไม่เสียหายเลย\n\n- รับเปิดกุญแจรถยนต์ BENZ BMW TOYOTA HONDA ISUZU MAZDA LEXUS\n- โดยช่างกุญแจผู้ชำนาญงาน PORSCHE VOLVO FORD PEUGEOT OPEL\n- MITSUBISHI NISSAN CHEVROLET HYUNDAI SUBARU SUZUKI \n- เปิดแบบไม่งัด ไม่รื้อ ไม่ถ่างประตู เปิดทางรูกุญแจ รถยนต์ของท่านจะไม่เสียหายเลย \n\n- รับเปิดกุญแจตู้เซฟทุกรุ่น, เปิดรหัสตู้เซฟ, ลืมรหัสเซฟ, เปิดตู้เซฟไม่ได้\n- มีความชำนาญในการเปิดเซฟ LEECO, KINGDOM, TAIYO, เปิดเซฟดิจิตอลทุกรุ่น\n- Dimond • Star • Algo • Lucky • Leed • Mosler • Chubb • Kingdom • Lips-Vago • President \n- Okashi IDO • Yale • Leeco • Marg • Taiyo • Konggo • King-Kong \n\n- รับซ่อมกุญแจชิฟ, ดอกหัก, ทำดอกกุญแจใหม่, เปิดกุญแจรถทุกชนิด \n- โดยช่างทำกุญแจผู้ชำนาญงาน IMMOBILIZER BENZ BMW และรถยนต์รุ่นอื่นๆ \n- มีความชำนาญในการปลดล็อคเกียร์ ปลดล็อคเบรคครัช รถยนต์ทุกรุ่น\n- ลืมกุญแจไว้ในรถ ลืมกุญแจไว้ในกระโปรงท้ายรถ \n\n- งานหนักๆ งานยากๆ กุญแจล็อค กุญแจพัง เซฟเปิดไม่ไ่ด้ เซฟจมน้ำ \n- ลืมกุญแจไว้ในบ้าน ลืมกุญแจไว้ในห้อง ลืมกุญแจไว้ในรถ ลืมกุญแกไว้ในเซฟ",
        "emails": [
            "keynonthaburi@hotmail.com"
        ],
        "id": "265690736776567",
        "location": {
            "street": "116  ซอย.ทรายทอง30  ตำบล.ท่าทราย อำเภอ.เมือง จังหวัด.นนทบุรี",
            "zip": "11000"
        },
        "name": "ช่างกุญแจ นนทบุรี 0800695877",
        "phone": "0800695877"
    },
    {
        "about": "เปิดรถ ทำกุญแจ เปลี่ยนกรอบรีโมท",
        "id": "524945174321527",
        "name": "ช่างกุญแจจังหวัดอ่างทอง0818525235",
        "phone": "0818525235"
    },
    {
        "about": "ช่างปานกุญแจ บริการ 24ชั่วโมง บริการนอกสถานที่ โทร 085-108-8797 ",
        "emails": [
            "parncarn@gmail.com"
        ],
        "id": "216122588494244",
        "location": {
            "city": "กทม",
            "street": "ลาดพร้าว",
            "zip": "10900"
        },
        "name": "ช่างกุญแจลาดพร้าว 085 108 8797",
        "phone": "085 108 8797"
    },
    {
        "about": "ช่างกุญแจขอนแก่น24ช.ม092-3451148",
        "description": "ช่างกุญแจขอนแก่น24ช.ม092-3451148",
        "id": "363375133804419",
        "location": {
            "city": "Khonkean",
            "country": "Thailand",
            "latitude": 16.436568257047,
            "longitude": 102.83468933184,
            "zip": "40000"
        },
        "name": "ช่างกุญแจขอนแก่น24ช.ม092-3451148",
        "phone": "0923451148"
    },
    {
        "about": "ช่างกุญแจกาญจนบุรี0860667975 รับเปิดรถ เปิดบ้าน เปิดเซฟ ฉุกเฉินตลอด24ชม.",
        "description": "ช่างกุญแจกาญจนบุรี 086-0667975 ทำกุญแจทุกชนิด ซ่อมกุญแจ รถยนต์ บ้าน เซฟ กุญแจเสีย กุแจพัง กุญแจไขไม่ได้ ซ่อมรีโมท รีโมทเสีย รีโมทกดไม่ติด ซ่อมเซฟ เปิดเซฟ ลืมรหัส เปิดรถ เปิดบ้าน บริการตลอดเวลา",
        "emails": [
            "sommaisirinak@hotmail.com"
        ],
        "general_info": "ช่างกุญแจ บริการนอกสถานที่ตลอดเวลา ",
        "id": "210902172402870",
        "location": {
            "city": "Kanchana",
            "country": "Thailand",
            "latitude": 14.032054660341,
            "longitude": 99.526305198669,
            "street": "284/66ถนนแสงชูโต ตำบลบ้านเหนือ อำเภอเมือง",
            "zip": "71000"
        },
        "name": "ช่างกุญแจกาญจนบุรี 0860667975",
        "phone": "0860667975"
    },
    {
        "about": "ร้าน ช่างกุญแจอุบลฯ รับทำกุญแจ ทั้งในและนอกสถานที่ ตลอด 24 ช.ม.",
        "id": "1623076814644521",
        "location": {
            "city": "Ubon Ratchathani",
            "country": "Thailand",
            "latitude": 15.2433996,
            "longitude": 104.8481827,
            "street": "อ.เมือง จ.อุบลราชธานี",
            "zip": "34000"
        },
        "name": "ช่างกุญแจอุบลฯ",
        "phone": "088-594-5236,088-583-8236"
    },
    {
        "about": "รับทำกุญแจรีโมทฝังชิพ รถยนต์และมอเตอร์ไซค์  รับทำกุญแจนอกสถานที่ เปิดรถ 24 ชั่วโมง",
        "emails": [
            "aun_66@live.com"
        ],
        "id": "622443721216103",
        "location": {
            "city": "Amphoe Lam Luk Ka",
            "country": "Thailand",
            "latitude": 13.952543411113,
            "longitude": 100.83072703735,
            "street": "13.934462, 100.743948",
            "zip": "12150"
        },
        "name": "ช่างกุญแจ รถยนต์ ลำลูกกา ปทุมธานี",
        "phone": "0891313986"
    },
    {
        "about": "ช่างกุญเเจหัวหิน แท้",
        "description": "บริการ เปิดบ้าน เปิดรถ 24 ชม. 089-1832244\nรับทำกุญแจทุกชนิด ( ช่างชาญ ) ร้านอยู่หน้า มูลนิธิหัวหิน ติดร้านขายดอกไม้",
        "id": "361619227298781",
        "name": "ช่างกุญแจหัวหิน  089-1832244 บริการ 24 ชม.ช่างชาญ"
    },
    {
        "about": "รับทำกุญแจ024 ชั่วโมง\n0854949369",
        "id": "312570768894187",
        "location": {
            "city": "Bangkok",
            "country": "Thailand",
            "latitude": 13.7973967,
            "longitude": 100.7116776,
            "street": "ถนนรามคำแหง",
            "zip": "10240"
        },
        "name": "ช่างกุญแจรามคำแหง 0854949369",
        "phone": "0854949369"
    },
    {
        "about": "เพื่อการโฆษณาร้าน",
        "id": "771073332912377",
        "location": {
            "city": "Chiang Mai",
            "country": "Thailand",
            "latitude": 18.93795,
            "longitude": 98.88748,
            "street": "เลยค่ายตชด334มานิดหน่อยอยู่ในตัวอำเภอแม่อาย",
            "zip": "50180"
        },
        "name": "ช่างกุญแจแม่อายเชียงใหม่0933140728",
        "phone": "0933140728"
    },
    {
        "about": "ช่างกุญแจระยอง 0815665718 ช่างหนุ่ม",
        "description": "เปิดรถ เปิดบ้าน เปิดเชฟ ลืมกุญแจรถ ลืมกุญแจบ้าน กุญแจหาย เปิดลูกบิด เปิดประตูบ้าน ช่างกุญแจรถ ต้องการรหัสเซฟ ลืมรหัสเซฟ กุญแจมอเตอร์ไซค์หาย ทำกูญแจมอเตอร์ไซค์ ช่างหนุ่มกุญแจระยอง 0815665718 ช่างหนุ่ม\n",
        "emails": [
            "noom_recycle@hotmail.com"
        ],
        "id": "941586205870114",
        "location": {
            "city": "Changwat Rayong",
            "country": "Thailand",
            "latitude": 12.693927702551,
            "longitude": 101.31759166718,
            "street": "82/78 ม.6 ต เชิงเนิน อ เมือง จ ระยอง",
            "zip": "21000"
        },
        "name": "ช่างกุญแจระยอง0815665718ช่างหนุ่ม",
        "phone": "0815665718"
    },
    {
        "about": "ช่างกุญแจกระบี่ 24 ชม.",
        "description": "รับทำกุญแจฝังชิบและกุญแจทั่วไป ในและนอกสถานที่ เปิดล็อคประตูรถบ้าน ด้วยเครื่องมือทันสมัยไม่งัดรถ บริการรวดเร็วทันใจ 24 ชั่วโมง โทร..0813979460 , 075601745 , 093-7267027",
        "general_info": "รับทำกุญแจฝังชิบและกุญแจทั่วไป ในและนอกสถานที่ เปิดล็อคประตูรถบ้าน ด้วยเครื่องมือทันสมัยไม่งัดรถ บริการรวดเร็วทันใจ 24 ชั่วโมง โทร..0813979460 , 075601745 , 093-7267027",
        "id": "619526178083475",
        "location": {
            "city": "Krabi",
            "country": "Thailand",
            "latitude": 8.0431439,
            "longitude": 99.0780658,
            "street": "380 ม.5 ต.โคกยาง อ.เหนือคลอง",
            "zip": "81130"
        },
        "name": "ช่างกุญแจกระบี่ 081-3979460",
        "phone": "0813979460 , 075-601745"
    },
    {
        "about": "ช่างกุญแจเพชรบุรี 082-5244766 ตลอด 24 ชม.",
        "emails": [
            "tom_tom_za@hotmail.com"
        ],
        "id": "1483002125278017",
        "location": {
            "city": "Amphoe Muang Phet Buri",
            "country": "Thailand",
            "latitude": 13.07332,
            "longitude": 99.94521,
            "street": "เพชรบุรี",
            "zip": "76000"
        },
        "name": "ช่างกุญแจเพชรบุรี082-5244766",
        "phone": "0825244766"
    },
    {
        "about": "อยุธยา โรจนะ ไฮเทค เปิดบ้าน เปิดรถยนต์ 0817581492  ช่างยันต์ ก๊อปปี้รีโมท",
        "description": " เปิดรถยนต์ เปิดบ้าน ก๊อปปี้รีโมท เปลี่ยนกรอบ-ถ่าน รวมรีโมท กุญแจฝังชิพ  ทำกุญแจทั่วไป   Tel.  0817581492",
        "emails": [
            "yansae@hotmail.com"
        ],
        "id": "347214865380289",
        "location": {
            "city": "Ayutthaya",
            "country": "Thailand",
            "latitude": 14.35793,
            "longitude": 100.70099,
            "street": "7/10 หมู่4 ต.คานหาม อ.อุทัย",
            "zip": "13210"
        },
        "name": "ช่างกุญแจอยุธยา ช่างยันต์ 0817581492",
        "phone": "0817581492"
    },
    {
        "about": "ศูนย์ให้บริการทำกุญแจฝังชิพรีโมทรถยนต์ ติดตั้งสัญญานกันขโมย เปิดรถ ตู้เซฟ ฉุกเฉิน24ชม.",
        "id": "508767519228195",
        "location": {
            "city": "Chonburi",
            "country": "Thailand",
            "latitude": 13.416991211388,
            "longitude": 100.99890438938,
            "street": "420 ม.5 ต.คลองตำหรุ อ.เมือง จ.ชลบุรี",
            "zip": "20000"
        },
        "name": "ช่างกุญแจชลบุรีอมตะนคร โทร 081-3531301 เปิดรถ เปิดบ้าน รับทำกุญแจ 24ชม.",
        "phone": "0813531301"
    },
    {
        "about": "บริการยี่สิบสี่ชั่วโมง",
        "id": "149178521908902",
        "location": {
            "city": "Ratchaburi",
            "country": "Thailand",
            "latitude": 13.52865,
            "longitude": 99.81326,
            "street": "chombung"
        },
        "name": "ช่างกุญแจราชบุรี 086-1747636",
        "phone": "0861747636,0909629942"
    },
    {
        "about": "แบ่งปันเมล็ดพันธุ์ทางความคิด. :)",
        "id": "131948640244551",
        "name": "ช่างทำกุญแจ"
    },
    {
        "id": "113739585626388",
        "location": {
            "city": "Khanu Woralaksaburi",
            "country": "Thailand",
            "latitude": 16.0667,
            "longitude": 99.8667,
            "street": "กำแพงเพชร",
            "zip": "62130"
        },
        "name": "ช่างกุญแจกำแพงเพชร-พิจิตร",
        "phone": "0845614992"
    },
    {
        "about": "เปี๊ยกกุญแจ  Big C อุดรธานี  รับทำกุญแจ (Chip) ในและนอกสถานที่  โทร. 081-7085393",
        "description": "เปี๊ยกกุญแจ Big C อุดรธานี รับทำกุญแจ ทุกชนิด ทั้งในและนอกสถานที่ กุญแจหาย Copy เพิ่ม มี Chip และไม่มี Chip ติดต่อ เปี๊ยกกุญแจ Big C อุดรธานี",
        "emails": [
            "piekudon16@hotmail.com"
        ],
        "id": "381386628706736",
        "location": {
            "city": "Udon Thani",
            "country": "Thailand",
            "latitude": 17.39122,
            "longitude": 102.77796,
            "street": "Big C อุดรธานี",
            "zip": "41000"
        },
        "name": "ช่างกุญแจอุดรธานี - ช่างเปี๊ยก 0817085393",
        "phone": "0817085393"
    },
    {
        "id": "477127009057101",
        "location": {
            "city": "Bangkok",
            "country": "Thailand",
            "latitude": 13.7809887,
            "longitude": 100.637352,
            "street": "ลาดพร้าว",
            "zip": "10000"
        },
        "name": "ช่างกุญแจ กรุงเทพ",
        "phone": "0874884333"
    },
    {
        "about": "ช่างกุญแจเพชรเกษม ช่างกุญแจบางแค ช่างกุญแจภาษีเจิญ ช่างกุญแจพุทธมลฑลกุญแจImmbilizer รีโมทรถยต์ ",
        "description": "ช่างกุญแจเพชรเกษม ช่างกุญแจบางแค ช่างกุญแจภาษีเจิญ ช่างกุญแจพุทธมลฑล ช่างกุญแจตลิ่งชัน ช่างกุญแจปิ่นเกล้า ช่างกุญแจหนองแขม ช่างกุญแจท่าพระ ช่างกุญแจจรัญสนิทวงศ์ \n\nบริการกุญแจนอกสถาที่ 24 ชั่วโมง\nกุญแจImmobilizer\nรีโมทรถยนต์\nเปิดกุญแจ\nเปิดกุญแจรถยนต์\nเปิดกุญแจบ้าน\n\n086-3254660\n089-0439041\nLineID:dreamza4",
        "id": "943695788973907",
        "location": {
            "city": "Bangkok",
            "country": "Thailand",
            "latitude": 13.712119962428,
            "longitude": 100.42980194092,
            "street": "บางแค เพชรเกษม กาญจขนาภิเษก บรมราชชนนี บางบอน พระราม2",
            "zip": "10160"
        },
        "name": "ช่างกุญแจ 086-3254660 ช่างกุญแจเพชรเกษม ช่างกุญแจบางแค Dream Super Key",
        "phone": "0863254660"
    }
]