[
    {
        "id": "587723911255363",
        "location": {
            "city": "Rayohng",
            "country": "Thailand",
            "latitude": 13.36899,
            "longitude": 100.9957,
            "street": "ระยอง แกลง กะเฉด บ้านเพ ปลวกแดง บ้านฉาง มาบตาพุด สัตหีบ",
            "zip": "20000"
        },
        "name": "ช่างกุญแจ ระยอง 0874884333",
        "phone": "0874884333"
    },
    {
        "about": "รับทำกุญแจทุกชนิด  รับเปิดบ้าน-รถและตู้เซฟ  ลืมกุญแจ ทำลูกหาย  โทรเบอร์ 083-892-0908 , 093-020-2528",
        "description": "รับทำกุญแจทุกชนิด  รับเปิดบ้าน-รถและตู้เซฟ  ลืมกุญแจ ทำลูกหาย  โทรเบอร์ 083-892-0908 , 093-020-2528   หรือ โพสใต้เพจคับ   - ช่างเบิ้ม",
        "id": "1559734904307053",
        "location": {
            "city": "Pathum Thani",
            "country": "Thailand",
            "latitude": 13.965939300357,
            "longitude": 100.53564814431,
            "street": "รับเปิดบ้าน-รถและตู้เซฟ ทำลูกหาย  โทร 083-892-0908",
            "zip": "12130"
        },
        "name": "ช่างกุญแจปทุมธานี",
        "phone": "0838920908"
    },
    {
        "id": "172105529611917",
        "location": {
            "city": "Bangkok",
            "country": "Thailand",
            "latitude": 13.75395,
            "longitude": 100.50224,
            "street": "อ่อนนุช อุดมสุข ศรีนครรินทร์ สวนหลวง เทพพารักษ์",
            "zip": "10000"
        },
        "name": "ช่างกุญแจอ่อนนุช อุดมสุข 087 488 4333",
        "phone": "0874884333"
    },
    {
        "id": "745785708771885",
        "location": {
            "city": "Khonkean",
            "country": "Thailand",
            "latitude": 16.47889,
            "longitude": 102.82676,
            "street": "56-58 ถนนประชาสโมสร อ.เมือง จ.ขอนแก่น",
            "zip": "40000"
        },
        "name": "ช่างกุญแจขอนแก่น 0878535855 ช่างกรณ์",
        "phone": "087-8535855"
    },
    {
        "about": "ช่างเคหัวหินรับทำกุญแจ 0868865348",
        "id": "239308572885493",
        "location": {
            "city": "Amphoe Hua Hin",
            "country": "Thailand",
            "street": "Hua Hin",
            "zip": "77120"
        },
        "name": "ช่างกุญแจหัวหิน ช่างK ร้านK การกุญแจ-086-8865348",
        "phone": "0868865348"
    },
    {
        "about": "ช่างกุญแจ24ชั่วโมงจ082-0707950",
        "description": "ช่างกุญแจอยุธยา บริการฉุกเฉิน24ชั่วโมง 082-0707950",
        "id": "463841153722798",
        "location": {
            "city": "Amphoe Phra Nakhon Si Ayutthaya",
            "country": "Thailand",
            "latitude": 14.351800666667,
            "located_in": "408539742506778",
            "longitude": 100.53300266667,
            "zip": "13000"
        },
        "name": "ช่างกุญแจอยุธยา 24ช.ม082-0707950",
        "phone": "0820707950"
    },
    {
        "about": "บริการนอกสถานที่ 24ชม.โทร0810950979หรือ0942422864",
        "id": "462785367159988",
        "location": {
            "city": "Satul",
            "country": "Thailand",
            "latitude": 6.92582,
            "longitude": 99.78754,
            "street": "150  ม.4   ต.กำแพง  อ.ละงู  จ.สตูล 91110",
            "zip": "91110"
        },
        "name": "ช่างกุญแจบิ๊กคีย์สตูล ละงู",
        "phone": "081-095-0979"
    },
    {
        "id": "516302648432154",
        "location": {
            "city": "Bangkok",
            "country": "Thailand",
            "latitude": 13.75395,
            "longitude": 100.50224,
            "street": "บางเขน หลักสี่ ดอนเมือง วิภาวดี รังสิต กรุงเทพ",
            "zip": "10230"
        },
        "name": "ช่างกุญแจบางเขน 082 473 1555",
        "phone": "0824731555"
    },
    {
        "id": "440798639347038",
        "location": {
            "city": "Changwat Kanchanaburi",
            "country": "Thailand",
            "latitude": 13.93725,
            "longitude": 99.30342,
            "street": "กาญจนบุรี",
            "zip": "71000"
        },
        "name": "ช่างกุญแจกาญจนบุรี 087 488 4333",
        "phone": "0874884333"
    },
    {
        "id": "196172973890038",
        "location": {
            "city": "Bangkok",
            "country": "Thailand",
            "latitude": 13.75395,
            "longitude": 100.50224,
            "street": "ลาดกระบัง สุวรรณภูมิ บางนา บางพลี เทพารักษ์ สำโรง ศรินครินทร์ อ่อนนุช อุดมสุข",
            "zip": "10000"
        },
        "name": "ช่างกุญแจลาดกระบัง 082 473 1555 ช่างกุญแจสุวรรณภูมิ",
        "phone": "0824731555"
    },
    {
        "id": "679737085376726",
        "location": {
            "city": "Chonburi",
            "country": "Thailand",
            "latitude": 13.36211,
            "longitude": 100.98371,
            "street": "ศรีราชา บางแสน พัทยา ชลบุรี จอมเทียน นาเกลือ บางละมุง สัตหีบ หนองมน บางพระ",
            "zip": "20300"
        },
        "name": "ช่างกุญแจศรีราชา 087 488 4333",
        "phone": "0874884333"
    },
    {
        "id": "246592848813484",
        "location": {
            "city": "Chonburi",
            "country": "Thailand",
            "latitude": 12.8974533,
            "longitude": 100.8690948,
            "street": "พัทยา บางแสน จอมเทียน บางละมุง นาเกลือ ชลบุรี",
            "zip": "20300"
        },
        "name": "ช่างกุญแจพัทยา 087 488 4333",
        "phone": "0874884333"
    },
    {
        "id": "1541030609481267",
        "location": {
            "city": "Nang Rong",
            "country": "Thailand",
            "latitude": 14.65327,
            "longitude": 102.72372,
            "street": "163/2 ถ.สรรพกิจโกศล ต.นางรอง อ.นางรอง จ.บุรีรัมย์",
            "zip": "31110"
        },
        "name": "ช่างกุญแจอำเภอนางรอง",
        "phone": "0840176485"
    },
    {
        "id": "610442429026468",
        "location": {
            "city": "Bangkok",
            "country": "Thailand",
            "latitude": 13.8163948,
            "longitude": 100.5934982,
            "street": "โชคชัย 4",
            "zip": "10000"
        },
        "name": "ช่างกุญแจโชคชัย 4 โทร. 087 488 4333",
        "phone": "087 488 4333"
    },
    {
        "about": "ช่างกุญแจ เชียงราย 093-2382008",
        "id": "1396014174038661",
        "name": "ช่างกุญแจ เชียงราย 093-2382008"
    },
    {
        "about": "บริการเปิดรถ เปิดบ้าน เปิดล็อกกุญแจทุกชนิด ",
        "id": "441115869409190",
        "location": {
            "city": "Amphoe Bang Phli",
            "country": "Thailand",
            "latitude": 13.6,
            "longitude": 100.717,
            "street": "บิ๊กซีบางพลี",
            "zip": "10540"
        },
        "name": "ช่างกุญแจ บางพลี บางนา กิ่งแก้ว คลองขุด 0895978034",
        "phone": "0895978034"
    },
    {
        "id": "437942356318904",
        "location": {
            "city": "Bangkok",
            "country": "Thailand",
            "latitude": 13.75395,
            "longitude": 100.50224,
            "street": "เพลินจิต ชิดลม บางรัก สยาม ราชเทวี ประตูน้ำ สุขุมวิท สีลม สาทร พญาไท รางน้ำ สี่พระยา",
            "zip": "10000"
        },
        "name": "ช่างกุญแจเพลินจิต ชิดลม 083 1111 938",
        "phone": "0831111938"
    },
    {
        "id": "201003890023477",
        "location": {
            "city": "Bangkok",
            "country": "Thailand",
            "latitude": 13.75395,
            "longitude": 100.50224,
            "street": "สุพรรณบุรี สระบุรี ลพบุรี อยุธยา ชัยนาท สิงห์บุรี นครสวรรค์ สุโขทัย พิจิตร พิษณุโลก อยุธยา",
            "zip": "100000"
        },
        "name": "ช่างกุญแจสุพรรณบุรี 087 488 4333",
        "phone": "0874884333"
    },
    {
        "id": "210707489139470",
        "location": {
            "city": "Bangkok",
            "country": "Thailand",
            "latitude": 13.75395,
            "longitude": 100.50224,
            "street": "มหาดไทย รามคำแหง กรุงเทพ",
            "zip": "10000"
        },
        "name": "ช่างกุญแจมหาดไทย 087 488 4333",
        "phone": "087 488 4333"
    },
    {
        "id": "807483109263096",
        "location": {
            "city": "Sakae",
            "country": "Thailand",
            "latitude": 13.83917,
            "longitude": 102.10127,
            "street": "สระแก้ว",
            "zip": "27000"
        },
        "name": "ช่างกุญแจสระแก้ว 087 488 4333",
        "phone": "087 488 4333"
    },
    {
        "about": "ช่างกุญแจสระบุรี มวกเหล็ก24ช.ม083-8864391",
        "description": "ช่างกุญแจสระบุรี มวกเหล็ก24ช.ม083-8864391",
        "id": "792952190718467",
        "location": {
            "city": "Ban Muak Lek",
            "country": "Thailand",
            "latitude": 14.636073145332,
            "longitude": 101.11408913066,
            "zip": "18180"
        },
        "name": "ช่างกุญแจสระบุรี มวกเหล็ก24ช.ม083-8864391",
        "phone": "0838864391"
    },
    {
        "id": "813165185413515",
        "location": {
            "city": "Rayong",
            "country": "Thailand",
            "latitude": 12.8439497,
            "longitude": 101.17943165,
            "street": "นิคมพัฒนา",
            "zip": "21180"
        },
        "name": "ช่างกุญแจ นิคมพัฒนา 0814298846",
        "phone": "0814298846"
    },
    {
        "id": "506289606159530",
        "location": {
            "city": "Chonburi",
            "country": "Thailand",
            "latitude": 13.36899,
            "longitude": 100.9957,
            "street": "พนัสนิคม พานทอง ดอนหัวฬ่อ อมตะนคร ชลบุรี",
            "zip": "20000"
        },
        "name": "ช่างกุญแจพนัสนิคม 087 488 4333",
        "phone": "087 488 4333"
    },
    {
        "id": "220774088122380",
        "location": {
            "city": "Bangkok",
            "country": "Thailand",
            "latitude": 13.75395,
            "longitude": 100.50224,
            "street": "ดอนเมือง กรุงเทพ",
            "zip": "10000"
        },
        "name": "ช่างกุญแจดอนเมือง 087 488 4333",
        "phone": "087 488 4333"
    },
    {
        "about": "ช่างกุญแจตู้เซพ อยุธยา 082-0707950",
        "description": "ช่างกุญแจตู้เซพอยุธยา บริการรับทำกุญแจ24ชั่วโมง\n082-0707950 บริการถึงที่24ชั่วโมง",
        "emails": [
            "art_ming@hotmail.com"
        ],
        "id": "727964850564195",
        "location": {
            "city": "Ayuthaya",
            "country": "Thailand",
            "zip": "13000"
        },
        "name": "ช่างกุญแจตู้เซพ อยุธยา 082-0707950",
        "phone": "0820707950"
    }
]