[
    {
        "id": "148115575363470",
        "location": {
            "city": "Chonburi",
            "country": "Thailand",
            "latitude": 13.2394197067,
            "longitude": 101.197125,
            "street": "ชลบุรี พัทยา อมตะนคร จอมเทียน บางแสน ศรีราชา บางละมุง สัตหีบ แหลมฉบัง",
            "zip": "20000"
        },
        "name": "ช่างกุญแจชลบุรี 087 488 4333",
        "phone": "0874884333"
    },
    {
        "about": "ช่างกุญแจนครราชสีมา ทำกุญแจรีโมท กุญแจฝังชิพ24ช.ม082-0707950",
        "description": "ช่างกุญแจนครราชสีมา ทำกุญแจรีโมท กุญแจฝังชิพ 24ช.ม082-0707950",
        "id": "1398582303724970",
        "location": {
            "city": "Nakhon Ratchasima",
            "country": "Thailand",
            "latitude": 14.978716193807,
            "longitude": 102.07925888207,
            "zip": "30000"
        },
        "name": "ช่างกุญแจนครราชสีมา ทำกุญแจรีโมท กุญแจฝังชิพ24ช.ม082-0707950",
        "phone": "0820707950"
    },
    {
        "about": "บริการ เปิดบ้าน เปิดรถยนต์นอกสถานที่โทร 081-6967332",
        "description": "ช่างกุญแจ OKD-KEY Service 24hr ช่างกุญแจ ปทุมธานี 081-6967332 www.okd-key.com บริการ เปิดบ้าน เปิดรถยนต์ นอกสถานที่ รับทำกุญแจรถยนต์ ญี่ปุ่น ยุโรป ระบบกุญแจฝังชิพ Immobilizer กุญแจรีโมท กุญแจบ้าน รถยนต์หายหมดทำใหม่ได้้ มาตราฐานศูนย์ บริการว่องไว มีปัญหาเรื่องกุญแจ โทรเลย 081-6967332 บริการเปิดบ้าน ลูกบิด แม่กุญแจ ลืมกุญแจบ้านกุญแจหาย กุญแจสายยู ประตูกระจก\nบริการเปิดรถยนต์ ลืมกุญแจรถ กุญแจหาย\n- Mercedes-Benz. C180. C200. C250. E200. E240. E250. S320\n- BMW. 318i. 320d. 325i. 520d. 525i. 730il. 730ld. X1. X3. X5. X6. BMWMini. Series 3 5 7\n- Volkswagen. Beetle. Polo. Golf. Jetta. Passat. Touran. Sharan. Phaeton. Tiguan. Touareg\n- Volvo. S80. XC90\n- Toyota Camry. Altis. Vigo. Vios\n- Honda. Accord. City. Civic. Cr-v. Jazz. Freed. Brio.\n- Ford. Escape. Everest. Focus. Fiesta. Ranger\n- Mazda2 Mazda3\n- Hyundai. H1. Sonata\n- Nissan. March. Tiida. Almera. Teana\n- ISUZU. D-Max. V-Cross. Mu-7\nบริการเปิดตู้เซฟ\nช่างกุญแจ ปทุมธานี ช่างกุญแจ รังสิต ช่างกุญแจ ดอนเมือง ช่างกุญแจ สายไหม ช่างกุญแจ ธัญบุรี ช่างกุญแจ ลำลูกกา ช่างกุญแจ คลองหลวง ช่างกุญแจ นวนคร ช่างกุญแจ นครนายก ช่างกุญแจ วังน้อย ช่างกุญแจ องครักษ์ ช่างกุญแจ สะพานใหม่",
        "emails": [
            "kapolotum01@hotmail.com"
        ],
        "id": "285768458226670",
        "location": {
            "city": "Bangkok",
            "country": "Thailand",
            "latitude": 13.977715118904,
            "longitude": 100.64071928528,
            "zip": "12130"
        },
        "name": "ช่างกุญแจ OKD Key Service 24hr ช่างกุญแจ 24 ชม. 0817606868 0816967332",
        "phone": "081-6967332"
    },
    {
        "about": "เปิดรถ เปิดบ้าน เปิดเซฟ ทำกุญแจ immobilizer ติดต่อ 08-4422-4688//08-6954-5644",
        "description": "รับทำกุญแจฝั่งชิพ ทุกชนิด หายและเพิ่มใหม่ เขียนกล่องรถ ecu ทุกรุ่น เปิดรถนอกสถานที",
        "id": "176375525906875",
        "location": {
            "city": "Amphoe Muang Nakhon Si Thammarat",
            "country": "Thailand",
            "street": "25/1ม.3 ต.โคกกลอย อ.ตะกั่วทุ่ง จ.พังงา     Khok Kloi, Phangnga, Thailand 82140",
            "zip": "82140"
        },
        "name": "ช่างกุญแจพังงา ภูเก็ต 24 ชั่วโมง บริการด้านกุญแจครบวงจร",
        "phone": "08-4422-4688"
    },
    {
        "id": "1035400689805803",
        "location": {
            "city": "Ang Thong",
            "country": "Thailand",
            "latitude": 14.5833,
            "longitude": 100.45,
            "street": "อำเภอเมือง อ่างทอง",
            "zip": "14000"
        },
        "name": "ช่างกุญแจอ่างทอง อำเภอเมืองอ่างทอง 0818216371",
        "phone": "0818216371"
    },
    {
        "id": "149353291922911",
        "location": {
            "city": "Chonburi",
            "country": "Thailand",
            "latitude": 13.36211,
            "longitude": 100.98371,
            "street": "บ่อวิน ระยอง บ้านฉาง ปลวงแดง มาบตาพุด แกลง ชลบุรี",
            "zip": "20300"
        },
        "name": "ช่างกุญแจบ่อวิน ปลวงแดง บ้านฉาง 087 488 4333",
        "phone": "0874884333"
    },
    {
        "id": "146261448886997",
        "location": {
            "city": "Bangkok",
            "country": "Thailand",
            "latitude": 13.75395,
            "longitude": 100.50224,
            "street": "พัฒนาการ ประเวศ สวนหลวง อ่อนนุช อุดมสุข คลองตัน",
            "zip": "10000"
        },
        "name": "ช่างกุญแจพัฒนาการ 087 488 4333",
        "phone": "0874884333"
    },
    {
        "id": "432523560177081",
        "location": {
            "city": "Bangkok",
            "country": "Thailand",
            "latitude": 13.75395,
            "longitude": 100.50224,
            "street": "ลำลูกกา ปทุมธานี รังสิต ดอนเมือง บางเขน หลักสี่ วังน้อย",
            "zip": "10000"
        },
        "name": "ช่างกุญแจลำลูกกา 082 473 1555",
        "phone": "0824731555"
    },
    {
        "id": "540236622694328",
        "location": {
            "city": "Bangkok",
            "country": "Thailand",
            "latitude": 13.75395,
            "longitude": 100.50224,
            "street": "สุรินทร์ สระแก้ว ปราจีนบุรี โคราช ขอนแก่น อุดร ตราด จันทบุรี",
            "zip": "10000"
        },
        "name": "ช่างกุญแจสุรินทร์ 087 488 4333",
        "phone": "0874884333"
    },
    {
        "about": "รับทำกุญแจอิมโมบิไลเซอร์และกุญแจฝังชิพ",
        "id": "507529442709795",
        "location": {
            "city": "Nakon Nayok",
            "country": "Thailand",
            "latitude": 14.53236,
            "longitude": 100.92238,
            "street": "69",
            "zip": "18000"
        },
        "name": "ช่างกุญแจนครนายกองครักษ์บ้านนา  089-9953363",
        "phone": "0899953363"
    },
    {
        "id": "357917020981556",
        "location": {
            "city": "Rayohng",
            "country": "Thailand",
            "latitude": 13.36899,
            "longitude": 100.9957,
            "street": "ระยอง แกลง ปลวงแดง บ้านฉาง มาบตาพุด บ้านเพ สัตหีบ นิคมพัฒนา",
            "zip": "20000"
        },
        "name": "ช่างกุญแจ ระยอง แกลง ปลวงแดง 0824731555",
        "phone": "0824731555"
    },
    {
        "id": "405927012839162",
        "location": {
            "city": "Bangkok",
            "country": "Thailand",
            "latitude": 13.75395,
            "longitude": 100.50224,
            "street": "พิจิตร พิษณุโลก เพชรบูรณ์ นครสวรรค์ เชียงใหม่ เชียงราย ลำพูน ลำปาง น่าน แพร่ กำแพงเพชร",
            "zip": "10000"
        },
        "name": "ช่างกุญแจพิจิตร 087 488 4333",
        "phone": "0874884333"
    },
    {
        "about": "ร้านกุญแจกาญจนบุรี จุ๊งฝัด รับทำกุญแจทุกชนิด หลังสุสานทหารสัมพันธมิตร Tel.0895496010",
        "description": "ช่างทำกุญแจกาญจนบุรี (จุ๊งฝัด) อยู่หลังสุสานทหารสัมพันธมิตร โทร.089-5496010 , 081-9425759\nลูกค้าสามารถโทรเรียกได้ตลอด 24 ชั่วโมงครับ ไม่ว่าจะให้เปิดบ้าน รถ และรับทำกุญแจฝังชิพอิมโมบิไลเซอร์ ก๊อปรีโมท เปลี่ยนกรอบรีโมท",
        "id": "523641207733221",
        "location": {
            "city": "กาญจนบุรี",
            "street": "ถ.เจ้าขุนเณร ต.บ้านเหนือ อ.เมือง",
            "zip": "71000"
        },
        "name": "ช่างกุญแจกาญจนบุรี จุ๊งฝัด หลังสุสานทหารสัมพันธมิตร",
        "phone": "0895496010"
    },
    {
        "about": "บริการรับกุญแจทุกชนิดฝังชิปรีโมทเปิดรถ บ้าน",
        "id": "422241564569122",
        "name": "ช่างกุญแจ ปัตตานี 0835107948 กุญแจฝังชิปรีโมท0883881062"
    },
    {
        "id": "221415988013839",
        "location": {
            "city": "Bangkok",
            "country": "Thailand",
            "latitude": 13.75395,
            "longitude": 100.50224,
            "street": "ราษฎร์บูรณะ สุขสวัสดิ์ บางขุนเทียน บางบอน บางพลัด เพชรเกษม ท่าพระ บางแค พุทธมณฑล พระราม 2",
            "zip": "10000"
        },
        "name": "ช่างกุญแจราษฎร์บูรณะ สุขสวัสดิ์ 083 1111 938",
        "phone": "0831111938"
    },
    {
        "id": "466393353435900",
        "location": {
            "city": "Bangkok",
            "country": "Thailand",
            "latitude": 13.75395,
            "longitude": 100.50224,
            "street": "ห้วยขวาง รัชดาภิเษก ดินแดง ลาดพร้าว รามคำแพง",
            "zip": "10000"
        },
        "name": "ช่างกุญแจห้วยขวาง 082 473 1555",
        "phone": "0824731555"
    },
    {
        "id": "1580623888828732",
        "location": {
            "city": "Nonthaburi",
            "country": "Thailand",
            "latitude": 13.8665152,
            "longitude": 100.4799805,
            "street": "บางกรวย",
            "zip": "11130"
        },
        "name": "ช่างกุญแจบางกรวย 087 488 4333",
        "phone": "087 488 4333"
    },
    {
        "id": "1497097070544512",
        "location": {
            "city": "ระยอง",
            "latitude": 12.685698509216,
            "longitude": 101.31839752197
        },
        "name": "ร้านช่างหนุ่ม กุญแจระยอง",
        "phone": "0815665718"
    },
    {
        "description": "รับทำกุญแจรถยนต์ กุญแจรถหาย ลืมกุญแจไว้ในรถ กรอบรีโมท กุญแจชิพ  กุญแจรีโมท  honda toyota nissan mitsubishi  isuzu mazda chevrolet อื่นๆ",
        "id": "385936044949756",
        "location": {
            "city": "Bangkok",
            "country": "Thailand",
            "latitude": 13.7533598,
            "longitude": 100.5048294,
            "street": "ไทย",
            "zip": "10220"
        },
        "name": "ช่างกุญแจ 0866171482",
        "phone": "0866171482"
    },
    {
        "about": "ช่างกุญแจภูเก็ต 089-6481818 เปิดประตูบ้าน รถ ตู้เซฟ กุญแจรีโมทฝังซิปราคาถูก",
        "description": "ช่างกุญแจกะตะ ภูเก็ต  089-648-1818 รับทำกุญแจทุกชนิด กุญแจรถ กุญแจบ้าน กุญแจสำนักงาน       ตู้เซฟ  บริการทั้งในและนอกสถานที่ เปิดรถ เปิดบ้าน กุญแจรีโมทฝังซิป Immobilizer โตโยต้า ฮอนด้า      นิสสัน ฟอร์ด มิตซู และยี่ห้ออื่นๆ      ค่าบริการทำดอกกุญแจรีโมทฝังซิปเราทำได้ถูกกว่าที่ท่านทำที่ศูนย์บริการ\n",
        "id": "529151633809490",
        "location": {
            "city": "Phuket",
            "country": "Thailand",
            "latitude": 7.8237775100878,
            "longitude": 98.302246892452,
            "street": "161 ถนนปฎัก ตำบลกะรน อำเภอเมือง",
            "zip": "83100"
        },
        "name": "ช่างกุญแจภูเก็ต 089-6481818 เปิดประตูบ้าน รถ ตู้เซฟ กุญแจรีโมทฝังซิปราคาถูก",
        "phone": "089-648-1818"
    },
    {
        "about": "ช่างกุญแจลพบุรี พัฒนานิคม โทร092-3451148",
        "id": "609853552395032",
        "location": {
            "city": "Phatthana Nikhom",
            "country": "Thailand",
            "latitude": 14.85619,
            "longitude": 100.90656,
            "street": "77",
            "zip": "15220"
        },
        "name": "ช่างกุญแจลพบุรี พัฒนานิคม โทร 092-3451148",
        "phone": "0923451148"
    },
    {
        "about": "www.okd-key.com ช่างกุญแจนนทบุรี 081-7606868 ปลดล็อค เปิดบ้าน เปิดรถ ฉุกเฉิน 24 ชม.",
        "description": "บริการรับทำกุญแจทุกชนิด\nกุญแจบ้าน รถยนต์ รถมอเตอร์ไซค์\nกุญแจอิมโมบิไลเซอร์ ระบบฝังชิพ กุญแจรีโมท\nบริการเปิดบ้าน เปิดรถ ปลดล๊อค \nมีบริการนอกสถานที่ ฉุกเฉิน 24 ชั่วโมง\nติดต่อ ช่างแขก 081-7606868",
        "emails": [
            "swk1965@hotmail.com"
        ],
        "id": "235807373177276",
        "location": {
            "city": "Amphoe Lat Lum Kaeo",
            "country": "Thailand",
            "latitude": 14.04167,
            "longitude": 100.41546,
            "street": "ร้านช่างแขก กุญแจ ลาดหลุมแก้ว 081-7606868",
            "zip": "12140"
        },
        "name": "แขกช่างกุญแจ คูบางหลวง ระแหง ลาดหลุมแก้ว นพวงศ์ บางเลน นนทบุรี 081-7606868",
        "phone": "0817606868"
    },
    {
        "about": "รับทำกุญแจทุกชนิด24ชม.\nเปิดรถ/บ้าน/ตู้เซฟ\nรับทำกุญแจชิฟ/รีโมท/อิมโมบิไลเซอร์\n",
        "description": "รับทำและซ่อมกุญแจทุกชนิด 24ชม.\nรับทำกุญแจหาย/ทุกชนิด/ทุกยี่ห้อ\nรับเปิด/รถยนต์/บ้าน/ตู้เซฟ\nรับทำกุญแจ/ฝังชิพ/ลงโปรแกรมอิมโมบิไลเซอร์\nรับก๊อปปี้รีโมท/รถยนต์/บ้าน/คีย์การ์ด\nรับเปลี่ยนกรอบรีโมทรถยนต์/ถ่านรีโมทรถยนต์\nบริการในและนอกสถานที่24ชม.\nร้านอยู่หน้าธนาคารออมสิน สาขาสะพานจอมเกล้า\nเบอร์ติดต่อ 081-0051363/081-1979691",
        "emails": [
            "wisanu-np1981@hotmail.com"
        ],
        "id": "664125723664834",
        "location": {
            "city": "Phetchaburi",
            "country": "Thailand",
            "latitude": 13.75365,
            "longitude": 100.530655,
            "street": "หน้าธนาคารออมสิน สาขาสะพานจอมเกล้า ถ.พงศ์สุริยา",
            "zip": "7600"
        },
        "name": "ร้านกุญแจช่างหนึ่งเพชรบุรี 24ชม.081- 0051363",
        "phone": "0810051363"
    },
    {
        "about": "Key",
        "id": "1544899612414044",
        "name": "ช่างกุญแจชลบุรีเขานอ้ย0804926475"
    },
    {
        "id": "1384931955075198",
        "location": {
            "city": "Bangkok",
            "country": "Thailand",
            "latitude": 13.75395,
            "longitude": 100.50224,
            "street": "วิภาวดี รังสิต ลาดพร้าว ดินแดง หลักสี่ บางเขน บางนา นนทบุรี ปทุมธานี รามอินทรา",
            "zip": "10000"
        },
        "name": "ช่างกุญแจวิภาวดี รังสิต 0874884333",
        "phone": "0874884333"
    }
]