[
    {
        "id": "154989098003414",
        "location": {
            "city": "Petchabun",
            "country": "Thailand",
            "latitude": 16.41929,
            "longitude": 101.15972,
            "street": "หัวหิน ชะอำ ประจวบ เพชรบุรี ราชบุรี",
            "zip": "700000"
        },
        "name": "ช่างกุญแจหัวหิน ช่างกุญแจชะอำ 082 473 1555",
        "phone": "0824731555"
    },
    {
        "id": "177292375761703",
        "location": {
            "city": "Bangkok",
            "country": "Thailand",
            "latitude": 13.7645302,
            "longitude": 100.5475998,
            "street": "ห้วยขวาง ดินแดง สุทธิสาร รัชดาภิเษก ลาดพร้าว บางกะปิ รามคำแหง พระราม 9 ดินแดง",
            "zip": "10320"
        },
        "name": "ช่างกุญแจห้วยขวาง 087 488 4333 ช่างกุญแจดินแดง",
        "phone": "0874884333"
    },
    {
        "about": "-บริการรับทำกุญแจ ปลดล็อคทุกชนิด ซ่อมแก้ไขทุกกรณี กุญแจระบบฝังชิพทุกรุ่น 0923451148",
        "id": "343619615772855",
        "location": {
            "city": "Ayuthaya",
            "country": "Thailand",
            "latitude": 14.320992456544,
            "longitude": 100.63476990472,
            "zip": "13000"
        },
        "name": "ช่างกุญแจโรจนะ อยุธยา082-0707950บริการ24ชั่วโมง",
        "phone": "0820707950"
    },
    {
        "about": "ช่างกุญแจลพบุรี บ้านหมี่ โทร082-0707950",
        "description": "ช่างกุญแจลพบุรี บ้านหมี่ โทร082-0707950",
        "id": "782423835118185",
        "location": {
            "city": "Ban Mi",
            "country": "Thailand",
            "latitude": 15.08646,
            "longitude": 100.54186,
            "street": "56",
            "zip": "15110"
        },
        "name": "ช่างกุญแจลพบุรี บ้านหมี่ โทร082-0707950",
        "phone": "0820707950"
    },
    {
        "id": "1432872380297663",
        "location": {
            "city": "Changwat Rayong",
            "country": "Thailand",
            "latitude": 12.68957,
            "longitude": 101.29684,
            "street": "นิคมพัฒนา ปลวกแดง ระยอง",
            "zip": "21000"
        },
        "name": "ช่างกุญแจนิคมพัฒนา 087 488 4333",
        "phone": "087 488 4333"
    },
    {
        "id": "1375430536016939",
        "location": {
            "city": "Bangkok",
            "country": "Thailand",
            "latitude": 13.75395,
            "longitude": 100.50224,
            "street": "กิ่งแก้ว บางนา บางพลี ร่มเกล้า ลาดกระบัง สุวรรณภูมิ สวนหลวง พัฒนาการ บางบ่อ บางวัว",
            "zip": "10000"
        },
        "name": "ช่างกุญแจกิ่งแก้ว 087 488 4333",
        "phone": "0874884333"
    },
    {
        "about": "ช่างกุญแจบุรีรัมย์ 24ช.ม 092-8721178",
        "description": "ช่างกุญแจบุรีรัมย์ 24ช.ม 092-8721178",
        "id": "655847264523879",
        "location": {
            "city": "Changwat Buri Ram",
            "country": "Thailand"
        },
        "name": "ช่างกุญแจบุรีรัมย์ 24ช.ม 092-8721178",
        "phone": "0928721178"
    },
    {
        "id": "670951903033002",
        "location": {
            "city": "Nang Rong",
            "country": "Thailand",
            "latitude": 14.65327,
            "longitude": 102.72372,
            "street": "163/2 ถ.สรรพกิจโกศล ต.นางรอง อ.นางรอง จ.บุรีรัมย์",
            "zip": "31110"
        },
        "name": "ช่างกุญแจอิมโม นางรอง",
        "phone": "0840176485"
    },
    {
        "about": "ช่างกุญแจหัวหิน 24ช.ม 082-0707950",
        "description": "ช่างกุญแจหัวหิน 24ช.ม 082-0707950",
        "id": "420598224762981",
        "location": {
            "city": "Hua Hin",
            "country": "Thailand"
        },
        "name": "ช่างกุญแจหัวหิน 24ช.ม 082-0707950",
        "phone": "0820707950"
    },
    {
        "about": "ช่างกุญแจพิษณุโลก Big Key ทำกุญแจฝังชิพ T.0839955585\n",
        "id": "381317645405210",
        "location": {
            "city": "Phitsanulok",
            "country": "Thailand",
            "latitude": 16.8036613,
            "longitude": 100.2327423,
            "street": "83/316 ถนนประชาอุทิศ อำเภอเมือง",
            "zip": "65000"
        },
        "name": "ช่างกุญแจพิษณุโลก Big Key ทำกุญแจฝังชิพ T.0839955585",
        "phone": "0839955585"
    },
    {
        "id": "293085560823431",
        "location": {
            "city": "Bangkok",
            "country": "Thailand",
            "latitude": 13.75395,
            "longitude": 100.50224,
            "street": "บางกะปิ สุขาภิบาล ลาดพร้าว วังทองหลาง รามคำแหง",
            "zip": "10000"
        },
        "name": "ช่างกุญแจบางกะปิ สุขาภิบาล 087 488 4333",
        "phone": "0874884333"
    },
    {
        "id": "366881366755306",
        "location": {
            "city": "Bangkok",
            "country": "Thailand",
            "latitude": 13.75395,
            "longitude": 100.50224,
            "street": "ดินแดง รัชดา ลาดพร้าว สุทธิสาร เสาวรีย์ ราชเทวี ประตูน้ำ",
            "zip": "10000"
        },
        "name": "ช่างกุญแจดินแดง 087 488 4333",
        "phone": "0874884333"
    },
    {
        "id": "541635282620634",
        "location": {
            "city": "Bangkok",
            "country": "Thailand",
            "latitude": 13.75395,
            "longitude": 100.50224,
            "street": "เกียกกาย",
            "zip": "10000"
        },
        "name": "ช่างกุญแจเกียกกาย 087 488 4333",
        "phone": "087 488 4333"
    },
    {
        "id": "1430027450588555",
        "location": {
            "city": "Bangkok",
            "country": "Thailand",
            "latitude": 13.75395,
            "longitude": 100.50224,
            "street": "ราชประสงค์ กรุงเทพ",
            "zip": "10000"
        },
        "name": "ช่างกุญแจราชประสงค์ 087 488 4333",
        "phone": "087 488 4333"
    },
    {
        "id": "120582318137518",
        "location": {
            "city": "Bangkok",
            "country": "Thailand",
            "latitude": 13.75395,
            "longitude": 100.50224,
            "street": "สยาม สุขุมวิท สาทร สีลม ชิดลม นานา บางเขน ดินแดง ลาดพร้าว เดือนเมือง รังสิต",
            "zip": "10000"
        },
        "name": "ช่างกุญแจสยาม 087 488 4333",
        "phone": "0874884333"
    },
    {
        "about": "ช่างกุญแจ ฉุกเฉิน 24 ชั่วโมง ทั่วไทย 0863334941",
        "description": "ช่างกุญแจ ฉุกเฉิน 24 ชั่วโมง ทั่วไทย 0863334941\nรับทำกุญแจ กุญแจฝังชิพ กุญแจรีโมท immobilizer ช่างกุญแจ ฉุกเฉิน 24 ชั่วโมง ทั่วไทย 0863334941\nปลดล๊อคกุญแจ เปิดรถ เปิดบ้าน เปิดตู้เซฟ\nช่างกุญแจ ฉุกเฉิน 24 ชั่วโมง ทั่วไทย 0863334941",
        "emails": [
            "fk_114-2@hotmail.co.th"
        ],
        "id": "706237686060524",
        "location": {
            "city": "Bangkok",
            "country": "Thailand",
            "zip": "18120"
        },
        "name": "ช่างกุญแจ ฉุกเฉิน 24 ชั่วโมง ทั่วไทย 0863334941",
        "phone": "0863334941"
    },
    {
        "about": "รับทำกุญแจ ระบบอิมโมบีไลเซอร์(ฝังชิป)",
        "id": "591066387691557",
        "location": {
            "city": "Nong Khae",
            "country": "Thailand",
            "latitude": 14.35154,
            "longitude": 100.85197,
            "street": "103/16 ร้านมนต์ชัยนาฬิกา ถ.เศรษฐสัมพันธ์ อ.หนองแค ต.หนองแค จ.สระบุรี",
            "zip": "18140"
        },
        "name": "ช่างชัย ทำกุญแจ หนองแค",
        "phone": "0817537898"
    },
    {
        "id": "1460130440871596",
        "location": {
            "city": "Bangkok",
            "country": "Thailand",
            "latitude": 13.817740492693,
            "longitude": 100.65503217189,
            "zip": "10240"
        },
        "name": "Key World แฟรนไชส์ช่างกุญแจ อันดับ 1 ของไทย T.0852244500",
        "phone": "0852244500"
    },
    {
        "about": "บริการรับทำกุญแจครบวงจร ปลดล็อค ซ่อมแก้ไขทุกกรณี ทำกุญแจระบบฝังชิพทุกรุ่น 084-7761502",
        "id": "297005047108297",
        "name": "ช่างกุญแจอ่างทอง24ช.ม084-7761502"
    },
    {
        "about": "ช่างกุญแจอยุธยา 24ชั่วโมง โทร092-8721178",
        "description": "ช่างกุญแจอยุธยา 24ชั่วโมง โทร092-8721178 ปลดล็อคกุญแจทุกชนิด ทำกุญแจฝังชิพทุกรุ่น กุญแจหายโทรเลยครับ",
        "id": "155375707998572",
        "location": {
            "city": "Ayuthaya",
            "country": "Thailand",
            "latitude": 14.351800666667,
            "longitude": 100.53300266667,
            "zip": "13130"
        },
        "name": "ช่างกุญแจอยุธยา 24ชั่วโมง โทร092-8721178",
        "phone": "092-8721178"
    },
    {
        "id": "218570504951631",
        "location": {
            "city": "Rayong",
            "country": "Thailand",
            "latitude": 12.68957,
            "longitude": 101.29684,
            "street": "เมืองระยอง ระยอง แกลง บ้านฉาง ปลวกแดง มาบตาพุด บ้านเพ จันทบุรี ชลบุรี",
            "zip": "21000"
        },
        "name": "ช่างกุญแจระยอง 0874884333",
        "phone": "0874884333"
    },
    {
        "id": "535757736537858",
        "location": {
            "city": "Bangkok",
            "country": "Thailand",
            "street": "บางบ่อ บางวัว บางพลี"
        },
        "name": "ช่างกุญแจบางบ่อ 087 488 4333",
        "phone": "087 488 4333"
    },
    {
        "about": "บริการรับทำกุญแจครบวงจร ปลดล็อคซ่อมแก้ไข ทำกุญแจฝังชิพทุกรุ่น082-0707950",
        "id": "1428610227366114",
        "location": {
            "city": "Amphoe Bang Pa-In",
            "country": "Thailand",
            "latitude": 14.189141965484,
            "longitude": 100.5610520673,
            "zip": "13160"
        },
        "name": "ช่างกุญแจบางปะอิน อยุธยา082-0707950",
        "phone": "0820707950"
    },
    {
        "about": "ช่างกุญแจ24ชั่วโมง",
        "id": "667640099943787",
        "name": "ช่างกุญแจอยุธยา 082-0707950"
    },
    {
        "about": "ช่างกุญแจสระบุรี หนองแค24ช.ม0838864391",
        "description": "ช่างกุญแจสระบุรี หนองแค24ช.ม0838864391",
        "id": "1449766145239410",
        "location": {
            "city": "Nong Khae",
            "country": "Thailand",
            "latitude": 14.347538179162,
            "longitude": 100.867599973,
            "zip": "18140"
        },
        "name": "ช่างกุญแจสระบุรี หนองแค24ช.ม0838864391",
        "phone": "0838864391"
    }
]