[
    {
        "id": "118850644978531",
        "location": {
            "city": "Bangkok",
            "country": "Thailand",
            "latitude": 13.75395,
            "longitude": 100.50224,
            "street": "บางนา สุวรรณภูมิ ลาดกระบัง สวนกลวง เทพารักษ์",
            "zip": "10000"
        },
        "name": "ช่างกุญแจบางนา 087 488 4333",
        "phone": "0874884333"
    },
    {
        "about": "ช่างกุญแจนครปฐมโมเดิร์นคีย์\nรับทำกุญแจรถยนต์ จักรยานยนต์ บริการเปิดรถ บ้าน ตู้เซฟ",
        "description": "ช่างกุญแจนครปฐมโมเดิร์นคีย์\n\u003c\u003c\u003cบริการทำกุญแจทุกชนิด\u003e\u003e\u003e\nกุญแจรถยนต์ , จักรยานยนต์ , บ้าน\nกุญแจระบบImmobilizer , Smart key , Remote\n\u003c\u003c\u003cบริการซ่อม เปลี่ยนกรอบ เปลี่ยนถ่าน\u003e\u003e\u003e\nกุญแจรีโมทรถยนต์ , รีโมทรถยนต์ , รีโมทบ้าน\n\u003c\u003c\u003cบริการปลดล็อคกุญแจทุกชนิด\u003e\u003e\u003e\nเปิดรถ , เปิดบ้าน , เปิดตู้เซฟ\n\u003e\u003e\u003eมีปัญหาเรื่องกุญแจ  ลืม  หาย  ไขไม่ได้\u003c\u003c\u003c\nโทรมาเลยครับ 080-657-4934 ช่างกุญแจนครปฐม(ช่างหนุ่มโมเดิร์นคีย์) บริการ 24 ช.ม.\nมีบริการนอกสถานที่....\nช่างกุญแจนครปฐม\nช่างกุญแจสามพราน อ้อมใหญ่ เทียนดัด\nช่างกุญแจพุทธมณฑล ศาลายา\nช่างกุญแจนครชัยศรี\nช่างกุญแจบางเลน\nช่างกุญแจดอนตูม\nช่างกุญแจกำแพงแสน",
        "id": "870544102960264",
        "location": {
            "city": "Nakhon Pathom",
            "country": "Thailand",
            "latitude": 13.81103,
            "longitude": 100.01429,
            "street": "นครปฐม",
            "zip": "73000"
        },
        "name": "ช่างกุญแจนครปฐม ช่างหนุ่มโมเดิร์นคีย์ Tel.080-657-4934",
        "phone": "0806574934"
    },
    {
        "description": "บริการเปิดรถเปิดบ้าน 24ชม. ทำกุญแจบ้าน รถทุกชนิด กุญแจฝังชิพ กุญแจรีโมท 0899299485 โทรได้ตลอดไม่ต้องเกรงใจครับ",
        "id": "1376151749377171",
        "location": {
            "city": "Samut Prakan",
            "country": "Thailand",
            "latitude": 13.577290465592,
            "longitude": 100.83600103855,
            "street": "354/64 ม.1 ต.บางบ่อ อ.บางบ่อ",
            "zip": "10560"
        },
        "name": "ช่างกุญแจบางบ่อ บางเสาธง 0899299485 ขุนแผน",
        "phone": "0899299485"
    },
    {
        "about": "บริการเปิดรถยนต์ ทำกุญแจรถยนต์-มอเตอร์ไซต์ฝังชิพ",
        "description": "รับเปิดกุญแจรถยนต์,มอเตอร์ไซต์,บ้าน,ตู้เซฟ *ฉุกเฉินบริการ 24 ชม.\nโทร.084-1276253 **เปิดทางรูกุญแจ รถท่านไม่เสียหาย**\nรับทำกุญแจรถยนต์-มอเตอร์ไซต์ฝังชิพทุกรุ่น\n(กุญแจหายสามารถรีเซตกล่อง ECU พร้อมลงรหัสใหม่#รอรับได้เลย)\nบริการในหาดใหญ่และจังหวัดใกล้เคียง\nสามารถติดตามข้อมูลได้ที่ www.hatyaikey.com",
        "general_info": "+บริการเปิดกุญแจรถยนต์ทุกรุ่น         **เปิดทางรูกุญแจรถของท่านไม่เสียหายแน่นอนครับ** \n+ทำกุญแจฝังชิพระบบImmobiliezer ทั้งกุญแจรถยนต์และมอเตอร์ไซต์\n#เรามีความตั้งใจที่จะจัดหาเครื่องมือที่ทันสมัย และอัพเดตโปรแกรมทำชิพต่างๆมากมายมาบริการลูกค้าทุกท่าน \n+ยินดีให้คำปรึกษาเกี่ยวกับกุญแจครับ หากท่านมีข้อสงสัย โทรสอบถามได้ครับ 084-1276253 ช่างเอ๋กุญแจหาดใหญ่\n+บริการทำกุญแจในหาดใหญ่และจังหวัดใกล้เคียง\n",
        "id": "659878340703299",
        "location": {
            "city": "Hat Yai",
            "country": "Thailand",
            "latitude": 7.015542069076,
            "longitude": 100.39971828461,
            "street": "สาขา 1 ใต้สะพานลอยหาดใหญ่ ใกล้ไปรษณีรัถการ",
            "zip": "90110"
        },
        "name": "ช่างกุญแจหาดใหญ่ 24 ชม. 084-1276253 เปิดรถยนต์ ทำกุญแจอิมโมบิไลเซอร์ทุกรุ่น",
        "phone": "084-1276253"
    },
    {
        "id": "485426524863384",
        "location": {
            "city": "Bangkok",
            "country": "Thailand",
            "latitude": 13.75395,
            "longitude": 100.50224,
            "street": "สะพานควาย พหลโยธิน จตุจักร ลาดพร้าว รัชโยธิน",
            "zip": "10000"
        },
        "name": "ช่างกุญแจสะพานควาย 082 473 1555",
        "phone": "0824731555"
    },
    {
        "about": "บริการเปิดบ้านเปิดรถยนต์ นอกสถานที่",
        "description": "OKD-KEY Service 24hr ช่างกุญแจ ปทุมธานี 24 ชม. 081-6967332 บริการ เปิดบ้าน เปิดรถยนต์ นอกสถานที่",
        "general_info": "ช่างตั้ม OKD-KEY_Service 24hr ช่างกุญแจ 24 ชม. 081-6967332 บริการ เปิดบ้าน เปิดรถยนต์ นอกสถานที่ รับทำกุญแจรถยนต์ ญี่ปุ่น ยุโรป ระบบกุญแจฝังชิพอิมโมบิไลเซอร์ Immobilizer กุญแจรีโมท กุญแจบ้าน รถยนต์หายหมดทำใหม่ได้มาตราฐานศูนย์ บริการว่องไว มีปัญหาเรื่องกุญแจ บริการเปิดบ้าน ลูกบิด แม่กุญแจ ลืมกุญแจบ้านกุญแจหาย กุญแจสายยู ประตูกระจก tel:081-6967332\nบริการเปิดรถยนต์ ลืมกุญแจรถ ",
        "id": "178701722289934",
        "location": {
            "city": "Bangkok",
            "country": "Thailand",
            "latitude": 13.984243426978,
            "longitude": 100.6272739415,
            "zip": "12130"
        },
        "name": "ช่างกุญแจรังสิต 081-6967332",
        "phone": "081-6967332"
    },
    {
        "id": "293189267501020",
        "location": {
            "city": "Bangkok",
            "country": "Thailand",
            "latitude": 13.75395,
            "longitude": 100.50224,
            "street": "คลองถม เยาวราช สุขุมวิท สีลม สาทร ราชเทวี โบ้เบ้ ปิ่นเกล้า ราชวัตร พระราม 4",
            "zip": "10000"
        },
        "name": "ช่างกุญแจคลองถม 082 473 1555",
        "phone": "082 473 1555"
    },
    {
        "about": "บริการทั้งในและนอกสถานที่ ตัดดอกกุญแจได้มาตราฐาน ราคายุติธรรม",
        "description": "บริการทั้งในและนอกสถานที่ ตัดดอกกุญแจได้มาตราฐาน ราคายุติธรรม",
        "emails": [
            "keyseven3gong@gmail.com"
        ],
        "id": "1390652721258592",
        "location": {
            "city": "Phuket",
            "country": "Thailand",
            "latitude": 7.8682783186113,
            "longitude": 98.396039317261,
            "street": "สามกอง, Changwat Phuket, Phuket, Thailand 83000",
            "zip": "83000"
        },
        "name": "ช่างกุญแจภูเก็ต/ร้านกุญแจ Key Seven",
        "phone": "0894449036"
    },
    {
        "about": "รับทำกุญ รถ บ้าน ตู้เซฟ ทุกชนิด 24ชม. 081-6586639 ",
        "description": "รับทำกุญแจ ทุกชนิด กุญแจบ้าน กุญแจรถยนต์ มอไซค์ ตู้เซฟ ตู้เอกสาร รถยนต์ระบบimmobilizer ทั้งในและนอกสถานที่ มีบริการทั่วเชียงใหม่ และจังหวัดทุกจังหวัดของภาคเหนือ  ฉุกเฉินตลอด 24 ชม.  081-6586639 (กุญแจทอง)",
        "id": "409164092478826",
        "location": {
            "city": "Chiang Mai",
            "country": "Thailand",
            "latitude": 18.902788012003,
            "longitude": 98.949941449417,
            "zip": "50180"
        },
        "name": "ช่างกุญแจเชียงใหม่่รับกุญแจทุกชนิดครบวงจร 081-6586639 24 ชม.บ๊อบกุญแจทอง",
        "phone": "0816586639"
    },
    {
        "about": "ทำ ซ่อม ก็อปปี้ รีโมทรถยนต์ระบบImmobilizer  ติดตั้งรีโมทสัญญานกันขโมย โดยช่างมืออาชีพ",
        "id": "834583783300569",
        "location": {
            "city": "Chon Buri",
            "country": "Thailand",
            "latitude": 13.3667,
            "longitude": 100.983,
            "street": "ชลบุรี",
            "zip": "20000"
        },
        "name": "ช่างกุญแจชลบุรี ราคาถูก 0990859777 บริการ24ชม.",
        "phone": "0990859777"
    },
    {
        "about": "ช่างกุญแจ 24 ชั่วโมง",
        "description": "บริการปลดล็อคกุญแจนอกสถานที่ 24 ชม. กุญแจบ้าน  กุญแจรถ กุญแจตู้เซฟ กุญแจหาย  \nทุกปัญหาเกี่ยวกับกุญแจ เราแก้ไขให้ท่านได้ ยินดีบริการทุกท่าน ด้วยช่างมืออาชีพ\nเขตบริการทั่วถึงทุกพื้นที่ จ.นนทบุรี โดย ทีมงาน ช่างปู",
        "id": "928209293869397",
        "location": {
            "street": "บางใหญ่ บางบัวทอง"
        },
        "name": "ช่างกุญแจบางใหญ่ บางบัวทอง 0899526696",
        "phone": "0899526696"
    },
    {
        "about": "รับทำกุญแจทุกชนิด ทุกรูปแบบ ",
        "id": "280853298738555",
        "location": {
            "city": "Nakhon Si Thammarat",
            "country": "Thailand",
            "latitude": 8.4414411230435,
            "longitude": 99.960325524921,
            "street": "ร้าน โกหว่ารับทำกุญแจ",
            "zip": "80000"
        },
        "name": "ช่างกุญแจ นครศรีธรรมราช โมเดิร์นคีย์ -โกหว่ารับทำกุญแจ",
        "phone": "0872919170"
    },
    {
        "id": "493995820654072",
        "location": {
            "city": "Nakhon Pathom",
            "country": "Thailand",
            "latitude": 13.81103,
            "longitude": 100.01429,
            "street": "นครปฐม ราชบุรี เพชรบุรี ประจวบ หัวหิน ชะอำ กาญจนบุรี ชุมพร",
            "zip": "73000"
        },
        "name": "ช่างกุญแจนครปฐม 087 488 4333",
        "phone": "0874884333"
    },
    {
        "about": "ช่างกุญแจราชบุรี เปิดรถ-บ้าน-เซฟ ก๊อปปี้รีโมท กุญแจหาย",
        "description": "ช่างกุญแจราชบุรี บ้านโป่ง บางแพ ดำเนินสะดวก ปากท่อ โพธาราม วัดเพลง บ้านคา สวนผึ้ง จอมบึง ราชบุรี รับทำกุญแจหาย กุญแจเสีย กุญแจพัง รีโมทเสีย รีโมทกดไม่ติด รีโมทพัง รีโมทถ่านหมด รับเปิดรถ เปิดบ้าน เปิดตู้เซฟ บริการนอกสถานที่ตลอดเวลา 089-03174175 ",
        "id": "667801536616055",
        "location": {
            "city": "Ratchaburi",
            "country": "Thailand",
            "latitude": 13.5333,
            "longitude": 99.8,
            "street": "43/1 หมูุุ่6ถ.เขาช่องพราน ต.นางแก้ว อ.โพธาราม",
            "zip": "70120"
        },
        "name": "ช่างกุญแจราชบุรี 0890317475",
        "phone": "0890317475"
    },
    {
        "about": "ช่างกุญแจอยุธยา โทร084-9429251\nรับทำกุญแจฝังชิพ immobilizer ทุกชนิด",
        "description": "ช่างกุญแจอยุธยา 24 ช.ม. โทร084-9429251\nช่างกุญแจอยุธยา Unlockkey Thailand 24 ชั่วโมง ทั่วไทย \nปลดล็อคกุญแจทุกชนิด กุญแจบ้าน กุญแจรถ กุญแจตู้เซฟ ติดตั้งกุญแจทุกชนิด\nรับทำกุญแจฝังชิพและกุญแจรีโมททุกชนิด \nกุญแจระบบimmobilizer \nกุญแจระบบputstart\nรับสอนวิชาชิพกุญแจ จำหน่ายอุปกรณ์สำหรับช่างกุญแจ\nช่างกุญแจอยุธยา 24 ช.ม. โทร084-9429251",
        "id": "211108515746612",
        "location": {
            "city": "Ayutthaya",
            "country": "Thailand",
            "zip": "13000"
        },
        "name": "ช่างกุญแจอยุธยา รับทำกุญแจฝังชิพ immobilizer โทร084-9429251",
        "phone": "0849429251"
    },
    {
        "about": "รับทำกุญแจครบวงจร บริการทำกุญแจนอกสถานที่ 24 ชม. ลืมกุญแจ กุญแจหาย กุญแจเสีย ",
        "description": "รับทำกุญแจครบวงจร บริการทำกุญแจนอกสถานที่ 24 ชม. ลืมกุญแจ กุญแจหาย กุญแจเสีย เปิด บ้าน รถ ตู้เอกสาร โต๊ะสำนักงาน ตู้เซฟฯ แม่กุญแจทุกชนิด",
        "emails": [
            "ji014@hotmail.com"
        ],
        "id": "230336577032075",
        "location": {
            "city": "Nakhon Ratchasima",
            "country": "Thailand",
            "latitude": 14.959615474096,
            "longitude": 102.06066066906,
            "street": "53 ซอย สุรนารายณ์ 11 ตำบลในเมืองนครราชสีมา",
            "zip": "30000"
        },
        "name": "ช่างกุญแจโคราช 080-3333151",
        "phone": "0803333151"
    },
    {
        "id": "284378771735195",
        "location": {
            "city": "กระบี่",
            "street": "กระบี่"
        },
        "name": "ช่างกุญแจ24ชม."
    },
    {
        "about": "ช่างกุญแจ 24 ชั่วโมง",
        "description": "รับเปิดกุญแจบ้าน สำนักงาน คอนโด ห้องพัก หอพัก \n- กุญแจลูกบิด กุญแจประตูบานเลื่อน กุญแจประตูกระจก กุญแจโต๊ะ กุญแจลิ้นชัก \n- โดยช่างกุญแจผู้ชำนาญงาน (มีความชำนาญในการเปิดกุญแจบ้านทุกชนิด)\n- เปิดแบบไม่งัด ไม่รื้อ ไม่เจาะ เปิดทางรูกุญแจ ประตูบ้านของท่านจะไม่เสียหายเลย\n\n- รับเปิดกุญแจรถยนต์ BENZ BMW TOYOTA HONDA ISUZU MAZDA LEXUS\n- โดยช่างกุญแจผู้ชำนาญงาน PORSCHE VOLVO FORD PEUGEOT OPEL\n- MITSUBISHI NISSAN CHEVROLET HYUNDAI SUBARU SUZUKI \n- เปิดแบบไม่งัด ไม่รื้อ ไม่ถ่างประตู เปิดทางรูกุญแจ รถยนต์ของท่านจะไม่เสียหายเลย \n\n- รับเปิดกุญแจตู้เซฟทุกรุ่น, เปิดรหัสตู้เซฟ, ลืมรหัสเซฟ, เปิดตู้เซฟไม่ได้\n- มีความชำนาญในการเปิดเซฟ LEECO, KINGDOM, TAIYO, เปิดเซฟดิจิตอลทุกรุ่น\n- Dimond • Star • Algo • Lucky • Leed • Mosler • Chubb • Kingdom • Lips-Vago • President \n- Okashi IDO • Yale • Leeco • Marg • Taiyo • Konggo • King-Kong \n\n- รับซ่อมกุญแจชิฟ, ดอกหัก, ทำดอกกุญแจใหม่, เปิดกุญแจรถทุกชนิด \n- โดยช่างทำกุญแจผู้ชำนาญงาน IMMOBILIZER BENZ BMW และรถยนต์รุ่นอื่นๆ \n- มีความชำนาญในการปลดล็อคเกียร์ ปลดล็อคเบรคครัช รถยนต์ทุกรุ่น\n- ลืมกุญแจไว้ในรถ ลืมกุญแจไว้ในกระโปรงท้ายรถ \n\n- งานหนักๆ งานยากๆ กุญแจล็อค กุญแจพัง เซฟเปิดไม่ไ่ด้ เซฟจมน้ำ \n- ลืมกุญแจไว้ในบ้าน ลืมกุญแจไว้ในห้อง ลืมกุญแจไว้ในรถ ลืมกุญแกไว้ในเซฟ",
        "id": "1548367645442170",
        "location": {
            "city": "Nonthaburi",
            "country": "Thailand",
            "latitude": 13.86281,
            "longitude": 100.51451,
            "street": "ซอยสามัคคี"
        },
        "name": "ช่างกุญแจ ซ.สามัคคี 0899526696",
        "phone": "0899526696"
    },
    {
        "id": "937461052944566",
        "name": "ช่างกุญแจป่าโมก0818525235"
    },
    {
        "id": "288094237985173",
        "location": {
            "city": "เมืองสระบุรี",
            "street": "157/39 หมู่บ้านราชพฤกษ์",
            "zip": "18120"
        },
        "name": "ช่างกุญแจสระบุรี24ช.ม. 083 - 7013133",
        "phone": "081 - 3646082 : 082 - 0707950 : 084 - 9429251"
    },
    {
        "description": "รับทำกุญแจ เปิดรถ บ้าน ออฟฟิศ สำนักงาน ตู้เซฟ    ดอกหายทำดอกใหม่ ยินดีบริการทั้งในและนอกสถานที่ สายด่วน 0857924717",
        "id": "887261338017907",
        "location": {
            "city": "Phuket",
            "country": "Thailand",
            "latitude": 7.8737702,
            "longitude": 98.3939819,
            "street": "402",
            "zip": "83000"
        },
        "name": "ช่างกุญแจถลาง จ.ภูเก็ต 0857924717",
        "phone": "0857924717"
    },
    {
        "about": "รับทำกุญแจทุกชนิด กุญแจรถนฃยนต์ฝังชิพ 0841276253",
        "id": "782289481867149",
        "name": "ช่างกุญแจตรัง 0841276253"
    },
    {
        "about": "ช่าง+กุญแจ+ช่างกุญแจสุราษฎร์ธานี+กุญแจช่าง+ช่างกุญแจ+กุญแจImmobizer",
        "description": "บริการเปิดกุญแจรถยนต์ทุกรุ่น รถญี่ปุ่น รถยุโรป ทำกุญแจฝังชิพรถยนต์ทุกรุ่น เปลี่ยนกรอบกุญแจรถยนต์ ฉุกเฉินบริการ 24 ชั่วโมง",
        "emails": [
            "a_keyservice@hotmail.com"
        ],
        "id": "745521538833852",
        "location": {
            "city": "Surat",
            "country": "Thailand",
            "latitude": 9.09542,
            "longitude": 99.3073,
            "street": "เมืองสุราษฎร์ธานี",
            "zip": "84000"
        },
        "name": "ช่างกุญแจสุราษฎร์ธานี 084-1276253",
        "phone": "084-1276253"
    },
    {
        "id": "643000105802202",
        "location": {
            "city": "Amphoe Ban Hong",
            "country": "Thailand",
            "latitude": 18.3147,
            "longitude": 98.8175,
            "street": "ร้านอำนาจกุญแจ 081-5954855",
            "zip": "51000"
        },
        "name": "ช่างกุญแจบ้านทา กุญแจบ้านธิ กุญแจป่าซาง",
        "phone": "0815954855"
    },
    {
        "id": "247321478747927",
        "location": {
            "city": "Nakhon Sawan",
            "country": "Thailand",
            "latitude": 15.69823,
            "longitude": 100.17683,
            "street": "นครสวรรค์ สุโขทัย พิจิตร พิษณุโลก สิงห์บุรี อ่างทอง ชัยนาท",
            "zip": "60000"
        },
        "name": "ช่างกุญแจนครสวรรค์ 087 488 4333",
        "phone": "0874884333"
    }
]