[
    {
        "id": "1063183623695200",
        "location": {
            "city": "Nakhon Ratchasima",
            "country": "Thailand",
            "latitude": 14.959615474096,
            "longitude": 102.06066066906,
            "street": "26 ถนน สุรนารี ตำบลในเมือง อ.เมือง จ.นครราชสีมา",
            "zip": "30000"
        },
        "name": "ช่างกุญแจโคราช ช่างกรุงมาสเตอร์คีย์",
        "phone": "0819776966"
    },
    {
        "about": "บริการทำกุญแจทุกชนิด ทั้งในและนอกสถานที่",
        "id": "322368827894184",
        "name": "ช่างกุญแจบ้านโป่ง  Autokey 0846391367"
    },
    {
        "about": "ช่างกุญแจหนองแซง สระบุรี โทร092-8721178",
        "description": "ช่างกุญแขอำเภอหนองแซง สระบุรี โทร092-8721178",
        "id": "777522578930960",
        "location": {
            "city": "Nong Saeng",
            "country": "Thailand",
            "latitude": 14.4827,
            "longitude": 100.80019,
            "street": "655",
            "zip": "18170"
        },
        "name": "ช่างกุญแจสระบุรี หนองแซง โทร092-8721178 เปิดรถ บ้าน เซพ ทำกุญแจฝังชิพ",
        "phone": "0928721178"
    },
    {
        "id": "585655868120998",
        "location": {
            "city": "Bangkok",
            "country": "Thailand",
            "latitude": 18.78603,
            "longitude": 99.02265,
            "street": "ชัยนาท สิงห์บุรี นครสวรรค์ สุโขทัย พิจิตร พิษณุโลก อยุธยา ลพบุรี",
            "zip": "50000"
        },
        "name": "ช่างกุญแจชัยนาท 087 488 4333",
        "phone": "0874884333"
    },
    {
        "about": "ช่างกุญแจเสาไห้ สระบุรี บริการ24ชั่วโมง โทร 092-8721178",
        "description": "ช่างกุญแจเสาไห้ สระบุรี 24ชั่วโมง โทร092-8721178",
        "id": "635108939869299",
        "location": {
            "city": "Sao Hai",
            "country": "Thailand",
            "latitude": 14.551006931389,
            "longitude": 100.84427761741,
            "zip": "18160"
        },
        "name": "ช่างกุญแจสระบุรี เสาไห้ โทร092-8721178 เปิดรถ บ้าน เซพ ทำกุญแจฝังชิพ",
        "phone": "0928721178"
    },
    {
        "id": "395806073855371",
        "location": {
            "city": "Saraburi",
            "country": "Thailand",
            "latitude": 14.53236,
            "longitude": 100.92238,
            "street": "สระบุรี อ่างทอง อยุธยา ลพบุรี โคราช ชัยยาท",
            "zip": "18000"
        },
        "name": "ช่างกุญแจสระบุรี 082 473 1555",
        "phone": "0824731555"
    },
    {
        "about": "เพิ่มคำอธิบายด้วยข้อมูลเบื้องต้นสำหรับ ช่างกุญแจหนองคาย 087 488 4333",
        "id": "614416355249857",
        "location": {
            "city": "Nong Kai",
            "country": "Thailand",
            "latitude": 14.93783,
            "longitude": 102.10076,
            "street": "หนองคาย อุดรธานี ขอนแก่น หนองคาย ร้อยเอ็ด อุบล สุรินทร์ โคราช",
            "zip": "30000"
        },
        "name": "ช่างกุญแจหนองคาย 087 488 4333",
        "phone": "0874884333"
    },
    {
        "about": "รับบริการปลดล็อคกุญแจทุกชนิด โทร 089-222-9404",
        "id": "252162984968309",
        "location": {
            "city": "Bang Na",
            "country": "Thailand",
            "latitude": 13.67908,
            "longitude": 100.61183,
            "street": "Udom suk",
            "zip": "10260"
        },
        "name": "ช่างกุญแจ บางนา พระโขนง 089-2229404",
        "phone": "0892229404"
    },
    {
        "about": "ช่างกุญแจอยุธยา บางปะอิน24ช.ม083-8864391",
        "description": "ช่างกุญแจอยุธยา บางปะอิน24ช.ม083-8864391",
        "id": "1378504275728621",
        "location": {
            "city": "Amphoe Bang Pa-In",
            "country": "Thailand",
            "latitude": 14.2333,
            "longitude": 100.583,
            "zip": "13160"
        },
        "name": "ช่างกุญแจอยุธยา บางปะอิน24ช.ม083-8864391",
        "phone": "0838864391"
    },
    {
        "about": "ช่างกุญแจกาญจนบุรี เปิดรถ-บ้าน-เซฟ ก๊อปปี้รีโมท กุญแจชิฟ กุญแจหาย 086-0667975 ช่างหมาย \nบริการ 24 ชม.\n",
        "description": "ช่างกุญแจกาญจนบุรี 0860667975 ช่างหมาย ช่างกุญแจท่าม่วง ช่างกุญแจท่าเรือ ช่างกุญแจท่าล้อ ช่างกุญแจท่ามะกา ช่างกุญแจพนมทวน รับทำกุญแจเสีย กุญแจพัง กุญแจไขไม่ได้ กุญแจระบบอิมโมบิไลเซอร์ กุญแจฝังชิฟ เปิดรถ เปิดบ้าน เปิดเซฟ บริการนอกสถานที่ตลอดเวลา",
        "emails": [
            "\u003c\u003cnot-applicable\u003e\u003e"
        ],
        "id": "1731855873707600",
        "location": {
            "city": "Kanchanaburi",
            "country": "Thailand",
            "latitude": 14.027058434682,
            "longitude": 99.548444151878,
            "street": "354 ถ.อู่ทอง ต.ปากแพรก อ.เมือง",
            "zip": "71000"
        },
        "name": "ช่างกุญแจกาญจนบุรี 086-0667975 ช่างหมาย",
        "phone": "0860667975"
    },
    {
        "about": "บริการ ซ่อม  ปลดล็อค กุญแจรถ บ้าน ตู้เซฟ  กุญแจรีโมทกุญแจฝังชิพ บริการนอกสถานที่โทร 0868947122",
        "id": "541122079348425",
        "location": {
            "city": "Thai Chang",
            "country": "Thailand",
            "latitude": 12.83507,
            "longitude": 101.35036,
            "street": "ระยอง",
            "zip": "21120"
        },
        "name": "ช่างกุญแจระยอง unlock key 0868947122",
        "phone": "0868947122"
    },
    {
        "about": " บริการทำกุญแจนอกสถานที่ 24 ชม.  โทร 0817653876 ช่างขวัญกุญแจ เชียงราย",
        "description": "ยินดีให้บริการ ไม่ว่าเป็น รับทำกุญแจครบวงจร บริการทำกุญแจนอกสถานที่ 24 ชม. ลืมกุญแจ กุญแจหาย กุญแจเสีย กุญแจมีชิพ รีโมทชิพ \nเปิด บ้าน รถ ตู้เอกสาร โต๊ะสำนักงาน ตู้เซฟฯ แม่กุญแจทุกชนิด รับทำกุญแจรถยนต์ระบบฝังชิพ (IMMOBILIZER) \nลูกกุญแจหายสามารถทำขึ้นมาให้ได้ รับประกัน ไม่ช้ำ ไม่เสีย ไม่เป็นรอย โดยช่างผู้ชำนาญงาน\nโทร 0817653876 ช่างขวัญกุญแจ เชียงราย",
        "id": "1900499873509227",
        "location": {
            "city": "Chiang Rai",
            "country": "Thailand",
            "latitude": 20.0384102,
            "longitude": 99.8312607,
            "street": "846",
            "zip": "57000"
        },
        "name": "ช่างกุญแจ เชียงราย ขวัญ",
        "phone": "0817653876"
    },
    {
        "id": "340753656111416",
        "location": {
            "city": "Hat Yai",
            "country": "Thailand",
            "latitude": 6.99483725,
            "longitude": 100.49046303,
            "street": "หาดใหญ่"
        },
        "name": "ช่างกุญแจ Nissan หาดใหญ่ 0841276253",
        "phone": "0841276253"
    },
    {
        "about": "ช่างกุญแจจังหวัดนครสวรรค์ 082-0707950",
        "description": "ช่างกุญแจจังหวัดนรสวรรค์082-0707950บริการทำกุญแจครบวงจร24ชั่วโมง",
        "id": "519085244855263",
        "location": {
            "city": "Nakhon Sawan",
            "country": "Thailand",
            "latitude": 15.713133405511,
            "longitude": 100.1354145609,
            "zip": "60000"
        },
        "name": "ช่างกุญแจจังหวัดนครสวรรค์ 082-0707950",
        "phone": "0820707950"
    },
    {
        "about": "ช่างกุญแจจังหวัดอ่างทอง รับทำกุญแจ24ชั่วโมง092-8721178",
        "description": "บริการถึงที่24ชั่วโมง 092-8721178 ครบวงจรเรื่องกุญแจทุกชนิด",
        "id": "609676715758563",
        "location": {
            "city": "Muang Ang Thong",
            "country": "Thailand",
            "zip": "14000"
        },
        "name": "ช่างกุญแจอ่างทอง24ช.ม092-8721178 บริการถึงที่",
        "phone": "0928721178"
    },
    {
        "id": "349282198509052",
        "location": {
            "city": "Bangkok",
            "country": "Thailand",
            "latitude": 13.75395,
            "longitude": 100.50224,
            "street": "บางนา กรุงเทพ",
            "zip": "10000"
        },
        "name": "ช่างกุญแจ บางนา 0874884333",
        "phone": "0874884333"
    },
    {
        "about": "ลืมกุญแจ รถ บ้าน เราพร้อมบริการ 24 ชม. โทร 081-6967332",
        "description": "OKD-KEY Service 24hr ช่างกุญแจ ปทุมธานี 24 ชม. 081-6967332 บริการ เปิดบ้าน เปิดรถยนต์ นอกสถานที่",
        "general_info": "ช่างตั้ม OKD-KEY_Service 24hr ช่างกุญแจ 24 ชม. 081-6967332 บริการ เปิดบ้าน เปิดรถยนต์ นอกสถานที่ รับทำกุญแจรถยนต์ ญี่ปุ่น ยุโรป ระบบกุญแจฝังชิพอิมโมบิไลเซอร์ Immobilizer กุญแจรีโมท กุญแจบ้าน รถยนต์หายหมดทำใหม่ได้มาตราฐานศูนย์ บริการว่องไว มีปัญหาเรื่องกุญแจ บริการเปิดบ้าน ลูกบิด แม่กุญแจ ลืมกุญแจบ้านกุญแจหาย กุญแจสายยู ประตูกระจก tel:081-6967332\nบริการเปิดรถยนต์ ลืมกุญแจรถ ",
        "id": "462969757124255",
        "location": {
            "city": "Bangkok",
            "country": "Thailand",
            "latitude": 14.020432040416,
            "longitude": 100.52573181154,
            "zip": "12130"
        },
        "name": "ช่างกุญแจ ปทุมธานี 081-6967332",
        "phone": "0816967332"
    },
    {
        "id": "1395885023971921",
        "location": {
            "city": "Bangkok",
            "country": "Thailand",
            "latitude": 13.75395,
            "longitude": 100.50224,
            "street": "สีลม สุขุมวิท สาทร ราชเทวี บางรัก ชิดลม สี่พระยา จุฬา พญาไท เสาวรีย์",
            "zip": "10000"
        },
        "name": "ช่างกุญแจสีลม 083 1111 938",
        "phone": "0831111938"
    },
    {
        "about": "ช่างกุญแจชัยนาท สิงห์บุรี นครสวรรค์ เพชรบูรณ์24ช.ม082-0707950",
        "description": "ช่างกุญแจชัยนาท สิงห์บุรี นครสวรรค์ เพชรบูรณ์24ช.ม082-0707950",
        "id": "709218952444373",
        "location": {
            "city": "Bangkok",
            "country": "Thailand",
            "latitude": 13.750373947368,
            "longitude": 100.49021144737,
            "zip": "60000"
        },
        "name": "ช่างกุญแจชัยนาท สิงห์บุรี นครสวรรค์ เพชรบูรณ์ 24ช.ม082-0707950",
        "phone": "0820707950"
    },
    {
        "id": "595625073795851",
        "location": {
            "city": "Bangkok",
            "country": "Thailand",
            "latitude": 13.75395,
            "longitude": 100.50224,
            "street": "สายไหม ลำลูกกา นวนคร รังสิต ปทุมธานี สะพานใหม่ ดอนเมือง",
            "zip": "10000"
        },
        "name": "ช่างกุญแจสายไหม 087 488 4333 สะพานใหม่",
        "phone": "0874884333"
    },
    {
        "about": "รับทำกุญแจ ทำชิปเพิ่มรีโมท เปิดบ้านเปิดรถเปิดตู้เซฟ ทั้งในและนอกสถานที่ บริการตลอด 24 ชม.",
        "id": "1446933815623204",
        "location": {
            "city": "Chachoengsao",
            "country": "Thailand",
            "latitude": 13.6822901,
            "longitude": 101.0698929,
            "street": "ตลาดบ้านใหม่ ต.หน้าเมือง",
            "zip": "24000"
        },
        "name": "ช่างกุญแจแปดริ้ว จ.ฉะเชิงเทรา 0808313184",
        "phone": "0808313184"
    },
    {
        "id": "290563907748305",
        "location": {
            "city": "Singha Buri",
            "country": "Thailand",
            "latitude": 15.82808,
            "longitude": 104.22901,
            "street": "อยุธยา อ่างทอง ลพบุรี สระบุรี สิงห์บุรี ชัยนาท สุพรรณบุรี นครสวรรค์",
            "zip": "10000"
        },
        "name": "ช่างกุญแจอยุธยา 082 473 1555",
        "phone": "0824731555"
    },
    {
        "id": "1404949866387052",
        "location": {
            "city": "Changwat Rayong",
            "country": "Thailand",
            "latitude": 12.68957,
            "longitude": 101.29684,
            "street": "ระยอง แกลง ปลวกแดง บ้านฉาง มาบตาพุด สัตหีบ กะเฉด บ้านเพ ชลบุรี พัทยา บางแสน",
            "zip": "21000"
        },
        "name": "ช่างกุญแจ ระยอง 083 1111 938",
        "phone": "0831111938"
    },
    {
        "id": "486573368081042",
        "location": {
            "city": "Bangkok",
            "country": "Thailand",
            "latitude": 13.75395,
            "longitude": 100.50224,
            "street": "ปิ่นเกล้า ธนบุรี ท่าพระ บางแค จรัญ เพชรเกษม",
            "zip": "10000"
        },
        "name": "ช่างกุญแจปิ่นเกล้า 087 488 4333",
        "phone": "0874884333"
    },
    {
        "about": "ช่างกุญแจสระบุรี 24 ช.ม. 086-3334941",
        "description": "ช่างกุญแจสระบุรี 24 ช.ม. 086-3334941 กุญแจฝังชิพ ปลดล๊อคกุญแจทุกชนิด  \nช่างกุญแจสระบุรี 24 ชั่วโมง กุญแจฝังชิพ เปิดรถ เปิดบ้าน เปิดตู้เซฟ ติดตั้งกุญแจ ทุกชนิด สอนทำกุญแจ จำหน่ายเครื่องมือทำกุญแจ \nช่างกุญแจสระบุรี 24 ช.ม. 086-3334941\n",
        "id": "1429866570576287",
        "location": {
            "city": "Ban Tha Wat",
            "country": "Thailand",
            "zip": "18120"
        },
        "name": "ช่างกุญแจสระบุรี 24 ช.ม. 086-3334941",
        "phone": "0863334941"
    }
]