[
    {
        "about": "ช่างกุญแจสระบุรี24ชั่วโมง 082-0707950",
        "description": "ช่างกุญแจสระบุรี 24ช.ม 082-0707950 ปลดล็อคกุญแจ24ช.ม\nทำกุญแจฝังชิพทุกยี่ห้อ",
        "emails": [
            "key_art7950@hotmail.com"
        ],
        "id": "119603108205716",
        "location": {
            "city": "Saraburi",
            "country": "Thailand",
            "zip": "18000"
        },
        "name": "ช่างกุญแจสระบุรี 24ช.ม082-0707950",
        "phone": "0820707950"
    },
    {
        "id": "628150393880109",
        "location": {
            "city": "Bangkok",
            "country": "Thailand",
            "latitude": 13.75395,
            "longitude": 100.50224,
            "street": "บางแค ท่าพระ เพชรเกษม ปิ่นเกล้า ดาวคะนอง ตากสิน",
            "zip": "10000"
        },
        "name": "ช่างกุญแจบางแค 082 473 1555",
        "phone": "0824731555"
    },
    {
        "id": "733923073372579",
        "location": {
            "city": "Pattaya",
            "country": "Thailand",
            "latitude": 12.945434346339,
            "longitude": 100.88671098554,
            "street": "327 / 257 ม. 9 ต. หนองปรือ",
            "zip": "20150"
        },
        "name": "ช่างกุญแจสัตหีบ 080-6338565",
        "phone": "0806338565"
    },
    {
        "about": "บริการกุญแจ บ้าน สำนักงาน รถจักรยานยนต์ รถยนต์",
        "description": "รับทำกุญแจ ทั้งในและนอกสถานที่ \nปั้มกุญแจ เปิดรถ เปิดบ้าน อาคาร ต่างๆ\nรับซ่อมรองเท้า เย็บรองเท้า\nร้านเอสการกุญแจ โค้งธนาคารออมสิน สาขาชลบุรี \nสอบถามโทร 085-1286679",
        "emails": [
            "payung184@gmail.com"
        ],
        "id": "278579445625041",
        "location": {
            "city": "Amphoe Muang Chon Buri",
            "country": "Thailand",
            "latitude": 13.363733086232,
            "longitude": 100.98570981076,
            "street": "ถนน วชิรปราการ",
            "zip": "20000"
        },
        "name": "ช่างกุญแจชลบุรี Modernkey Chonburi โดยช่างเชาว์ 0851286679",
        "phone": "0851286679"
    },
    {
        "about": "รับเปิดล๊อคกุญแจบ้าน-รถยนต์-ตู้เซฟ บริการ 24 ชม. โทร.095-413-4318",
        "description": "รับทำกุญแจครบวงจร บริการทำกุญแจนอกสถานที่ 24 ชม. ลืมกุญแจ กุญแจหาย กุญแจเสีย กุญแจมีชิพ รีโมทชิพ \nเปิด บ้าน รถ ตู้เอกสาร โต๊ะสำนักงาน ตู้เซฟฯ แม่กุญแจทุกชนิด รับทำกุญแจรถยนต์ระบบฝังชิพ (IMMOBILIZER) \nลูกกุญแจหายสามารถทำขึ้นมาให้ได้ รับประกัน ไม่ช้ำ ไม่เสีย ไม่เป็นรอย โดยช่างผู้ชำนาญงาน\n\nฉุกเฉิน 24 ชม. โทร 095-4134318\n\nลืมกุญแจตู้เซฟ\n- ลืมกุญแจตู้เซฟ ดอกกุญแจหาย\n- ลืมรหัสตู้เซฟ มีรหัสเปิดไม่ออก\n- ดอกกุญแจหักคา(รับเปิดตู้เซฟทั่วราชอณาจักรไทย)\n\nลืมกุญแจบ้าน\nรับเปิดกุญแจบ้าน ทุกชนิด\n- ลืมกุญแจบ้านลูกบิด กุญแจคล้องสายยู\n- กุญแจฝังไม้ประตูกระจกประตูเหล็ก\n\nลืมกุญแจรถ\nรับเปิดกุญแจรถยนต์ ทุกชนิด\n- กุญแจ รถยุโรป รถญี่ปุ่น\n\nรับทำดอกกุญแจรถยนต์ทุกชนิด\n- ดอกหัก หรือ ดัดแปลงแก้ไขระบบ\n- ฟันกุญแจ ที่สึก ซื่งเกิดจากการใช้งาน\n- กุญแจรถหายทำได้โดยไม่ต้องรื้อ หรืองัด เจาะใดๆทั้งสิ้น\n\n \n\nรับทำดอกกุญแจบ้านทุกชนิด\n- ดอกหัก หรือ ดัดแปลงแก้ไขระบบ\n- ฟันกุญแจ ที่สึก ซื่งเกิดจากการใช้งาน\n\nรับปลดล็อกอุปกรณ์เสริมนิรภัยรถ-บ้าน\n- ล็อกเท็ค\n-ล็อกเกียรรถ\n-ล็อกพวงมาลัย\n-พร้อมทำดอกกุญแจ\n-รับซ่อมกุญแจประตูบ้านที่ใช้รีโมทย์\n\nบริการถึงที่รวดเร็วด้วยเครื่องมือทันสมัย ( บริการปรึกษาฟรี )\n\nสนใจติดต่อ ช่างปอ\nสายด่วนโทร. 095-413-4318",
        "id": "563533697016066",
        "location": {
            "city": "Bangkok",
            "country": "Thailand",
            "latitude": 13.90811,
            "longitude": 100.58717,
            "street": "ถนน.วิภาวดี ดอนเมือง แจ้งวัฒนะ เมืองเอก สรงประภา",
            "zip": "10210"
        },
        "name": "ช่างกุญแจวิภาวดี หลักสี่ ดอนเมือง แจ้งวัฒนะ เมืองเอก โทร.095-4134318",
        "phone": "0954134318"
    },
    {
        "about": "www.okd-key.com บริการซ่อม-เปลี่ยน-แก้ไขกุญแจบ้าน รถมอเตอร์ไซด์ รถยนต์ ลูกกุญแจหาย ชำรุด ทำใหม่",
        "description": "แขก ช่างกุญแจ \n\n081-7606868\n\nรับทำกุญแจทุกชนิด ทั้งในและนอกสถานที่\n\nบริการซ่อม-เปลี่ยน-แก้ไขกุญแจบ้าน รถมอเตอร์ไซด์ รถยนต์ ลูกกุญแจหาย ชำรุด ทำใหม่\n\nรับทำกุญแจบ้าน รถยนต์ รถมอเตอร์ไซค์\n\nกุญแจอิมโมบิไลเซอร์ ระบบฝังชิพ\n\nกุญแจรีโมท และกุญแจทุกชนิด\n\nบริการเปิดบ้าน เปิดรถ บริการฉุกเฉิน 24 ชั่วโมง\n\n",
        "emails": [
            "swk1965@hotmail.com"
        ],
        "id": "314978898550686",
        "location": {
            "city": "Amphoe Bang Bua Thong",
            "country": "Thailand",
            "latitude": 13.93149,
            "longitude": 100.39004,
            "street": "เลขที่ 6 ต.บางบัวทอง อ.บางบัวทอง จ.นนทบุรี",
            "zip": "11110"
        },
        "name": "ช่างกุญแจบางใหญ่ บางบัวทอง ลาดปลาดุก บ้านกล้วย ไทรน้อย นนทบุรี 081-7606868",
        "phone": "0817606868"
    },
    {
        "id": "137487583096573",
        "location": {
            "city": "Bangkok",
            "country": "Thailand",
            "latitude": 13.75395,
            "longitude": 100.50224,
            "street": "ช่างกุญแจจตุจักร กรุงเทพ",
            "zip": "10000"
        },
        "name": "ช่างกุญแจจตุจักร 087 488 4333",
        "phone": "0874884333"
    },
    {
        "about": "ช่างกุญแจนวนคร โทร.0863334941 เปิดบ้าน เปิดรถ เปิดตู้เซฟ ",
        "description": "ช่างกุญแจนวนคร โทร.0863334941\nช่างกุญแจนวนคร Unlockkey Thailand 24 ชั่วโมง ทั่วไทย 0863334941\nปลดล็อคกุญแจทุกชนิด กุญแจบ้าน กุญแจรถ กุญแจตู้เซฟ ติดตั้งกุญแจทุกชนิด\nกุญแจฝังชิพ กุญแจรีโมท \nกุญแจระบบimmobilizer \nกุญแจระบบputstart\nรับสอนวิชาชีพช่างกุญแจ จำหน่ายอุปกรณ์สำหรับช่างกุญแจ\nช่างกุญแจนวนคร โทร.0863334941",
        "id": "210041719120219",
        "location": {
            "city": "Bangkok",
            "country": "Thailand",
            "latitude": 14.116669868692,
            "longitude": 100.61807521099,
            "zip": "18120"
        },
        "name": "ช่างกุญแจนวนคร โทร.0863334941",
        "phone": "0863334941"
    },
    {
        "about": "รับทำกุญแจ รีโมทรถยนต์ รีโมทบ้าน กุญแจตู้เซพ  ทำกุญแจimmobilizer รถยนต์",
        "id": "1554091751515601",
        "location": {
            "city": "Bang Kapi",
            "country": "Thailand",
            "latitude": 13.774,
            "longitude": 100.65728,
            "street": "รามคำแหง",
            "zip": "10240"
        },
        "name": "ช่างกุญแจรีโมทรถยนต์",
        "phone": "0854949369"
    },
    {
        "about": "ช่างกุญแจ 24 ชั่วโมง",
        "description": "รับเปิดกุญแจบ้าน สำนักงาน คอนโด ห้องพัก หอพัก \n- กุญแจลูกบิด กุญแจประตูบานเลื่อน กุญแจประตูกระจก กุญแจโต๊ะ กุญแจลิ้นชัก \n- โดยช่างกุญแจผู้ชำนาญงาน (มีความชำนาญในการเปิดกุญแจบ้านทุกชนิด)\n- เปิดแบบไม่งัด ไม่รื้อ ไม่เจาะ เปิดทางรูกุญแจ ประตูบ้านของท่านจะไม่เสียหายเลย\n\n- รับเปิดกุญแจรถยนต์ BENZ BMW TOYOTA HONDA ISUZU MAZDA LEXUS\n- โดยช่างกุญแจผู้ชำนาญงาน PORSCHE VOLVO FORD PEUGEOT OPEL\n- MITSUBISHI NISSAN CHEVROLET HYUNDAI SUBARU SUZUKI \n- เปิดแบบไม่งัด ไม่รื้อ ไม่ถ่างประตู เปิดทางรูกุญแจ รถยนต์ของท่านจะไม่เสียหายเลย \n\n- รับเปิดกุญแจตู้เซฟทุกรุ่น, เปิดรหัสตู้เซฟ, ลืมรหัสเซฟ, เปิดตู้เซฟไม่ได้\n- มีความชำนาญในการเปิดเซฟ LEECO, KINGDOM, TAIYO, เปิดเซฟดิจิตอลทุกรุ่น\n- Dimond • Star • Algo • Lucky • Leed • Mosler • Chubb • Kingdom • Lips-Vago • President \n- Okashi IDO • Yale • Leeco • Marg • Taiyo • Konggo • King-Kong \n\n- รับซ่อมกุญแจชิฟ, ดอกหัก, ทำดอกกุญแจใหม่, เปิดกุญแจรถทุกชนิด \n- โดยช่างทำกุญแจผู้ชำนาญงาน IMMOBILIZER BENZ BMW และรถยนต์รุ่นอื่นๆ \n- มีความชำนาญในการปลดล็อคเกียร์ ปลดล็อคเบรคครัช รถยนต์ทุกรุ่น\n- ลืมกุญแจไว้ในรถ ลืมกุญแจไว้ในกระโปรงท้ายรถ \n\n- งานหนักๆ งานยากๆ กุญแจล็อค กุญแจพัง เซฟเปิดไม่ไ่ด้ เซฟจมน้ำ \n- ลืมกุญแจไว้ในบ้าน ลืมกุญแจไว้ในห้อง ลืมกุญแจไว้ในรถ ลืมกุญแกไว้ในเซฟ",
        "emails": [
            "keynonthaburi@hotmail.com"
        ],
        "id": "1538883443054172",
        "location": {
            "city": "Amphoe Bang Yai",
            "country": "Thailand",
            "latitude": 13.84129,
            "longitude": 100.3635,
            "street": "บางใหญ่"
        },
        "name": "ช่างกุญแจบางใหญ่ 0899526696",
        "phone": "0899526696"
    },
    {
        "id": "1497916077163011",
        "location": {
            "city": "Ubon Ratchathani",
            "country": "Thailand",
            "latitude": 15.36575,
            "longitude": 104.89258,
            "street": "ร้านตั้งอยู่ที่ บิ๊กซี อุบล โซนด้านนอกหลัง KFC",
            "zip": "34000"
        },
        "name": "ช่างกุญแจอุบล ร้านกุญแจ U bon key บิ๊กซีอุบล - บริการ24 ช.ม.",
        "phone": "0981506790 /  091-8293944"
    },
    {
        "id": "745154642234360",
        "location": {
            "city": "Amphoe Lam Luk Ka",
            "country": "Thailand",
            "latitude": 13.99219,
            "longitude": 100.78867,
            "street": "ลำลูกกา มีนบุรี นิมิตรใหม่ ธัญบุรี หนองเสือ คลองหลวง รังสิต นครนายก ปราจีนบุรี",
            "zip": "12150"
        },
        "name": "ช่างกุญแจ ลำลูกกา ธัญบุรี สายไหม ปทุมธานี นิมิตรใหม่",
        "phone": "0891313986"
    },
    {
        "about": "ช่างกุญแจนครนายก องครักษ์24ช.ม092-8721178",
        "description": "ช่างกุญแจนครนายก องครักษ์24ช.ม092-8721178",
        "id": "1399482920303625",
        "location": {
            "city": "Amphoe Ongkharak",
            "country": "Thailand",
            "latitude": 14.1220098856,
            "longitude": 101.00350497846,
            "zip": "26120"
        },
        "name": "ช่างกุญแจนครนายก องครักษ์24ช.ม092-8721178",
        "phone": "0928721178"
    },
    {
        "id": "393140407457023",
        "location": {
            "city": "Bangkok",
            "country": "Thailand",
            "latitude": 13.75395,
            "longitude": 100.50224,
            "street": "พระราม 4 พระราม 2 พระราม 3 พระราม 7 พระราม 9 พระราม 8 พระราม 6 พระราม 5",
            "zip": "10000"
        },
        "name": "ช่างกุญแจพระราม 4 โทร. 087 488 4333",
        "phone": "0874884333"
    },
    {
        "id": "462157280530979",
        "location": {
            "city": "Bangkok",
            "country": "Thailand",
            "latitude": 18.78603,
            "longitude": 99.02265,
            "street": "สิงห์บุรี นครสวรรค์ สุโขทัย พิจิตร พิษณุโลก อ่างทอง ชัยนาท อยุธยา ลพบุรี",
            "zip": "50000"
        },
        "name": "ช่างกุญแจสิงห์บุรี 087 488 4333",
        "phone": "0874884333"
    },
    {
        "about": "ช่างกุญแจสระบุรี วิหารแดง24ช.ม083-8864391",
        "description": "ช่างกุญแจสระบุรี วิหารแดง24ช.ม083-8864391",
        "id": "208927395976076",
        "location": {
            "city": "Wihan Daeng",
            "country": "Thailand",
            "latitude": 14.347321583265,
            "longitude": 100.98922343015,
            "zip": "18150"
        },
        "name": "ช่างกุญแจสระบุรี วิหารแดง24ช.ม083-8864391",
        "phone": "0838864391"
    },
    {
        "about": "รับสะเดาะกุญแจ เปิดบ้าน เปิดรถ สุวรรณภูมิ ลาดกระบัง ร่มเกล้า ประเวศ ฉุกเฉิน ติดต่อที่ 092-426-2629",
        "description": "ปอง ช่างกุญแจ บริการ 24 ชม Tel.092-426-2629\nID Line : Vichayasit\nติดต่อได้ที่เว็บไซด์\nhttps://sites.google.com/site/pongkey24hr/home\nhttps://www.facebook.com/pongopenkey\n\nช่างกุญแจ 24 ชม เปิดบ้าน เปิดรถ ทำกุญแจทุกประเภท รถยุโรป รถญี่ปุ่น รถมอไซค์\nTel.092-426-2629\nช่างกุญแจ สุวรรณภูมิ ช่างกุญแจ บางนา ช่างกุญแจ ร่มเกล้า ช่างกุญแจ ราม2 ช่างกุญแจ ลาดกระบัง ช่างกุญแจ ประเวศ ช่างกุญแจ เฉลิมพระเกียรติ ช่างกุญแจ อ่อนนุช ช่างกุญแจ ศรีนครินทร์ ช่างกุญแจ ลาซาน ช่างกุญแจ สุขุมวิท ช่างกุญแจ บางพลี ช่างกุญแจ บางบ่อ ช่างกุญแจ ฉะเชิงเทรา ช่างกุญแจ ชลบุรี ช่างกุญแจ อุดมสุข ช่างกุญแจ พัทยา ช่างกุญแจ เขตบางนา ช่างกุญแจ พัฒนาชนบท ช่างกุญแจ เลียบกาญจนาพิเศษ\nรับเปิดบ้าน เปิดห้อง เปิดตู้ ช่างเปิดบ้าน ช่างเปิดรถ รับทำกุญแจรถยนต์ กุญแจฝังชิพ กุญแจรีโมท กุญแจหาย ทำกุญแจเพิ่ม ทำให้ดอกกุญแจที่หายไปไม่สามารถนำกลับมาใช้งานได้ เรามีเครือข่ายช่างกุญแจระดับมืออาชีพคอยให้บริการครอบคลุมทุกพื้นที่ในกทม.และปริมณฑล ลืมกุญแจไว้ในรถ ลืมกุญแจไว้ในบ้าน ลืมรหัสตู้เซฟ กุญแจหาย กุญแจรถหาย กุญแจบ้านหาย กุญแจเสีย กุญแจพัง กุญแจไขไม่ได้ \nบริการเปิด – ซ่อม – ทำกุญแจ รถทุกรุ่น กุญแจ BMW กุญแจ BENZ กุญแจ AUDI กุญแจ PORSCHE กุญแจ VOLVO กุญแจ MINI COOPER กุญแจ VOLKSWAGEN กุญแจ CHEVROLET กุญแจ TOYOTA กุญแจ HONDA กุญแจ NISSAN กุญแจ MAZDA กุญแจ MITSUBISHI กุญแจ Push Start กุญแจ Smartkey กุญแจ Keyless\nบริการทำกุญแจรถมอไซด์ทุกรุ่น กุญแจฝังชิพ Superbike กุญแจ Honda กุญแจ Yamaha กุญแจ Kawasaki กุญแจ Suzuki กุญแจ Ducati กุญแจ CBR กุญแจ SRR \nบริการเปิด – ซ่อม – ทำกุญแจตู้เซฟทุกรุ่น กุญแจ KINGDOM กุญแจ LEECO กุญแจ TAIYO กุญแจ CHUBB กุญแจ DIMOND กุญแจ SUPER SAFE กุญแจ INTER SAFE หารหัสตู้เซฟ\nบริการเปิด – เปลี่ยน – ซ่อม – ติดตั้งกุญแจบ้าน กุญแจคอนโด กุญแจหอพัก กุญแจประตูกระจก กุญแจ VVP กุญแจ Yale กุญแจ SOLO กุญแจ SOLEX กุญแจ Lucky กุญแจลิ้นชัก กุญแจโต๊ะ กุญแจตู้เอกสาร กุญแจสำนักงาน รับเหมาทำกุญแจสำนักงาน กุญแจโรงแรม",
        "id": "1442861429341427",
        "location": {
            "city": "Lat Krabang",
            "country": "Thailand",
            "latitude": 13.722042433921,
            "longitude": 100.70813002753,
            "street": "ลาดกระบัง",
            "zip": "10520"
        },
        "name": "ช่างกุญแจ ลาดกระบัง สุวรรณภูมิ ร่มเกล้า ประเวศ โทร 092-426-2629",
        "phone": "0924262629"
    },
    {
        "about": "ช่างกุญแจ ลืมกุญแจไว้ในบ้าน ลืมกุญแจไว้ในรถ สะเดาะกุญแจ กุญแจรถหาย เปิดตู้เซฟ\n",
        "description": "ช่างปิงปอง ช่างกุญแจ บริการ 24 ชม Tel.092-426-2629 \nID Line : Vichayasit\nติดต่อได้ที่เว็บไซด์\nhttps://sites.google.com/site/pongkey24hr/home\nhttps://www.facebook.com/Vickey24Hr\nhttps://www.facebook.com/Vichakey\n\nช่างกุญแจ 24 ชม เปิดบ้าน เปิดรถ ทำกุญแจทุกประเภท รถยุโรป รถญี่ปุ่น รถมอไซค์\nTel.092-426-2629 \nช่างกุญแจ สุวรรณภูมิ ช่างกุญแจ บางนา ช่างกุญแจ ร่มเกล้า ช่างกุญแจ ราม2 ช่างกุญแจ ลาดกระบัง ช่างกุญแจ ประเวศ ช่างกุญแจ เฉลิมพระเกียรติ ช่างกุญแจ อ่อนนุช ช่างกุญแจ ศรีนครินทร์ ช่างกุญแจ ลาซาน ช่างกุญแจ สุขุมวิท ช่างกุญแจ บางพลี ช่างกุญแจ บางบ่อ ช่างกุญแจ ฉะเชิงเทรา ช่างกุญแจ ชลบุรี ช่างกุญแจ อุดมสุข ช่างกุญแจ พัทยา ช่างกุญแจ \nช่างกุญแจ เขตพระนคร ช่างกุญแจ เขตดุสิต ช่างกุญแจ เขตหนองจอก ช่างกุญแจ ช่างกุญแจ เขตบางเขน ช่างกุญแจ เขตบางกะปิ ช่างกุญแจ เขตพระโขนง ช่างกุญแจ เขตมีนบุรี ช่างกุญแจ เขตลาดกระบัง ช่างกุญแจ เขตห้วยขวาง ช่างกุญแจ เขตดินแดง ช่างกุญแจ เขตบึงกุ่ม ช่างกุญแจ เขตจตุจักร ช่างกุญแจ เขตประเวศ ช่างกุญแจ เขตดอนเมือง ช่างกุญแจ เขตลาดพร้าว ช่างกุญแจ เขตหลักสี่ ช่างกุญแจ เขตสายไหม ช่างกุญแจ เขตวังทองหลาง ช่างกุญแจ เขตคลองสามวา ช่างกุญแจ เขตบางนา ช่างกุญแจ ห้วยขวาง ช่างกุญแจ รามอินทรา ช่างกุญแจ สุขาภิบาล ช่างกุญแจ รัชดาภิเษก ช่างกุญแจ รังสิต ช่างกุญแจ หนองจอก ช่างกุญแจ อุดมสุข ช่างกุญแจ ปากเกร็ด ช่างกุญแจ สะพานควาย\nช่างกุญแจ ดอนเมือง ช่างกุญแจ รังสิต ช่างกุญแจ แจ้งวัฒนะ ช่างกุญแจ ปทุมธานี ช่างกุญแจ บางปู ช่างกุญแจ นนทบุรี ช่างกุญแจ ลาดพร้าว ช่างกุญแจ ลำลูกกา ช่างกุญแจ คลองหลวง ช่างกุญแจ ธัญบุรี ช่างกุญแจ คลองเตย ช่างกุญแจ สุทธิสาร ช่างกุญแจ อ่อนนุช ช่างกุญแจ บางพลี ช่างกุญแจ จตุจักร ช่างกุญแจ สุขุมวิท ช่างกุญแจ ดินแดง ช่างกุญแจ ช่างกุญแจ ราษฎร์บูรณะ ช่างกุญแจ ลาดกระบัง ช่างกุญแจ ลาดพร้าว ช่างกุญแจ วังทองหลาง ช่างกุญแจ ธนบุรี ช่างกุญแจ พัฒนาการ ช่างกุญแจ สาทร ช่างกุญแจ สายไหม ช่างกุญแจ วิภาวดี ช่างกุญแจ หลักสี่ พระราม 2 ช่างกุญแจ ดอนเมือง ช่างกุญแจ ดินแดง ช่างกุญแจ กิ่งแก้ว ช่างกุญแจ บางกะปิ ช่างกุญแจ บางเขน ช่างกุญแจ บางนา ช่างกุญแจ พหลโยธิน ช่างกุญแจ ประเวศ ช่างกุญแจ ลาดกระบัง ช่างกุญแจ พระโขนง ช่างกุญแจ งามวงศ์วาน ช่างกุญแจ มีนบุรี ช่างกุญแจ พระราม 9 ช่างกุญแจ สุขุมวิท \nช่างกุญแจ พัฒนาชนบท ช่างกุญแจ เลียบกาญจนาพิเศษ\nรับเปิดบ้าน เปิดห้อง เปิดตู้ ช่างเปิดบ้าน ช่างเปิดรถ รับทำกุญแจรถยนต์ กุญแจฝังชิพ กุญแจรีโมท กุญแจหาย ทำกุญแจเพิ่ม ทำให้ดอกกุญแจที่หายไปไม่สามารถนำกลับมาใช้งานได้ เรามีเครือข่ายช่างกุญแจระดับมืออาชีพคอยให้บริการครอบคลุมทุกพื้นที่ในกทม.และปริมณฑล ลืมกุญแจไว้ในรถ ลืมกุญแจไว้ในบ้าน ลืมรหัสตู้เซฟ กุญแจหาย กุญแจรถหาย กุญแจบ้านหาย กุญแจเสีย กุญแจพัง กุญแจไขไม่ได้ \nบริการเปิด – ซ่อม – ทำกุญแจ รถทุกรุ่น กุญแจ BMW กุญแจ BENZ กุญแจ AUDI กุญแจ PORSCHE กุญแจ VOLVO กุญแจ MINI COOPER กุญแจ VOLKSWAGEN กุญแจ CHEVROLET กุญแจ TOYOTA กุญแจ HONDA กุญแจ NISSAN กุญแจ MAZDA กุญแจ MITSUBISHI กุญแจ Push Start กุญแจ Smartkey กุญแจ Keyless\nบริการทำกุญแจรถมอไซด์ทุกรุ่น กุญแจฝังชิพ Superbike กุญแจ Honda กุญแจ Yamaha กุญแจ Kawasaki กุญแจ Suzuki กุญแจ Ducati กุญแจ CBR กุญแจ SRR \nบริการเปิด – ซ่อม – ทำกุญแจตู้เซฟทุกรุ่น กุญแจ KINGDOM กุญแจ LEECO กุญแจ TAIYO กุญแจ CHUBB กุญแจ DIMOND กุญแจ SUPER SAFE กุญแจ INTER SAFE หารหัสตู้เซฟ\nบริการเปิด – เปลี่ยน – ซ่อม – ติดตั้งกุญแจบ้าน กุญแจคอนโด กุญแจหอพัก กุญแจประตูกระจก กุญแจ VVP กุญแจ Yale กุญแจ SOLO กุญแจ SOLEX กุญแจ Lucky กุญแจลิ้นชัก กุญแจโต๊ะ กุญแจตู้เอกสาร กุญแจสำนักงาน รับเหมาทำกุญแจสำนักงาน กุญแจโรงแรม",
        "emails": [
            "poodnaijai@hotmail.com"
        ],
        "id": "334504310084461",
        "location": {
            "city": "Bangkok",
            "country": "Thailand",
            "latitude": 13.72079860357,
            "longitude": 100.71512131119,
            "street": "ลาดกระบัง",
            "zip": "10520"
        },
        "name": "ช่างกุญแจรถ รีโมทรถยนต์ สะเดาะกุญแจ ช่างปิงปอง Tel.0956688966",
        "phone": "0924262629"
    },
    {
        "about": "ช่างกุญแจเชียงใหม รับเปิดกุญแจ ทุกชนิด",
        "description": "บริการ เปิดกุญแจรถ (ทุกยี่ห้อ ทุกรุ่น) เปิดกุญแจบ้าน เปิดกุญแจเซฟ โดยเน้นเปิดทางรูกุญแจทำให้ไม่เกิดรอยไดๆจากการเปิด ช่อมกุญแจ ทำกุญแจใหม่(กุญแจหาย) สลับฟันกุญแจ เซ็ตระบบรีโมท-ชิพใหม่ (ซื้อรถมือสองมาหรือกุญแจหาย ป้องกันคนที่เก็บกุญแจได้ หรือ เจ้าของเดิมแอบนำกุญแจตัวเดิมมาไข)ก้อปปี้กุญแจรีโมท กุญแจฝังชิพ IMMOBLIZER โดยทีมงานช่างมืออาชีพ มีบริการทำกุญแจรีโมท+ชิพนอกสถานที่\n081-5954855\n",
        "id": "277579529033752",
        "location": {
            "city": "Chiang Mai",
            "country": "Thailand",
            "latitude": 18.7622604,
            "longitude": 98.9929581,
            "street": "เชียงใหม่",
            "zip": "50000"
        },
        "name": "ช่างกุญแจ เชียงใหม่ 081 5954855",
        "phone": "0815954855"
    },
    {
        "about": "รับทำกุญแจครบวงจร ปลดล็อค ซ่อมแก้ไขทุกกรณี รับทำกุญแจระบบฝังชิพทุกรุ่น092-8721178",
        "description": "ช่างกุญแจอยุธยา โทร092-8721178",
        "id": "462654710514316",
        "location": {
            "city": "Ayuthaya",
            "country": "Thailand",
            "latitude": 14.2951206118,
            "longitude": 100.62924463311,
            "zip": "13000"
        },
        "name": "ช่างกุญแจอยุธยา24ชั่วโมง092-8721178",
        "phone": "0928721178"
    },
    {
        "about": "รับสอนทำกุญแจครับ สำหรับท่านที่อยากจะเป็นช่างครับ",
        "id": "404839209613277",
        "location": {
            "city": "Roi-ed",
            "country": "Thailand",
            "latitude": 16.0446,
            "longitude": 103.63,
            "street": "1/109 หน้าร้านทองส.วิวัฒน์ ต.ในเมือง อ.เมืองร้อยเอ็ด",
            "zip": "45000"
        },
        "name": "ช่างกุญแจร้อยเอ็ด 089-8435754 บริการ 24 ชม.",
        "phone": "089 843 5754"
    },
    {
        "about": "www.okd-key.com ช่างแขก ช่างกุญแจ 24 ชม.086-764-7168",
        "description": "ช่างแขก ช่างกุญแจ 24 ชม.086-7647168 \nรับทำกุญแจบ้าน รถยนต์ รถมอเตอร์ไซค์ \nกุญแจอิมโมบิไลเซอร์ ระบบฝังชิพ รีโมท \nและกุญแจทุกชนิด \nบริการเปิดบ้าน เปิดรถ ปลดล๊อค ฯลฯ \nบริการ ทั้งในและนอกสถานที่ \nบริการฉุกเฉิน 24 ชม. \nโทร.081-7606868,086-7647168 (ช่างแขก)",
        "emails": [
            "swk1965@hotmail.com"
        ],
        "id": "299038060207491",
        "name": "ช่างกุญแจ บางใหญ่ บางบัวทอง นนทบุรี 083-2212287/086-7647168",
        "phone": "0832212287"
    },
    {
        "about": "รับทำกุญแจอิมโมบิไลเซอร์และกุญแจฝังชิพ",
        "id": "848189095208030",
        "location": {
            "city": "Saraburi",
            "country": "Thailand",
            "latitude": 14.53236,
            "longitude": 100.92238,
            "street": "69",
            "zip": "18000"
        },
        "name": "ช่างกุญแจสระบุรี 24ชม089-9953363",
        "phone": "0899953363"
    },
    {
        "id": "346754662111051",
        "location": {
            "city": "Chonburi",
            "country": "Thailand",
            "latitude": 12.62871,
            "longitude": 102.11695,
            "street": "เมือพัทยา เมืองชลบุรี จอมเทียน บางแสน นาเกลือ บางละมุง",
            "zip": "22000"
        },
        "name": "ช่างกุญแจ ชลบุรี 0874884333",
        "phone": "0874884333"
    },
    {
        "id": "244198029051932",
        "location": {
            "city": "Bangkok",
            "country": "Thailand",
            "latitude": 13.75395,
            "longitude": 100.50224,
            "street": "ราชเทวี พญาไท เสาวรีย์ ดินแดง สุขุมวิท สีลม สาทร",
            "zip": "100000"
        },
        "name": "ช่างกุญแจราชเทวี 087 488 4333",
        "phone": "0874884333"
    }
]