[
    {
        "about": "ช่างกุญแจรีโมทฝังชิพสระบุรีบริการ24ชั่วโมง092-3451148",
        "description": "ช่างกุญแจรีโมทฝังชิพสระบุรีบริการ24ชั่วโมง092-3451148",
        "id": "564122606990410",
        "location": {
            "city": "Saraburi",
            "country": "Thailand",
            "zip": "18000"
        },
        "name": "ช่างกุญแจสระบุรีทำกุญแจอิโม กุญแจรีโมทฝังชิพ092-3451148key immobilizer",
        "phone": "0923451148"
    },
    {
        "about": "ช่างกุญแจขอนแก่น ทำกุญแจรีโมท กุญแจฝังชิพ24ช.ม082-0707950",
        "description": "ช่างกุญแจขอนแก่น ทำกุญแจรีโมท กุญแจฝังชิพ24ช.ม082-0707950",
        "id": "469511809821730",
        "location": {
            "city": "Amphoe Muang Khon Kaen",
            "country": "Thailand",
            "latitude": 16.436568257047,
            "longitude": 102.83468933184,
            "zip": "40000"
        },
        "name": "ช่างกุญแจขอนแก่น ทำกุญแจรีโมท กุญแจฝังชิพ24ช.ม082-0707950",
        "phone": "0820707950"
    },
    {
        "id": "1493998717486774",
        "location": {
            "city": "Changwat Nan",
            "country": "Thailand",
            "latitude": 18.86598,
            "longitude": 100.7215,
            "street": "น่าน",
            "zip": "55000"
        },
        "name": "ช่างกุญแจน่าน 087 488 4333",
        "phone": "087 488 4333"
    },
    {
        "id": "282740588560769",
        "location": {
            "city": "Nakhon Pathom",
            "country": "Thailand",
            "latitude": 13.39413,
            "longitude": 99.99346,
            "street": "ศาลายา พุทธมณฑล นครชัยศรี นครปฐม",
            "zip": "75000"
        },
        "name": "ช่างกุญแจศาลายา นครชัยศรี 087 488 4333",
        "phone": "087 488 4333"
    },
    {
        "id": "237358636431792",
        "location": {
            "city": "Changwat Rayong",
            "country": "Thailand",
            "latitude": 12.68957,
            "longitude": 101.29684,
            "street": "ระยอง บ้านฉาง ปลวกแดง มาบตาพุด แกลง บ้านเพ สัตหีบ",
            "zip": "21000"
        },
        "name": "ช่างกุญแจร้านในเมืองระยอง 082 473 1555",
        "phone": "0824731555"
    },
    {
        "id": "706969159449986",
        "location": {
            "city": "Chon Buri",
            "country": "Thailand",
            "latitude": 13.3667,
            "longitude": 100.983,
            "street": "1",
            "zip": "20230"
        },
        "name": "ช่างกุญแจ ชลบุรี 0935561452",
        "phone": "0935561452"
    },
    {
        "id": "195096447281351",
        "location": {
            "city": "Bangkok",
            "country": "Thailand",
            "latitude": 13.75395,
            "longitude": 100.50224,
            "street": "รังสิต ดอนเมือง วิภาวดี หลักสี่ กรุงเทพ",
            "zip": "10000"
        },
        "name": "ช่างกุญแจรังสิต 087 488 4333",
        "phone": "0874884333"
    },
    {
        "id": "127829417411609",
        "location": {
            "city": "Khonkean",
            "country": "Thailand",
            "latitude": 16.47889,
            "longitude": 102.82676,
            "street": "ขอนแก่น",
            "zip": "40000"
        },
        "name": "ช่างกุญแจขอนแก่น 087 488 4333",
        "phone": "0874884333"
    },
    {
        "about": "084-5579239",
        "id": "854267371328134",
        "name": "ช่างกุญแจม.กรุงเทพ ธรรมศาสตร์ ปทุมธานี"
    },
    {
        "id": "241409142692483",
        "location": {
            "city": "Bangkok",
            "country": "Thailand",
            "latitude": 13.75395,
            "longitude": 100.50224,
            "street": "ประตูน้ำ อโศก ดินแดง เพลินจิต นานา ชิดลม เสาวรีย์ชัย ราชเทวี กรุงเทพ",
            "zip": "10000"
        },
        "name": "ช่างกุญแจประตูน้ำ 082 473 1555",
        "phone": "0824731555"
    },
    {
        "about": "เปิดกุญแจบ้าน โดยไม่เจาะ ไม่รื้อ ",
        "id": "1183305471686062",
        "location": {
            "city": "Suphan Buri",
            "country": "Thailand"
        },
        "name": "ช่างกุญแจ เปิดรถยนต์ สุพรรณบุรีอู่ทอง0818525235",
        "phone": "0818525235"
    },
    {
        "id": "313581352132980",
        "location": {
            "city": "Khonkean",
            "country": "Thailand",
            "latitude": 16.47889,
            "longitude": 102.82676,
            "street": "282/13 ม.13 ต.ศิลา อ.เมือง จ.ขอนแก่น",
            "zip": "40000"
        },
        "name": "ช่างกุญแจขอนแก่น ไซเบอร์\u0026ล็อค  ค่าย ศรีฯ084-789-9948",
        "phone": "084-789-9948"
    },
    {
        "about": "ช่างกุญแจสระบุรี โทร0863334941 กุญแจฝังชิพ เปิดรถ เปิดบ้าน",
        "description": "ช่างกุญแจสระบุรี โทร0863334941 กุญแจฝังชิพ เปิดรถ เปิดบ้าน เปิดตู้เซฟ\nช่างกุญแจสระบุรี Unlockkey Thailand 24 ชั่วโมง ทั่วไทย 0863334941\nปลดล็อคกุญแจทุกชนิด กุญแจบ้าน กุญแจรถ กุญแจตู้เซฟ ติดตั้งกุญแจทุกชนิด\nกุญแจฝังชิพ กุญแจรีโมท \nกุญแจระบบimmobilizer \nกุญแจระบบputstart\nรับสอนวิชาชีพช่างกุญแจ จำหน่ายอุปกรณ์สำหรับช่างกุญแจ\nช่างกุญแจสระบุรี โทร0863334941 กุญแจฝังชิพ เปิดรถ เปิดบ้าน เปิดตู้เซฟ",
        "emails": [
            "fk_114-2@hotmail.co.th"
        ],
        "id": "223126144503662",
        "location": {
            "city": "Saraburi",
            "country": "Thailand",
            "zip": "18120"
        },
        "name": "ช่างกุญแจสระบุรี โทร0863334941 กุญแจฝังชิพ เปิดรถ เปิดบ้าน เปิดตู้เซฟ",
        "phone": "0863334941"
    },
    {
        "about": "รับซ่อม - ปั้ม กุญแจ ทั้งในและนอกสถานที่ สอบถามเพิ่มเติมโทร 089-8229484",
        "id": "625825824156597",
        "location": {
            "city": "Bangkok",
            "country": "Thailand",
            "latitude": 13.75395,
            "longitude": 100.50224,
            "street": "คลอง 6 ธัญบุรี ปทุมธานี",
            "zip": "12120"
        },
        "name": "วิทย์ช่างกุญแจ 0898229484 ปทุมธานี รังสิต ลำลูกกา คลองหลวง  ธัญบุรี นครนายก",
        "phone": "089-8229484"
    },
    {
        "id": "184113918436572",
        "location": {
            "city": "Bangkok",
            "country": "Thailand",
            "latitude": 13.75395,
            "longitude": 100.50224,
            "street": "ห้วยขวาง ดินแดง รัชดาภิเษก พระราม 9 ลาดพร้าว วิภาวดี เพชรบุรีตัดใหม่ คลองตัน รามคำแหง",
            "zip": "10000"
        },
        "name": "ช่างกุญแจห้วยขวาง ดินแดง 082 473 1555",
        "phone": "0824731555"
    },
    {
        "id": "844591128891039",
        "location": {
            "city": "Chonburi",
            "country": "Thailand",
            "latitude": 13.36899,
            "longitude": 100.9957,
            "street": "พานทอง พนัสนิคม ดอนหัวฬ่อ อมตะนคร ชลบุรี",
            "zip": "20000"
        },
        "name": "ช่างกุญแจพานทอง 087 488 4333",
        "phone": "087 488 4333"
    },
    {
        "about": "ช่างกุญแจอยุธยา อำเภออุทัย โทร092-8721178",
        "description": "ช่างกุญแจอำเภออุทัย โทร092-8721178 บริการ24ชั่วโมง",
        "id": "1439684562910451",
        "location": {
            "city": "Amphoe U Thai",
            "country": "Thailand",
            "latitude": 14.36864,
            "longitude": 100.671239,
            "zip": "13210"
        },
        "name": "ช่างกุญแจอยุธยา อำเภอ อุทัย โทร092-8721178 เปิดรถ บ้าน เซพ ทำกุญแจฝังชิพ",
        "phone": "0928721178"
    },
    {
        "id": "174499012709691",
        "location": {
            "city": "Chonburi",
            "country": "Thailand",
            "latitude": 13.36211,
            "longitude": 100.98371,
            "street": "ชลบุรี พัทยา บางแสน จอมเทียน นาเกลือ บางละมุง สัตหีบ หนองมน บางพระ",
            "zip": "20300"
        },
        "name": "ช่างกุญแจชลบุรี 082 473 1555",
        "phone": "0824731555"
    },
    {
        "id": "637415369620373",
        "location": {
            "city": "Bangkok",
            "country": "Thailand",
            "latitude": 13.75395,
            "longitude": 100.50224,
            "street": "สุขสวัสดิ์ ราษฎร์บูรณะ ดาวตะนอง ตลิ่งชัน ดาวคะนอง ทุ่งครุ",
            "zip": "10000"
        },
        "name": "ช่างกุญแจสุขสวัสดิ์ 082 473 1555",
        "phone": "0824731555"
    },
    {
        "id": "1385899205066148",
        "location": {
            "city": "Chiang Mai",
            "country": "Thailand",
            "latitude": 18.7903,
            "longitude": 98.9817,
            "street": "ถ.กำแพงดิน",
            "zip": "50100"
        },
        "name": "ช่างกุญแจ ชาติเชียงใหม่ โทร.081-8845247 ราคากันเองครับ",
        "phone": "0818845247"
    },
    {
        "id": "225017940988844",
        "location": {
            "city": "Bangkok",
            "country": "Thailand",
            "latitude": 13.74641,
            "longitude": 100.50865,
            "street": "คลองถม",
            "zip": "10100"
        },
        "name": "ช่างกุญแจพระนคร",
        "phone": "0890193540"
    },
    {
        "about": "ช่างกุญแจเชียงใหม่ ทำกุญแจรถ เปิดรถ เปิดบ้าน 0866700454",
        "description": "ช่างกุญแจเชียงใหม่ 24 ชม 0866700454 ลืมกุญแจ กุญแจหาย กุญแจเสีย\nซ่อมกุญแจ เปลี่ยน ติดตั้งใหม่ เปิดรถยนต์ทุกรุ่นทุกชนิด เปิดตู้เซฟ เปิดล็อคลูกบิด เปิดล็อคแม่กุญแจ เปิดล็อคเกียร์ล็อคคลัช ทำลูกกุญแจรถยนต์และมอเตอร์ไซค์นอกสถานที่(ทุกรุ่น) ทำกุญแจมาสเตอร์คีย์ ถือดอกเดียวไขได้หมด \nเปิดรถยนต์ เปิดประตูรถ เปิดฝาท้าย เบนซ์ BENZ \u003e\u003eE-CLASS \u003e\u003eS-CLASS\nเปิดประตูรถเปิดฝาท้ายBMW \u003eSerise 3 5 6 7 E46/E38/E36/E34/E39/ E60/E61 62 63 64 65 66 67\n                                                   68 /E90/ E91/ E92/E93/ \nเปิดประตูรถVOLVO\u003e\u003eเปิดประตูรถLEXUS\u003e\u003e MINI COOPER\u003e\u003eMISZUBISHI\u003e\u003e\nเปิดประตูรถ ฮอนด้าHonda\u003e\u003eACCORD\u003e\u003eCIVIC\u003e\u003e CITY\u003e\u003e JASS \u003e\u003eBRIO\u003e\u003eCRV\u003e\u003eFEED\nเปิดประตูรถ TOYOTA\u003e\u003e CAMRY\u003e\u003eWISH\u003e\u003eFORTUNER\u003e\u003eALTIS\u003e\u003eVIOS\u003e\u003eYASIS\u003e          \n                                วีโก้ VIGO\u003e\u003eAVANZA\u003e\u003eอัลฟาร์ดALPHARD\u003e \u003eแฮรี่เออร์\u003eHARRIER\u003e\u003e                                      LANDCRUISER\u003e\u003eรถตู้COMMUTER\u003e\u003e\nเปิดประตูรถNISSAN\u003e\u003eMARCH\u003e\u003eCUBE\u003e\u003eNAVARA\u003e\u003e ALMERA \u003eTEANA\u003e\u003e\n                                CEFIRO\u003e\u003e350\u003e\u003eSUNNY NEO\u003e\u003eTIDA\nเปิดประตุรถ MAZDA 2\u003e\u003e MAZDA3 \u003e\u003eBT50\nเปิดประตูรถฟอร์ดFORD\u003e\u003eFOCUS \u003e\u003e\nเปิดประตูรถ ISUZU \u003eดีแม็ก D-MAX \u003e\u003e",
        "id": "462150277209695",
        "name": "ช่างกุญแจเชียงใหม่ 24 ชม 0866700454 เปิดรถยนต์ทุกชนิด"
    },
    {
        "id": "1613162408915511",
        "location": {
            "city": "Cha-am",
            "country": "Thailand",
            "latitude": 12.76957,
            "longitude": 99.89116,
            "street": "2/3ถ.นราธิป",
            "zip": "76120"
        },
        "name": "ช่างกุญแจเพชรบุรี0817638107",
        "phone": "0817638107"
    },
    {
        "id": "293599484105348",
        "location": {
            "city": "Bangkok",
            "country": "Thailand",
            "latitude": 13.75395,
            "longitude": 100.50224,
            "street": "บางพลี บางนา สมุทรปราการ ศรีนครินทร์",
            "zip": "10000"
        },
        "name": "ช่างกุญแจบางพลี 087 488 4333",
        "phone": "0874884333"
    },
    {
        "about": "เปิดรถ เปิดบ้าน เปิดลูกบิด ตู้เซฟ กุญแจรีโมท กุญแจฝังชิฟรถยนต์และรับทำกุญแจต่างๆ",
        "description": "ช่างกุญแจ เปิดกุญแจบ้าน เปิดกุญแจรถ ลืมกุญแจ กุญแจหาย ลืมกุญแจไว้ในรถ ลืมกุญแจไว้ในบ้าน เปิดตู้เอกสาร เปิดตู้สำนักงาน กุญแจรถไขสตาร์ทไม่ได้ รับแก้ไขกุญแจรถที่ใช้งานไม่ได้ รับทำกุญแจฝังชิพอิมไมบิไลเซอร์ กุญแจชิพสูญหาย ทำกุญแจฝังชิพเพิ่ม",
        "id": "670305399654845",
        "location": {
            "city": "Cha-am",
            "country": "Thailand",
            "street": "2/3 ถ.นราธิป ต.ชะอำ อ.ชะอำ จ.เพชรบุรี",
            "zip": "76120"
        },
        "name": "ช่างกุญแจชะอำ เพชรบุรี 0891121713 บริการ24ชั่วโมง",
        "phone": "0891121713"
    }
]