[
    {
        "about": "รับซ่อมกระจกรถยนต์โดนหิน \nราคาเริ่มต้น 500-1,000 บาท\nบริการถึงที่ พื้นที่ กรุงเทพ และรอบๆๆ\n",
        "id": "738924299511511",
        "name": "ช่างเล็ก ซ่อมกระจกรถยนต์โดนหิน"
    },
    {
        "id": "903031673069933",
        "location": {
            "city": "Lampang",
            "country": "Thailand",
            "latitude": 18.3,
            "longitude": 99.5,
            "street": "42",
            "zip": "52000"
        },
        "name": "อู่ - ช.นิว โมดิฟาย ซ่อมรถยนต์/จักรยานยนต์/เครื่องเสียงรถยนต์",
        "phone": "089 634 8685"
    },
    {
        "id": "485592158260016",
        "name": "ยางรถยนต์ ทุกชนิด ถ่วงล้อ ตั้งศูนย์ ซ่อมทุกอย่างที่เกียวกับรถยนต์"
    },
    {
        "about": "ตัวแทนจำหน่ายและติดตั้ง ช็อคอัพ Amada Xtreme  สำหรับรถกระบะทุกรุ่น ทุกยี่ห้อ",
        "id": "808386702547684",
        "location": {
            "city": "Amphoe Sadao",
            "country": "Thailand",
            "latitude": 6.6346836582781,
            "longitude": 100.39538383484,
            "street": "144/2 padangbesar rd.sadao songkla",
            "zip": "90120"
        },
        "name": "NEO Garage - ศูนย์เปลี่ยนถ่ายและซ่อมบำรุงรถยนต์",
        "phone": "0979429299"
    },
    {
        "id": "1608039326104431",
        "name": "รับซ่อมรถยนต์นอกพื้นที่รังสิตปทุมธานี"
    },
    {
        "about": "รับซ่อม ทำสีล้อแม็กซ์รถยนต์ ล้อคด ดุ้ง แตก ร้าว รอยเบียดฟุตบาท 081-7835168 สมุทรปราการ",
        "id": "1460788054240593",
        "location": {
            "city": "Samut Prakan",
            "country": "Thailand",
            "latitude": 13.610212561771,
            "longitude": 100.67411899567,
            "street": "63/52 ม.3 ถ.เทพารักษ์ บางพลี",
            "zip": "10540"
        },
        "name": "เคซี ออโต้แม็กซ์ l ซ่อมทำสีล้อแม็กซ์รถยนต์",
        "phone": "0817835168"
    },
    {
        "emails": [
            "e.g.1623@hotmail.com"
        ],
        "id": "434151366754208",
        "location": {
            "city": "ดอนเมือง   กทม.",
            "street": "ถนน นาวงพัฒนา สรงประภา"
        },
        "name": "อู่ทำสีรถยนต์และซ่อมสีรถยนต์",
        "phone": "0814201239"
    },
    {
        "about": "รับติดตั้งเครื่องเสียงรถยนถ์ และรับซ่อม ตู้เย็น ตู้แช่ แอร์บ้าน แอร์รถยนต็",
        "id": "1532036533704881",
        "name": "เคื่รองเสียงติดรถยนต์ และรับจ้างซ่อมเคืรองใช้ไฟฟาทุกชนิด",
        "phone": "0890696712"
    },
    {
        "id": "871490269539047",
        "location": {
            "city": "Kalasin",
            "country": "Thailand",
            "latitude": 16.371313975,
            "longitude": 103.555352125,
            "street": "บ.ดงสว่าง ต.ห้วย้โพธิ์ อ.เมือง จ.กาฬสินธุ์",
            "zip": "46000"
        },
        "name": "อู่ซ่อมรถยนต์.บ.ใหม่ออโต้เซอร์วิส",
        "phone": "0874267674"
    },
    {
        "about": "อู่ ซ่อมรถยนต์",
        "id": "1486937828273166",
        "name": "รับซ่อมระบบไฟ ระบบแอร์รถยนต์ ทุกชนิด อุ่ส.เจริญยนต์ นครอินทร์1"
    },
    {
        "id": "431686827015870",
        "name": "ช่าง ซ่อมบำรุง รถยนต์"
    },
    {
        "id": "672932156176546",
        "name": "ช่างซ่อมเกียร์รถยนต์"
    },
    {
        "about": "รับซ่อมสีรถยนต์ทุกชนิด รับงานประกันภัยทุกบริษัท รับประกันคุณภาพ\n โทร 0813371714,0892404466",
        "id": "1565253810382344",
        "location": {
            "city": "Bangkok",
            "country": "Thailand",
            "latitude": 13.8689663,
            "longitude": 100.58177205,
            "street": "149/5 ซ.วิภาวดี64แขวงตลาดบางเขน เขตหลักสี่ กรุงเทพ",
            "zip": "10210"
        },
        "name": "อู่สีตานพ รับซ่อมสีรถยนต์ทุกชนิด",
        "phone": "0892404466"
    },
    {
        "about": "เครื่องมือช่าง#สนใจติดต่อ0830879646",
        "id": "1607562419497571",
        "name": "ขายเครื่องมือซ่อมรถยนต์ราคาย่อมเยาว์คับ#สนใจติดต่อ0830879646"
    },
    {
        "id": "133992310082579",
        "location": {
            "city": "Bangkok",
            "country": "Thailand",
            "street": "597 ซ.พัฒนาการ5 แขวงสวนหลวง เขตสวนหลวง",
            "zip": "10250"
        },
        "name": "อู่ช่งเส็ง | อู่ของคนรักรถ - บริการเคาะ ซ่อม พ่นสี รถยนต์",
        "phone": "023143862, 027173441"
    },
    {
        "emails": [
            "joautoservice00@gmail.com"
        ],
        "id": "364653647020405",
        "location": {
            "city": "Tachilek",
            "country": "Myanmar",
            "latitude": 20.523828210773,
            "longitude": 99.942188300931,
            "zip": "57130"
        },
        "name": "Joauto service ศูนย์บริการซ่อมรถยนต์มาตรฐานครบวงจร",
        "phone": "093-1645125 : Shop, 061-3511253 : Pornchai, 086-9240643 : Thong"
    },
    {
        "id": "268279856625777",
        "location": {
            "city": "Chonburi",
            "country": "Thailand",
            "street": "อัครนิวาต",
            "zip": "20000"
        },
        "name": "เจ้าของกิจการอุ่ซ่อมรถยนต์ ฤทธิ์เซอร์วิส",
        "phone": "0897529075"
    },
    {
        "id": "1434025300166895",
        "location": {
            "city": "Bangkok",
            "country": "Thailand",
            "latitude": 13.774,
            "longitude": 100.65728,
            "street": "438/1 ถ.รามคำแหง เขตสะพานสูง กทม.",
            "zip": "10240"
        },
        "name": "เซ้งอู่ซ่อมรถยนต์เนื้อที่130ตารางวา",
        "phone": "0840208664"
    },
    {
        "about": "ซ่อม+ติดตั่ง+ดัดแปลก กระจกไฟฟ้า เซ็นทรัลล็อค รีโมทรถยนต์ กุญแจรถยนต์ สนใจติดต่อ 095-9098015",
        "description": "ซ่อม+ติดตั่ง กระจกไฟฟ้ารถยนต์ เซ็นทรัลล็อค กลอนประตูรถยนต์ กุญแจประตูรถยนต์ รีโมทล็อคแบบธรรมดามีเสียง รับประกัน 3เดือน 6เดือน 1ปี\n\nที่อยู่ 109 ถ.จรัญสนิทวงศ์ เขตบางพลัด แขวงบางพลัด กรุงเทพมหานคร 10700\n\nเบอร์โทร 02.4241560 086.0057795",
        "id": "204373136353016",
        "location": {
            "city": "Bangkok",
            "country": "Thailand",
            "latitude": 13.7720327,
            "longitude": 100.4804993,
            "street": "ถนนจรัญสนิทวงศ์ เขตบางพลัด แขวงบางพลัด 10700",
            "zip": "10700"
        },
        "name": "ร้านซ่อมกระจกไฟฟ้ารถยนต์ กลอนประตู เซ็นทรันล็อค",
        "phone": "0959098015"
    },
    {
        "about": "ขัดคราบน้ำคราบหินปูนฝังเเน่นบนกระจกรถยนต์ ซ่อมกระจกเป็นรอยทุกอาการ",
        "id": "918333171513308",
        "location": {
            "city": "Bangkok",
            "country": "Thailand",
            "latitude": 13.77195,
            "longitude": 100.59684,
            "street": "ลาดพร้าว รามอินทรา กรุงเทพ",
            "zip": "10310"
        },
        "name": "ขัดคราบน้ำฝังเเน่นกระจกรถยนต์ ขัดลบรอยบนกระจก ซ่อมกระจกร้าว มีบริการถึงที่",
        "phone": "0839030588"
    },
    {
        "id": "1499141377065965",
        "location": {
            "city": "Lop Buri",
            "country": "Thailand"
        },
        "name": "ธุรกิจส่วนตัวช่างซ่อมรถยนต์"
    },
    {
        "about": "มีปัญหาเรื่องรถปรึกษาเราสิค่ะยินดีให้บริการครับ\u0026ช่างมนัส(กบ)",
        "id": "824595197560709",
        "name": "อู่มนัสเซอร์วิสบริการรับซ่อมรถยนต์ทุกยี่ห้อเครื่อง\u0026ช่วงล่าง"
    },
    {
        "about": "รับซ่อมกล่องราคาถูก รับประกัน 3 เดือน\nสนใจติดต่อสอบถามได้ครับ \nTell.0927581820\n",
        "id": "831567093596601",
        "location": {
            "city": "Chaiyaphum",
            "country": "Thailand",
            "latitude": 15.8,
            "longitude": 102.033,
            "street": "40 หมู่ 1 ต.หนองสังข์ อ.แก้งคร้อ",
            "zip": "36150"
        },
        "name": "รับซ่อม กล่องEcu กล่องหลักรถยนต์ สิบล้อ ซ่อมเครื่องยนต์ทุกระบบ",
        "phone": "0927581820"
    },
    {
        "about": "จำหน่ายอะไหล่รถยนต์ปลีก-ส่ง  น้ำมันเครื่อง  เบรค  ครัช  ช่วงล่าง  และบริการซ่อม  รถลากเข้าอู่",
        "emails": [
            "siwapahn@hotmail.co.th"
        ],
        "id": "396026817252241",
        "location": {
            "city": "Chiang Mai",
            "country": "Thailand",
            "latitude": 18.8118534,
            "longitude": 99.0112762,
            "street": "86/1 ม.8 ต.ข่วงเปา  อ.จอมทอง",
            "zip": "50160"
        },
        "name": "ตี๋ เจริญยนต์ บริการซ่อม และจำหน่ายอะไหล่รถยนต์ปลีก-ส่ง",
        "phone": "053826184,0892640876,0871885594"
    },
    {
        "id": "661263043983951",
        "name": "ช่าง แอร์ รถยนต์ ซ่อมหม้อน้ำ ทุกรุ่นทุกยี่ห่อ"
    }
]