[
    {
        "id": "451673928354363",
        "location": {
            "city": "Bangkok",
            "country": "Thailand",
            "latitude": 13.8059502,
            "longitude": 100.7265472,
            "street": "54ซ.ใกล้เคียงรามคำแหง 172ถ.รามคำแหงแขวง มีนบุรี เขต มีนบุรี",
            "zip": "10510"
        },
        "name": "อู่ช่างชื่น - สาขา2รับซ่อมเครื่อง เบรค ครัทช์ ช่วงล่างรถยนต์ทุกชนิด",
        "phone": "0898100681+0878238083"
    },
    {
        "id": "310383915794025",
        "location": {
            "latitude": 9.0986244,
            "longitude": 99.6441246
        },
        "name": "อู่ซ่อมรถยนต์ เนสเซอร์วิส"
    },
    {
        "about": "เครื่องยนต์ เบรค ครัช ช่วงล่าง\n ",
        "description": "290/2หมู่5ต.หนองน้ำใสอ.สีคิ้วจ.นครราชสีมา",
        "id": "1567845490118961",
        "location": {
            "city": "Thai Chang",
            "country": "Thailand",
            "latitude": 14.90579,
            "longitude": 101.72486,
            "street": "290/2หมู่5บ้านใหม่สามัคคี",
            "zip": "30140"
        },
        "name": "อู่ซ่อมรถยนต์ ต.การช่าง"
    },
    {
        "about": "รับซ่อมกล่อง ECU รถยนต์และเรือนไมค์ ทุกชนิดครับ \nมาง่ายทางสะดวก 0895328348",
        "id": "1464961430461108",
        "location": {
            "city": "กทม",
            "street": "ซอยเพิ่มสิน 52",
            "zip": "10220"
        },
        "name": "รับซ่อมกล่อง ECU รถยนต์และเรือนไมค์"
    },
    {
        "description": "เป็นศูนย์ซ่อมสีรถยนต์มาตรฐาน รับซ่อมรถประกัน เงินสด ",
        "emails": [
            "suntee_qq@hotmail.com"
        ],
        "id": "198697716858983",
        "location": {
            "street": "155 หมู่ที่ 1 ตำบลหนองยาว อำเภอพนมสารคาม จังหวัดฉะเชิงเทรา 24120"
        },
        "name": "หจก.เอิร์ธออโต้เพ้นท์ ศูนย์ซ่อมสีรถยนต์มาตรฐาน",
        "phone": "086-1454888"
    },
    {
        "about": "บริการ ซ่อม ล้าง เติม น้ำยาแอร์ R12 R134A",
        "id": "545005272224691",
        "location": {
            "city": "Paknam",
            "country": "Thailand",
            "latitude": 13.54812,
            "longitude": 100.68051,
            "street": "430 ตรงข้ามศาลเจ้าไตกงปากน้ำ ถ. ท้ายบ้าน อ. เมือง จ.สมุทรปารการ",
            "zip": "10280"
        },
        "name": "ซ่อมแอร์ รถยนต์ เติมน้ำยาแอร์",
        "phone": "0800780097"
    },
    {
        "id": "1609980079250767",
        "location": {
            "city": "Bangkok Noi",
            "country": "Thailand",
            "latitude": 13.75,
            "longitude": 100.483,
            "street": "บ้านหม้อ",
            "zip": "10700"
        },
        "name": "ช่างป๋อง ซ่อมอุปกรณ์เครื่องใช้ไฟฟ้าทุกชนิด+ติดตั้งเครื่องเสียงรถยนต์",
        "phone": "0926698202"
    },
    {
        "id": "1683712225183237",
        "location": {
            "city": "Amphoe Pranburi",
            "country": "Thailand",
            "latitude": 12.3833,
            "longitude": 99.9167,
            "street": "556 ม.4",
            "zip": "77120"
        },
        "name": "อู่สถิตย์กลการ บริการซ่อมบำรุงช่วงล่างรถยนต์  และจำหน่ายอะไหล่รถตัดอ้อย",
        "phone": "0924596162"
    },
    {
        "id": "854486027951325",
        "location": {
            "city": "Chumphon",
            "country": "Thailand",
            "latitude": 10.49766,
            "longitude": 99.17812,
            "street": "เมืองชุมพร",
            "zip": "86000"
        },
        "name": "รับซ่อมแอร์รถยนต์รถทุกรุ่นทั้งในและนอกสถานที่",
        "phone": "0831073607"
    },
    {
        "about": "อะไหล่ มือหนึ่งและมือสอง",
        "id": "228283354035905",
        "location": {
            "city": "Bangkok",
            "country": "Thailand",
            "latitude": 13.75395,
            "longitude": 100.50224,
            "street": "parknum",
            "zip": "10420"
        },
        "name": "บริการซ่อม ให้คำปรึกษาและจัดหาอะไหล่รถยนต์ ใหม่และมือสอง",
        "phone": "085-6763178"
    },
    {
        "about": "เคาะ ปะผุ พ่นสีกันสนิมใต้ท้องรถ ซ่อมทำสีรถยนต์ รถบรรทุกทุกชนิด",
        "description": "บริการต่อตู้แห้งอลูมิเนียมรถบรรทุก ซ่อม เคาะ ปะผุ ทำสีรถยนต์ทุกชนิด",
        "emails": [
            "nooyui_wan@hotmail.com"
        ],
        "id": "182204438629213",
        "location": {
            "city": "มีนบุรี กทม.",
            "street": "ถนนประชาร่วมใจ แขวงทรายกองดินใต้ เขตคลองสามวา",
            "zip": "10510"
        },
        "name": "อู่อุดมกาญจนโรจน์ฯ ต่อตู้อลูมิเนียมรถบรรทุก เคาะ ทำสี ซ่อมตู้ ทำโลโก้รถยนต์",
        "phone": "0860952269"
    },
    {
        "about": "บริการซ่อมอุปกรณ์เครื่องมือ ระบบไฮโดรลิค ระบบนิวเมติกส์(ระบบลม) ฯลฯ",
        "description": "ประสบการณ์การทำงานมากกว่า 30 ปี ในงานซ่อมบำรุงอุปกรณ์ประจำศูนย์บริการและอู่รถยนต์ และอุปกรณ์ต่างๆที่เกี่ยวข้องกับ ระบบไฮโดรลิด ระบบนิวเมติกส์(ระบบลม) ลูกค้าของเรามีทั้งอู่ขนาดเล็ก กลาง และใหญ่ ด้วยที่เราเป็นตัวแทนและพาร์ทเนอร์ของ \n   บริษัท วี.เยนเนอรัล โอโตกรุ๊ป จำกัด (www.vgeneral.com)\n   บริษัท ซีโกส (ประเทศไทย) จำกัด (www.ceegosth.com\n   บริษัท เอ็มเอสเอส เทรดดิ้ง แอนด์ เซอร์วิส จำกัด (บางเขน)\n   บริษัท เอ็มเอสเอส อิควิปเมนท์ แอนด์ เซอร์วิส จำกัด (ลำลูกกา)\nเราได้รับความไว้วางใจให้เข้าไปบริการในศูนย์บริการรถยนต์ โตโยต้า มิตซูบิชิ อีซูซุ ฟอร์ด มาสด้า และอื่นๆอีกมากมายในกรุงเทพมหานครและปริมณฑล ณ ปัจจุบันเรากำลังขยายงานบริการของเราออกสู่ต่างจังหวัดอย่างต่อเนื่อง ",
        "emails": [
            "venine.service@gmail.com"
        ],
        "id": "1426420104287429",
        "location": {
            "city": "กรุงเทพมหานคร",
            "street": "18 ซ.ลาดปลาเค้า50 ถ.ลาดปลาเค้า แขวงจรเข้บัว เขตลาดพร้าว",
            "zip": "10230"
        },
        "name": "V9 : วีไนน์ เซอร์วิส : ซ่อมเครื่องมือในอู่รถยนต์ทุกชนิด",
        "phone": "0899259250"
    },
    {
        "about": "บริการรับซ่อมระบบ ล๊อกประตู รีโมทรถยนต์ ทุกรุ่น ยี่ห้อ ",
        "id": "1628475874054838",
        "name": "บริการรับซ่อมระบบ ล๊อกประตู รีโมทรถยนต์ ทุกยี่ห้อ"
    },
    {
        "id": "423580311182402",
        "location": {
            "city": "Bangkok",
            "country": "Thailand"
        },
        "name": "อู่ซ่อมรถยนต์แม้นศรี2"
    },
    {
        "id": "843600272427232",
        "name": "อู่ซ่อมรถยนต์ สมการช่าง"
    },
    {
        "about": "ซ่อมกระจกรถยนต์",
        "description": "รับงานซ่อมกระจกรถยนต์แตก บิ่น จากเศษหินกระเด็นใส่ เมื่อซ่อมแล้วจะเหลือร่องรอยเพียงเล็กน้อยครับ เริ่มต้นที่ 800 บาท\nวาริชภูมิ พังโคน นิคมน้ำอูน ส่งดาว ไม่คิดค่าเดินทางครับ\nนอกนั้นขอค่าน้ำมันเพิ่มตามระยะทาง ในบางกรณีก็ไม่เพิ่มครับ..",
        "emails": [
            "a62528@gmail.com"
        ],
        "id": "1618619868381643",
        "location": {
            "city": "Warichaphum",
            "country": "Thailand",
            "latitude": 17.263305853841,
            "longitude": 103.60652446747,
            "street": "บ้านขอนขว้าง ตำบลวาริชภูมิ",
            "zip": "47150"
        },
        "name": "ซ่อมกระจกรถยนต์ กระจกโดนหิน สกลนคร และจังหวัดใกล้เคียง",
        "phone": "0833465860"
    },
    {
        "id": "265668126890333",
        "name": "ซ่อมรอยบุบตัวถังรถยนต์",
        "phone": "0879876668"
    },
    {
        "about": "รับซ่อมรถยนต์ โตโยต้าทุกรุ่น",
        "id": "661994927210236",
        "location": {
            "city": "Supanburi",
            "country": "Thailand",
            "latitude": 14.14059,
            "longitude": 99.86248,
            "street": "อ.สองพี่น้อง จ.สุพรรณบุรี",
            "zip": "72190"
        },
        "name": "P\u0026A เซอร์วิส รับซ่อมรถยนต์โตโยต้า ทุกรุ่น",
        "phone": "087-3534756"
    },
    {
        "about": "ติดต่อ เพื่อดูตัวอย่าง ",
        "description": "ตกแต่งภายในรถยนต์ทุกรุ่น",
        "emails": [
            "palathorn_2551@hotmail.com"
        ],
        "id": "328933203851237",
        "location": {
            "street": "รังสิต"
        },
        "name": "จำหน่ายโซฟาและรับซ่อมโซฟา เก้าอี้สำนักงาน เบาะรถยนต์ ทุกชนิด",
        "phone": "0868237729"
    },
    {
        "id": "863342497069344",
        "location": {
            "city": "Chon Buri",
            "country": "Thailand",
            "latitude": 13.3667,
            "longitude": 100.983,
            "street": "23/182 หมู่8 ตำบลนาป่า",
            "zip": "20000"
        },
        "name": "AR บอร์ดี้คาร์ - อู่ซ่อมเคาะปะผุทำสีรถยนต์ทุกชนิด",
        "phone": "0838497206"
    },
    {
        "about": "ศูนย์ซ่อมตัวถังและสีรถยนต์มาตรฐาน",
        "emails": [
            "srisahawat.car@gmail.com"
        ],
        "id": "978601055506932",
        "location": {
            "city": "Phitsanulok",
            "country": "Thailand",
            "latitude": 16.8158,
            "longitude": 100.264,
            "street": "460/4 ถ.บรมไตรโลกนารถ2 อ.เมือง จ.พิษณุโลก",
            "zip": "65000"
        },
        "name": "อู่ศรีสหวัฒน์การช่าง ศูนย์ซ่อมตัวถังและสีรถยนต์มาตรฐาน",
        "phone": "055245577"
    },
    {
        "about": "รับ เปลี่ยน-ถ่ายน้ำมันเครื่อง ระบบ แอร์ เติมน้ำยาแอร์ ครบวงจร\nติดต่อ โทร. 084-951-3855 , ",
        "id": "1421139084817186",
        "location": {
            "city": "Chai Nat",
            "country": "Thailand",
            "latitude": 15.02207,
            "longitude": 100.17334,
            "street": "ต.เที่ยงแท้ อ.สรรคบุรี",
            "zip": "17140"
        },
        "name": "ศูนย์บริการซ่อมรถยนต์ - สมบูรณ์การช่าง",
        "phone": "0849513855"
    },
    {
        "id": "763314153779302",
        "location": {
            "city": "Amphoe Banphot Phisai",
            "country": "Thailand",
            "latitude": 15.9342,
            "longitude": 99.9789,
            "street": "99/1 ม.1 ต.เจริญผล  อ.บรรพตพิสัย จ.นคสวรรค์",
            "zip": "60180"
        },
        "name": "วิทยาออโต้แอร์  อู่ซ่อมแอร์ ไดนาโม ระบบไฟรถยนต์",
        "phone": "0884070557"
    },
    {
        "id": "112029382473831",
        "name": "ศูนย์ซ่อม-จำหน่ายกระจกมองข้างรถยนต์ปลีก-ส่งโทร0805522255ไอดีไลน์0805522255"
    },
    {
        "id": "989587831097746",
        "location": {
            "city": "Amphoe Si Racha",
            "country": "Thailand"
        },
        "name": "อู่ซ่อมรถยนต์ C.A บางพระ"
    }
]