[
    {
        "about": "อู่ซ่อมรถยนต์ ช.รุ่งเจริญยนต์ (ซอยเทพารักษ์ 16)\nรับซ่อมเครื่องยนต์-ช่วงล่าง\n089-2250088",
        "id": "1402134293371527",
        "location": {
            "city": "Samut Prakan",
            "country": "Thailand",
            "latitude": 13.6183,
            "longitude": 100.61105,
            "street": "2096 หมู่ที่ 4 ต.เทพารักษ์ อ.เมือง จ.สมุทรปราการ",
            "zip": "10270"
        },
        "name": "อู่ซ่อมรถยนต์ ช.รุ่งเจริญยนต์",
        "phone": "0892250088"
    },
    {
        "id": "445024328928038",
        "location": {
            "city": "Sattahip",
            "country": "Thailand",
            "latitude": 12.64691301,
            "longitude": 100.94165689333,
            "street": "หน่วยบัญชาการต่อสู้อากาศยานและรักษาฝั่ง",
            "zip": "20180"
        },
        "name": "ศูนย์ซ่อมรถยนต์สงคราม"
    },
    {
        "about": "ซ่อมไมล์รถยนต์ ดิจิตอล ",
        "description": "รับซ่อมไมล์ กรอไมล์ ขายเครื่องมือกรอไมล์\nสอนกรอไมล์",
        "id": "534132489947152",
        "name": "รับซ่อมไมล์รถยนต์ ดิจิตอล"
    },
    {
        "about": "https://www.facebook.com/anurakair",
        "description": "ที่ร้านให้บริการซ่อมแอร์ ติดตั้งเครื่องเสียงรถยนต์ อุปกรณ์ระบบแอร์รถยนต์มีอายุการใช้งาน ตามระยะปี ระยะกิโลเมตรที่วิ่งใช้งาน เช็คก่อนซ่อมก่อนก็ไม่เสียหายกลางทาง ไม่เสียหายมาก หากปล่อยให้แอร์เสียหยุดทำงานไปเฉยๆ หรือเปิดแอร์แล้วมีเสียงดังผิดปกติ เปิดแอร์แล้วมีกลิ่นเหม็นไหม้ เปิดแอร์แล้วน้ำรั่วในรถ แสดงว่าระบบแอร์มีความผิดปกติ มีการเสื่อมอายุของอุปกรณ์ในระบบ ควรหาร้านแอร์ที่ใก้ลบ้าน หรือที่คุณมั่นใจ พอใจในคุณภาพและราคา แล้วซ่อมให้ไวที่สุด เพราะแอร์เย็นไว ก็ประหยัดน้ำมันด้วยครับ",
        "emails": [
            "ais1175@gmail.com"
        ],
        "id": "245965355532564",
        "location": {
            "city": "Chiang Mai",
            "country": "Thailand",
            "street": "41 ถ.อนุวิถี  ซอยเจริญเมือง 5 ตำบลท่าศาลา",
            "zip": "50000"
        },
        "name": "ร้านอนุรักษ์แอร์ ซ่อมแอร์ ติดตั้งเครื่องเสียงรถยนต์เชียงใหม่",
        "phone": "094-6355505"
    },
    {
        "id": "168582886637342",
        "location": {
            "city": "Samut Prakan",
            "country": "Thailand",
            "latitude": 13.593845,
            "longitude": 100.59813,
            "street": "บริการทั่วกรุงเทพและปริมลฑล"
        },
        "name": "ซ่อมรอยบุบ-ลักยิ้มรถยนต์โดยไม่ต้องทำสี",
        "phone": "089-0259857"
    },
    {
        "about": "ศูนย์ซ่อมบำรุงและติดตั้งแก๊สรถยนต์มาตรฐาน http://www.quikfitthailand.com",
        "description": "บริษัท ควิก ฟิต (ประเทศไทย) จำกัด ก่อตั้งขึ้นเมื่อปี พ.ศ.2547 โดยก่อตั้งขึ้น เพื่อดำเนินธุรกิจซ่อมบำรุงและติดตั้งแก๊สรถยนต์มาตรฐาน",
        "emails": [
            "quikfitthailand@hotmail.com"
        ],
        "id": "179865112061680",
        "location": {
            "city": "Amphoe Bang Kruai",
            "country": "Thailand",
            "latitude": 13.824608637338,
            "longitude": 100.44574462109,
            "zip": "11130"
        },
        "name": "Quikfit ศูนย์บริการซ่อมรถยนต์แก๊ส-น้ำมัน",
        "phone": "02-459-5846 , 02-864-9749"
    },
    {
        "about": "ข้อมูลข่าวสารรถยนต์ KIA\nซ่อมรถยนต์ KIA\nยินดีให้คำปรึกษารถยนต์ KIA",
        "description": "ยินดีต้อนรับครับ PM Workshop เราซ่อมรถยนต์ KIA ทุกปัญหาสำหรับผู้ใช้รถยนต์ KIA   เรามีทางเลือกให้ลูกค้า โดยทีมงานช่าง ที่มีประสบการณ์จากศูนย์บริการมากกว่า 10 ปีสามารถติดต่อเราได้                                             facebook: https://www.facebook.com/PmWorkshop หรือ email:witcha2418prom@gmail.com",
        "emails": [
            "witcha2418prom@gmail.com"
        ],
        "id": "191374047692434",
        "location": {
            "city": "นนทบุรี",
            "latitude": 13.8611,
            "longitude": 100.513,
            "street": "ซอยวัดใหม่ผดุงเขต (ใกล้กับพุทธมณฑลสาย3)",
            "zip": "11130"
        },
        "name": "PM Workshop  บริการซ่อมรถยนต์ KIA               \"I Like Kia\"",
        "phone": "\u003c\u003cnot-applicable\u003e\u003e"
    },
    {
        "about": "พูดคุยเรื่องซ่อมรถยนต์",
        "id": "102979229860052",
        "name": "ช่างซ่อมรถยนต์"
    },
    {
        "about": "ช่างเอ็กซ์ซ่อม กระจกไฟฟ้า อื่นๆ พิบูลสงคราม11",
        "description": "รับซ่อม-ติดตั้ง \nกระจกไฟฟ้า กลอนประตูรถยนต์ เซ็นทรัลล็อค รีโมทกันขโมย กุญแจรถยนต์\n\nโทร : 086-893-0092 \nร้านอยู่ พิบูลสงครามซอย11 จ.นนทบุรี (โทรมาสอบถามทางก่อนมานะครับ) ใกล้วัดนครอินทร์",
        "id": "606590012796957",
        "location": {
            "city": "Nonthaburi",
            "country": "Thailand",
            "latitude": 13.8247204,
            "longitude": 100.5041809,
            "street": "pibulsongkram11",
            "zip": "11000"
        },
        "name": "ซ่อมกลอนรถยนต์ กระจกไฟฟ้า อื่นๆ พิบูลสงคราม11",
        "phone": "0868930092"
    },
    {
        "about": "อู่สืบมาการช่าง  \nรับซ่อมรถยนต์ทุกชนิด",
        "description": "อู่สืบมาการช่าง\nบริการรับเคาะ พ่นสีรถยนต์ทุกชนิด รับซ่อมรถบ้าน รถประกันภัย โดยช่างผู้ชำนาญงานผ่านประสบการณ์มากกว่า 20 ปี พร้อมทีมงานฝีมือดีมีคุณภาพคอยแก้ไขปัญหาเรื่องสีรถยนต์ให้แก่คุณ จึงไว้วางใจทีมงานเราได้เกี่ยวกับสีรถยนต์ของคุณได้ ในราคาเป็นกันเอง\nสามารถสอบถามรายละเอียดและราคาเพิ่มเติมได้ที่ \nE-mail : Suebma_Service@hotmail.com\nโทร.086-227-2842 ตลอด 24 ชั่วโมง\n\n.......ขอบพระคุณที่ไว้วางใจทีมงานของพวกเรา \nให้รวมเป็นหนึ่งในการดูแลรถยนต์ของคุณ.............",
        "emails": [
            "suebma_service@hotmail.com"
        ],
        "id": "1377608579134185",
        "location": {
            "city": "Borabu",
            "country": "Thailand",
            "latitude": 16.00657,
            "longitude": 103.05788,
            "street": "ที่ตั้ง : 1231 ต.บรบือ อ.บรบือ จ.มหาสารคาม",
            "zip": "44130"
        },
        "name": "ซ่อมรถยนต์ทุกชนิด - อู่สืบมาการช่าง",
        "phone": "086-227-2842"
    },
    {
        "about": "ชุดซ่อมกระจกรถยนต์ กระจกโดนหิน ราคา 650 บาท รวมค่าจัดส่งแบบ EMS นำเข้าจากประเทศอเมริกา",
        "description": "ชุดซ่อมกระจกรถยนต์ กระจกโดนหิน กระจกแตกร้าว\nซ่อมเองได้ ใช้ง่าย รวดเร็ว\nสินค้านำเข้าจากประเทศสหรัฐอเมริกา เป็นอุปกรณ์ซ่อมรอยร้าวที่ขายดีที่สุดและ ยอมรับกันในประเทศสหรัฐอเมริกา โดยหลังซ่อมกระจกจะคืนรูปเดิม 60-90%\n\nทำไมต้องใช้ของเรา\n \nการนำกระจกไปเปลี่ยนที่ร้านกระจก ถ้าเจอร้านดีก็ดีไป แต่ถ้าเจอร้านไม่ดีอาจจะเป็นแบบนี้ ขั้นตอนการเปลียนกระจกของทางร้านที่ผมเคยเจอ จะใช้วิธีตัดยางขอบกระจกออกทุกด้าน เว้นไว้แต่ด้านบนที่ติดกับกระจก แล้วใช้ซิลิโคนอัดเข้าไปแทน บางที่ใช้น้ำยาใช้แบบแห้งเร็ว และไม่ได้ใส่่น้ำยาที่ช่วยใน การยึดเกาะ หรือ อาจมักง่าย ติดฟิล์มก่อนประกอบกระจกเข้ากับตัวรถ ถ้าดวงไม่ดี น้ำรั่ว แบบไม่รู้ตัว ซึ่งจะขังอยู่ด้านในตัวถัง วันเวลาผ่านไป น้ำถึงรั่วออกมาให้เห็น ผมเคยเจอมากับตัวครับ เลยคิดนำเข้า สินค้าตัวนี้มาขาย\n \nไม่ต้องกังวลเรื่องขอบยางไม่แน่น ติดตั้งกระจกไม่ดี น้ำหรือลมเข้ามาในรถอีกต่อไป ทำเองได้ง่าย ใช่เวลา ประมาณ 30 นาทีเท่านั้น\nสนใจ http://www.กระจกโดนหิน.com/",
        "emails": [
            "support@bluestarthailand.com"
        ],
        "id": "181563355361222",
        "location": {
            "city": "Bangkok",
            "country": "Thailand",
            "street": "47 พหลโยธิน 28 แขวงจันทรเกษม กทม 10900",
            "zip": "10900"
        },
        "name": "น้ำยาซ่อมกระจกรถยนต์ กระจกโดนหิน",
        "phone": "0835445669"
    },
    {
        "about": "บริการซ่อมรถยนต์",
        "id": "1478900228998519",
        "location": {
            "city": "Bangkok",
            "country": "Thailand",
            "latitude": 13.70283,
            "longitude": 100.67317,
            "street": "58 ซ.ศรีนครินทร์ 43 ถ.ศรีนครินทร์ หนองบอน ประเวศ กทม. 10250",
            "zip": "10250"
        },
        "name": "บริการซ่อมรถยนต์ landrover",
        "phone": "027219829, 086-998-7162, 086-999-8354"
    },
    {
        "about": "www.acqthai.com, www.acqcover.com อีเมล:sales@acderq.com โทร 02-5214903, 081-890-6119",
        "description": "ผลิตและจำหน่ายผ้าคลุมซ่อมรถยนต์ กันเปื้อนรถยนต์ ผ้าคลุมเบาะหน้า ผ้าคลุมเบาะหลัง หัวเกียร์ พวงมาลัย คลุมกระจังหน้ารถ คลุมแก้ม/บังโคลนด้านซ้าย-ขวา คลุมประตูซ้าย-ขวา คลุมคอนโซน คลุมกระโปรงหน้า คลุมกระโปรงท้าย คลุมฝาท้าย คลุมถังแก๊ส เอี้ยมกันเปื้อน  ผ้าคลุมเบาะสำหรับวางสัตว์เลี้ยง ผ้าคลุมเบาะกันน้้ำหลังจากออกกำลังกาย ผ้าคลุมป้องกันไฟ้าสถิต ผ้าคลุมใช้ในห้องคลีนรูม หรือเย็บตามแบบที่ลูกค้าต้องการคลุมพิเศษ\n\nติดต่อโทร 02-5214903 มือถือ 081-8656680\nอีเมล sales@acderq.com\t\nwww.acqcover.com",
        "id": "224441031043443",
        "location": {
            "city": "Bangkok",
            "country": "Thailand",
            "latitude": 13.863389331084,
            "longitude": 100.61180261993,
            "street": "28 Soi Ram Inthra 4, Anusawari Bang Khen",
            "zip": "10220"
        },
        "name": "ผ้ากันเปื้อนซ่อมรถยนต์",
        "phone": "02-521-4903, 081-890-6119"
    },
    {
        "about": "ชุดแต่งรถยนต์รอบคันวัสดุABS ติด\nซ่อมสีสเกิร์ท กันชนรถยนต์ด่วน!วันเดียวได้\nCALL:0841030320 Line:aotaeropart\n",
        "description": "ซ่อมสีรถยนต์ด่วน สเกิร์ท สปอยเลอร์\nจำหน่าย ติดตั้ง(ฟรี) และส่งสินค้า ชุดแต่งรถยนต์หลากหลายยี้ห้อ \nอาทิเช่น Honda,Toyota,Mitsubishi,Nissan,etc.\nชุดแต่งผลิจจากพลาสติกABS Grade A ซึ่งเรามีโรงงานผลิตที่ได้มาตราฐาน\nและรับประกันคุณภาพสิาค้าทุกชิ้น \nทางเรายินดีให้คำแนะนำ และติดต่อสอบถามครับ",
        "emails": [
            "aot-aeropart@hotmail.com"
        ],
        "id": "419018188203737",
        "name": "ซ่อมสีรถยนต์  AOT",
        "phone": "0841030320"
    },
    {
        "id": "186923824973189",
        "location": {
            "city": "Kham Thale So",
            "country": "Thailand",
            "latitude": 14.9443512,
            "longitude": 102.0417851
        },
        "name": "อู่ซ่อมรถยนต์ช่างประมาณเซอร์วิส"
    },
    {
        "about": "ซ่อมคอมแอร์รถยนต์",
        "description": "แอร์ไม่เย็น ปัญหาเรื่องแอร์ไม่เย็นก็เป็นอีกปัญหาหนึ่งที่อาจเกิดขึ้นได้ในขณะขับรถ ทุกท่านที่ขับรถคงปฏิเสธไม่ได้ว่าอากาศบ้านเรามีมลพิษมากขึ้น โดยเฉพาะอย่างยิ่งมลพิษที่เกิดจากรถยนต์ ซึ่งนับวันจะเพิ่มมากขึ้นเรื่อย ๆ ยิ่งในตัวเมืองด้วยแล้วยิ่งอันตรายมาก เนื่องจากสภาพการจราจรที่ติดขัดและจำนวนรถก็เพิ่มขึ้นเรื่อย ๆ ดังนั้นขณะขับรถ ผู้ขับขี่ส่วนมากจะต้องเปิดแอร์เพื่อหนีมลพิษและเพื่อความเย็นสบาย แต่ถ้าแอร์รถของคุณไม่เย็นก็อาจส่งผล ทำให้เครียด หงุดหงิด และเสียสมาธิยามรถติด",
        "emails": [
            "nu31100@gmail.com"
        ],
        "id": "785705421517552",
        "location": {
            "city": "Muang Nontha Buri",
            "country": "Thailand",
            "latitude": 13.85238,
            "longitude": 100.4887,
            "street": "31/100 Moo 2 ถ.เลียงเมื่องนนทบุรี4",
            "zip": "11000"
        },
        "name": "ซ่อมคอมแอร์รถยนต์",
        "phone": "02 969 6829 // 081 624 0881"
    },
    {
        "about": "อู่ซ่อมรถยนต์ - เอกมัย รับซ่อม เบรค คลัช ช่วงล่าง",
        "description": "อู่ซ่อมรถยนต์ เจวี.เซอร์วิส และตัวแทนจำหน่ายผ้าเบรค AIMCO ROTAX อยู่ในย่านเอกมัย ทองหล่อ สุขุมวิท อ่อนนุช ถนนพระราม4 คลองเตย ให้บริการรับซ่อมเบรค - คลัช - ช่วงล่าง (รับประกันอะไหล่ 3 เดือน 5,000 ก.ม) สอบถามข้อมูลเพิ่มเติม 02-671-7919 , 081-207-0109 (จิรวัฒน์)",
        "emails": [
            "\u003c\u003cnot-applicable\u003e\u003e"
        ],
        "id": "241676939226935",
        "location": {
            "city": "Bangkok",
            "country": "Thailand",
            "street": "920 ถนนริมทางรถไฟสายปากน้ำเก่า เขตคลองเตย แขวงคลองเตย  ( กลางซอยหลัง ม.กรุงเทพ กล้วยน้ำไท )",
            "zip": "10110"
        },
        "name": "อู่ซ่อมรถยนต์เจวี.เซอร์วิส เบรค คลัช ช่วงล่าง",
        "phone": "0812070109"
    },
    {
        "about": "ซ่อม จำหน่ายเรือนไมล์ กล่องECU รถยนต์ ทุกรุ่น ทุกยี่ห้อ\nขายเรือนไมล์ ซ่อมจอไมล์",
        "description": "ร้านรับซ่อม จำหน่ายเรือนไมล์ กล่องecu ทั้งมือ1และมือ2 ทุกรุ่น ทุกยี่ห้อ",
        "emails": [
            "mileshop@hotmail.com"
        ],
        "id": "119943404859895",
        "location": {
            "city": "Bangkok",
            "country": "Thailand",
            "street": "38/53 ลาดพร้าว64 แยก10 เขตวังทองหลาง",
            "zip": "10310"
        },
        "name": "รับซ่อมไมล์รถยนต์ รับซ่อมไมล์รถมอเตอร์ไซด์",
        "phone": "0816129434"
    },
    {
        "about": "อู่ซ่อมสีตัวถังและอะไหล่ รถยนต์นำเข้าทุกชนิด",
        "emails": [
            "pothongbody@gmail.com",
            "pothong_body@hotmail.com"
        ],
        "id": "616031878408699",
        "location": {
            "city": "Bangkok",
            "country": "Thailand",
            "latitude": 13.733208571461,
            "longitude": 100.69397503907,
            "street": "626/8 ถ.มอเตอร์เวย์ แขวงประเวศ เขตประเวศ",
            "zip": "10250"
        },
        "name": "ซ่อมสีและตัวถังรถยนต์นำเข้าทุกชนิด - หจก.โพธิ์ทองบอดี้เพนท์",
        "phone": "02-7357144-5 "
    },
    {
        "about": "รับซ่อม ไดนาโม แอร์ แบตเตอรี่ ช่วงล่าง เบรค ครัช และ กล่อง E85  (ล้างตู้แอร์ ไม่ต้องถอดคอนโซน)\n",
        "description": "รถยนต์ของท่านมีปัญหา เรื่อง แอร์ ไดชาร์ท ไดสตาร์ท ช่วงล่าง เบรค คลัช เกียร์ เครื่องยนต์ ปรึกษาเราได้ครับ!!",
        "emails": [
            "tj.rayong99@gmail.com"
        ],
        "id": "494441310629972",
        "location": {
            "city": "Muang Ra-yohng",
            "country": "Thailand",
            "latitude": 12.672585410121,
            "longitude": 101.2915045023,
            "street": "903/2 ถ.สุขุมวิท ต.เชิงเนิน อ.เมือง จ.ระยอง",
            "zip": "21000"
        },
        "name": "อู่ซ่อมรถยนต์ระยอง",
        "phone": "0859161964"
    },
    {
        "about": "ซ่อมรถยนต์นำเข้า",
        "description": "รับซ่อมรถยนต์นำเข้า บริการด้วยใจราคามิตรภาพ ซ่อมรถโดยหัวหน้าช่างจากช่างจากศูนย์บริการชื่อดัง ด้านรถนำเข้าโดยเฉพาะ เติบโตจากการบอกต่อของลูกค้าปากต่อปาก ",
        "emails": [
            "kate-mickey@hotmail.com"
        ],
        "id": "305504032900585",
        "location": {
            "city": "Bangkok",
            "country": "Thailand",
            "latitude": 13.60599,
            "longitude": 100.41691,
            "street": "147/1 ถนนบางขุนเทียนชายทะเล  แสมดำ  บางขุนเทียน",
            "zip": "10150"
        },
        "name": "ซ่อมรถยนต์นำเข้า  P.auto import",
        "phone": "089-7906823"
    },
    {
        "about": "จำหน่ายเครื่องมือประจำตัวช่าง และ เครื่องมือซ่อมบำรุงยานยนต์ทุกชนิด",
        "id": "771843556162867",
        "location": {
            "city": "Nonthaburi",
            "country": "Thailand",
            "latitude": 13.86226,
            "longitude": 100.37279,
            "street": "47/3  ถ.รัตนาธิเบศร์ ต.เสาธงหิน",
            "zip": "11140"
        },
        "name": "จำหน่ายเครื่องมือสำหรับซ่อมรถยนต์ทุกชนิด ลิฟท์ยกรถ    สด-ผ่อน",
        "phone": "081-467-1754 / 02-921-1478"
    },
    {
        "about": "เปิดทำการ วันจันทร์- วันเสาร์ เวลา 9.00น. -18.00น.\nวัน อาทิตย์ โทรสอบถามก่อนมาร้าน",
        "emails": [
            "damrong_zaza@hotmail.com"
        ],
        "id": "147168485466878",
        "location": {
            "city": "Nonthaburi",
            "country": "Thailand",
            "latitude": 13.883642903845,
            "longitude": 100.52933566197,
            "street": "24/2",
            "zip": "11000"
        },
        "name": "ดำรงค์ชัยการไฟฟ้า - ล้างแอร์รถยนต์/ซ่อมแอร์  / 0818365606",
        "phone": "0818365606"
    },
    {
        "about": "รับซ่อมและแก้ไขตัวเลขเรือนไมล์รถยนต์",
        "description": "รับซ่อม และ แก้ไขตัวเลขเรือนไมล์รถยนต์ \nประสบการณ์มากกว่า 20 ปี การันตีผลงาน\n\nรับทำทุกรุ่น  ทุกชนิด ",
        "id": "684087964989924",
        "location": {
            "city": "Bangkok",
            "country": "Thailand",
            "latitude": 13.97531,
            "longitude": 100.65421,
            "street": "99/245 ม.3 ต.คูคต",
            "zip": "12130"
        },
        "name": "ซ่อมและแก้ไขเรือนไมล์รถยนต์ ทุกชนิด สอบถามได้ที่เบอร์ 093-935-5561",
        "phone": "0939355561."
    },
    {
        "about": "บริการซ่อมรอยกระจกรถแตก + ร้าว, ขัดลบรอยใบปัดน้ำฝน, รอยคราบน้ำที่เกาะกระจกรถ ",
        "description": "บริการซ่อมรอยกระจกรถแตก + ร้าว, ขัดลบรอยใบปัดน้ำฝน, รอยคราบน้ำที่เกาะกระจกรถ ด้วยเคมีนำเข้าจากเยอรมัน ตรงกับรุ่นของกระจกรถท่าน หากรถของท่านโดนหินกระเด็นใส่กระจกรถแตก ร้าว เป็นจุด เราสามารถเชื่อมกระจกให้กลับมาเหมือนเดิม แข็งแรง ทนทาน ทุ่นค่าใช้จ่ายของท่าน โดยไม่ต้องเปลี่ยนกระจกใหม่ ไม่ต้องกังวลเรื่องขอบยางไม่แน่น ติดตั้งกระจกไม่ดี ลมเข้ามาในรถ ปัญหาพวกนี้ลืมไปได้เลย เรารับประกัน ใช้เวลาซ่อม 30 นาทีต่อจุด \n",
        "id": "1573785249533199",
        "location": {
            "city": "Nonthaburi",
            "country": "Thailand",
            "latitude": 14.00458,
            "longitude": 100.30929,
            "street": "95/25 ม.3 ถ.บางกรวย-ไทรน้อย ต.ไทรน้อย อ.ไทรน้อย",
            "zip": "11150"
        },
        "name": "บริการซ่อมรอยแตกร้าวบนกระจกรถยนต์",
        "phone": "087-510-8118"
    }
]