[
    {
        "about": "ซ่อมกระจกเเตก ร้าว ถึงบ้าน ซ่อมได้ ในเวลา40นาที รับรองผล เริ่ม 700",
        "description": "ซ่อมกระจก เริ่มเเผลละ 700บาท (ขนาดไม่เกินเหรียญห้า) 800บาท (ขนาดไม่เกินเหรียญสิบ)\n\nโทร 0830560865 บริเวณ โลตัสเรียบด่วน รามอินทรา (โทรนัด)",
        "id": "540921485962552",
        "location": {
            "city": "ลาดพร้าว รามอินทรา เกษตรนวมินทร์ พัฒนาการ กรุงเทพ",
            "street": "ลานจอด b5"
        },
        "name": "ซ่อมกระจกร้าว กระจกรถยนต์โดนหินดีด เเตก บริการถึงที่-กรุงเทพ  clearviewbkk",
        "phone": "0830560865"
    },
    {
        "about": "บริการรับซ่อม ติดตั้ง แอร์รถยนต์ - ไดนาโม -เครื่องยนต์ -ช่วงล่าง-เบคร-คลัช-ระบบไฟรถยนต์",
        "description": "อู่ซ่อมรถยนต์ งานบริการซ่อมติดตั้ง แอร์รถยนต์-ไดชารท์-ไดสตราท์-เครื่องยนต์ -ช่วงล่าง-เบรค-ครับ-ระบบไฟรถยนต์ อื่นๆ",
        "emails": [
            "jirapipat1@gmail.com"
        ],
        "id": "1591521727783750",
        "location": {
            "city": "Amphoe Bang Phli",
            "country": "Thailand",
            "latitude": 13.6,
            "longitude": 100.717,
            "street": "2/9หมู่7ถ.บางพลีกิ่งแก้วต.บางพลีใหญ่ อ.บางพลี จ.สมุทรปราการ",
            "zip": "10540"
        },
        "name": "D.C autoair  อู่ซ่อมรถยนต์",
        "phone": "0882477069"
    },
    {
        "about": "ตั้งอยู่สี่แยก คลองตัน รับซ่อมรถยนต์ทุกยี่ห้อ รับรถประกันและซ่อมเอง ปะผุ เคาะ พ่นสี ",
        "description": "อู่ณรงค์วิทย์ออโต้เซลส์ คลองตัน \nบริษัทของเราเป็นอู่ซ่อมรถยนต์มาตราฐานอู่กลางประกันภัย  ด้วยประสบการณ์ในการซ่อมรถยนต์ ที่มากว่า 30 ปี ทางอู่ให้บริการ เคาะ พ่นสี ปะผุ \n\nยินดีต้อนรับลูกค้าทุกท่านทั้งลูกค้าจากบริษัทประกันภัยต่างๆ และลูกค้าทั่วไป พร้อมให้คำแนะนำ ตีราคา แก่ลูกค้าทุกท่านด้วยความเต็มใจ**\n\nใกล้สี่แยกคลองตัน เข้าซอยเพชรบุรี 40/1 ถ.เพชรบุรี แขวงสวนหลวง เขตสวนหลวง กรุงเทพฯ 10250 ประเทศไทย\n(อยู่ห่างจากสี่แยกคลองตัน ด้านถนนเพชรบุรีประมาณ 100 เมตร อยู่เชิงสะพานก่อนข้ามคลองแสนแสบ ห้ามข้ามคลอง)\n\nโทร. 0-2318-2548, 0-2318-2548 \nFAX: 0-2318-7406\nEmail: narongvitautosale@yahoo.com\nFacebook: http://www.facebook.com/narongvitautosale\nWebsite: www.narongvit.com , www.narongvitklongton.com\n\n\nอู่. คลองตัน, อู่ซ่อมรถ, ซ่อมรถยนต์, ทำสีรถยนต์, รถยนต์, ศูนย์ซ่อมรถ, สีแห้งช้า, สีแห้งเร็ว, บริการเคาะ, พ่นสีตัวถัง, รถทุกประกันภัย, รถบ้าน, ศูนย์, ซ่อมสี, ขัดและเคลือบสีรถยนต์, อู่ซ่อมรถยนต์, ศูนย์ซ่อมมาตรฐาน\n",
        "emails": [
            "narongvitautosale@yahoo.com"
        ],
        "id": "127475933992811",
        "location": {
            "city": "คลองตัน กรุงเทพฯ",
            "street": "ใกล้สี่แยก คลองตัน ถนนเพชรบุรี ห่างสี่แยกประมาณ 100 เมตร ยังไม่ข้ามสะพานข้ามคลอง",
            "zip": "10250"
        },
        "name": "อู่ณรงค์วิทย์ออโต้เซลส์ ซ่อมรถยนต์ คลองตัน",
        "phone": "023182548"
    },
    {
        "about": "ติดตั้งแก๊สรถยนต์  ซ่อมแก๊ส จูนแก๊สรถยนต์\nซ่อมเครื่องยนต์  ช่วงล่าง  แก๊สรถยนต์",
        "description": "รับติดตั้ง LPG / NGV \nปรับจูนแก๊ส Versus  BLUEMEC  AG  AC  ZAVOLI  BRC \nENERGY REFORM  OMVL  AUTRONIC  GI  และ หลายยี่ห้อชั้นนำ \nเราเป็นอู่ซ่อมรถ และ ดูแลรถในกลุ่มรถเช่าหลายบริษัท \nรับ O/H ฝาสูบและแก้ไขเครื่องยนต์ที่มีการติดตั้ง Gas \nโทรสอบถามได้ที่ 090 - 4026390 / 091 -3021882 ",
        "emails": [
            "aedgas@gmail.com"
        ],
        "id": "289104527825471",
        "location": {
            "street": "รามอินทรา วัชรพล  สุขาภิบาล5  ออเงิน"
        },
        "name": "เอสพีออโต้เซอร์วิส ศูนย์ซ่อมรถยนต์ติดแก๊สครบวงจร",
        "phone": " 090 - 4026390 / 088 - 9568442"
    },
    {
        "about": "ซ่อมกระจกไฟฟ้า เบาะไฟฟ้า ม่านไฟฟ้า กลอนประตู ทุกรุ่น",
        "id": "1506578286266575",
        "location": {
            "city": "Bangkok",
            "country": "Thailand",
            "latitude": 13.77803,
            "longitude": 100.4854,
            "street": "639/109 ถนน บรมราชนนี แขวง บางยี่ขัน เขต บางพลัด กรุงเทพมหานคร",
            "zip": "10700"
        },
        "name": "ซ่อมกระจกไฟฟ้ารถยนต์ ช่างเหลิม",
        "phone": "0815627822"
    },
    {
        "id": "1642826345953915",
        "location": {
            "city": "Bangkok",
            "country": "Thailand",
            "latitude": 13.820036235503,
            "longitude": 100.69927275181,
            "street": "วีระคาร์เซอร์วิส 277 ซอยรามอินทรา109 ถนนพระยาสุเรนทร์ แขวงบางชัน เขตคลองสามวา",
            "zip": "10510"
        },
        "name": "อู่ซ่อมรถยนต์วีระคาร์เซอร์วิส ซอยรามอินทรา109 มีนบุรี บางชัน",
        "phone": "0809314252"
    },
    {
        "about": "รับซ่อมรับโมลำโพง \nอ.บางพลี จ.สมุทรปราการ\nโทร 0808-255-255",
        "description": "ที่อยู่ 3/3 หมู่ 15 ถนน กิ่งเเก้ว ต. บางพลีใหญ่ อ.บางพลี จ.สมุทรปราการ\n10540  \n\nเบอร์โทรติดต่อ 08-08-255-255 ช่างป้าง ตลอด 24 ชั่วโมง",
        "id": "359612314073623",
        "name": "ซ่อมลำโพงรถยนต์ โมลำโพงรถยนต์"
    },
    {
        "about": "ซ่อมแอร์รถยนต์ ลำปาง ช.ออโต้ ราคาประหยัด บริการดี รอรับได้เลย  ประสบการณ์กว่า10ปี  โทร 054-361124",
        "description": "ซ่อมแอร์รถยนต์ ลำปาง ช.ออโต้ ราคาประหยัด บริการดี รอรับได้เลย รถบรรทุกเราก็เคยซ่อมแอร์มาแล้ว ประสบการณ์กว่า10ปี เดินทางมาสะดวก โทร 054-361124",
        "id": "964974313513062",
        "location": {
            "city": "Lampang",
            "country": "Thailand",
            "latitude": 18.273750059204,
            "longitude": 99.471930147171,
            "street": "62 Thanon Phahol Yothin",
            "zip": "52100"
        },
        "name": "ซ่อมแอร์รถยนต์ ลำปาง ช.ออโต้ Car's Air Conditioning Maintenance Lampang",
        "phone": "054361124"
    },
    {
        "about": "รู้จริงเรื่องแอร์ แก้ไขตรงจุด รับประกันคุณภาพงาน",
        "description": "ติดต่อคุณเพชร 081-8480281, 02-907-3105",
        "id": "346746532070689",
        "location": {
            "city": "Bang Bua Thong",
            "country": "Thailand",
            "latitude": 13.941516058965,
            "longitude": 100.38769642375,
            "street": "สตาร์แอร์ซาวด์ บางบัวทอง"
        },
        "name": "ศูนย์ซ่อมแอร์รถยนต์ Starairsound Bangbuathong",
        "phone": "081-8480281"
    },
    {
        "about": "ล้างแอร์รถยนต์ ไม่ถอดคอนโซล",
        "description": "เพื่อความสะอาด และ ฆ่าเชื้อโรค ที่ติดมากันรถ ควรล้าง แอร์รถยนต์ ทุก 1 ปี ใช้เวลา แค่ 30 นาที ",
        "id": "1002568936435536",
        "location": {
            "city": "Muang Ra-yohng",
            "country": "Thailand",
            "latitude": 12.68957,
            "longitude": 101.29684,
            "street": "rayong",
            "zip": "21000"
        },
        "name": "ซ่อมแอร์รถยนต์ระยองล้างแอร์ 081 664 5372",
        "phone": "081 664 5372  "
    },
    {
        "about": "พูลทรัพย์การช่าง จำหน่ายท่อไอเสีย ติดต่อคุณสุวิทย์ 0847280823,027364728,027364727",
        "id": "200784400108236",
        "name": "ซ่อมรถ ท่อรถ อู่รถยนต์"
    },
    {
        "about": "หุ้มหนังพวงมาลัยรถยนต์และหัวเกียร์ ซ่อมพวงมาลัยรถยนต์และหัวเกียร์",
        "description": "ซ่อมแซมพวงมาลัยและหัวเกียร์ที่ชำรุดเสียหาย เช่น พวงมาลัยลอก ล่อน ถลอก ฉีก ขาด เราซ่อมได้ครับ",
        "emails": [
            "beerjunior2010@gmail.com"
        ],
        "id": "233841430134243",
        "location": {
            "city": "Bangkok",
            "country": "Thailand",
            "latitude": 13.729960062898,
            "longitude": 100.65402316029,
            "street": "212/238 ซอย พัฒนาการ68",
            "zip": "10250"
        },
        "name": "PRT Auto Sport ซ่อมหนังพวงมาลัยรถยนต์และหัวเกียร์",
        "phone": "0836978338"
    },
    {
        "about": "ซ่อมรถยนต์ ติดแก็ส ทำแอร์ ทำสี ติดฟิมล์ วางเครื่อง",
        "emails": [
            "james_nj_modify@hotmail.com"
        ],
        "id": "140760366120764",
        "location": {
            "city": "Khok Samrong",
            "country": "Thailand",
            "latitude": 15.03869,
            "longitude": 100.77381,
            "street": "24หมู่ 2",
            "zip": "15120"
        },
        "name": "อู่ เอ็น.เจ.เซอร์วิส ซ่อมรถยนต์ครบวงจร",
        "phone": "0817599574"
    },
    {
        "about": "รับซ่อมแอร์รถยนต์,ติดตั้งแอร์รถยนต์,ตกแต่งรถตู้",
        "description": "ซ่อมแอร์รถยนต์,ติดตั้งแอร์รถยนต์,ขายอะไหล่แอร์รถยนต์,รับตกแต่งภายในรถตู้,ติดผ้าม่าน,ติดฟิล์มรถยนต์,รับดัดแปลง",
        "emails": [
            "erawanair@gmail.com"
        ],
        "id": "1378799165692420",
        "location": {
            "street": "16/5 ตลิ่งชัน-สุพรรณบุรี ถ. บางม่วง อ.บางใหญ่ จ.นนทบุรี 11140"
        },
        "name": "เอราวัณแอร์ ซ่อมแอร์รถยนต์ และติดตั้งแอร์รถยนต์",
        "phone": "0844590008"
    },
    {
        "id": "295454327253736",
        "location": {
            "city": "Pattaya",
            "country": "Thailand",
            "latitude": 12.92098402977,
            "longitude": 100.87832093239,
            "street": "173/21 หมู่ 2 ตึก 65 หมู่บ้านการเคหะ 2 ตำบลนาจอมเทียน อำเภอสัตหิบ จังหวัดชลบุรี",
            "zip": "20250"
        },
        "name": "รับซ่อมกล่อง ECU รถยนต์ Honda",
        "phone": "08-6002-5332"
    },
    {
        "description": "บริการซ่อม-จำหน่ายอะไหล่รถยนต์ ไดชาร์ท ไดสตาร์ท แบตเตอรี่ ฯลฯ\nเปิดให้บริการทุกวัน 8.00-19.00น.",
        "id": "707904639249025",
        "location": {
            "city": "Bangkok",
            "country": "Thailand",
            "latitude": 13.814348245,
            "longitude": 100.591362485,
            "street": "ลาดพร้าววังหิน 56",
            "zip": "10230"
        },
        "name": "เชิดชัยเซอร์วิส ซ่อม-จำหน่ายอะไหล่รถยนต์",
        "phone": "084-3366190/091-754-7878/086-552-7494 LINE Id sittisak789"
    },
    {
        "about": "ไม่ต้องเสียเวลา ไม่ต้องเสียประกัน สียังคงเดิม",
        "id": "362572633846118",
        "name": "ซ่อมรอยบุบ รอยลักยิ้ม บนตัวถังรถยนต์ โดยไม่ต้องทำสี"
    },
    {
        "about": "ศููนย์บริการซ่อมรถยนต์",
        "description": "ศูนย์บริการซ่อมช่วงล่าง ,เบรค ,ครัช,  เครื่องยนต์ , ตั้งศูนย์, เปลี่ยนถ่ายน้ำมันเครื่อง, เช็กตามระยะทาง , เคาะ -พ่นสี  , ล้าง อัด ฉีด , ขัดเคลือบสี",
        "id": "345105099024217",
        "location": {
            "city": "Bangkok",
            "country": "Thailand",
            "latitude": 13.799606749574,
            "longitude": 100.63852278614,
            "street": "116  Thanon Phokaeo  Klongchan  Bangkapi",
            "zip": "10240"
        },
        "name": "ศูนย์ซ่อมรถยนต์      R A K  Auto Service",
        "phone": "02-5095177 , 081-8289448"
    },
    {
        "about": "ร้าน AOT-AEROPART จำหน่ายชุดแต่งสเกิร์ตรถยนต์ ทุกรุ่น ทุกยี่ห้อ งาน Plastic ABS 100%",
        "description": "บริการติดตั้ง (ฟรี!)",
        "id": "208461842612964",
        "name": "ชุดแต่งรถยนต์,ซ่อมสีด่วน"
    },
    {
        "about": "สอนซ่อมลำโพง สอนโมลำโพง ซ่อมสอนโมลำโพง สอนทำลำโพง สอนประกอบลำโพง รับผลิตลำโพง ซ่อมลำโพง",
        "description": "CarAudioTraining สอนซ่อมลำโพง สอนโมลำโพง ซ่อมสอนโมลำโพง สอนทำลำโพง สอนประกอบลำโพง โรงงานผลิตลำโพง ซ่อมลำโพง โมลำโพง\n\nCarAudioTraining เปิดอบรมหลักสูตรการประกอบลำโพงอย่างมืออาชีพ ด้วย 2 หลักสูตรมาตรฐาน \n\n     1. หลักสูตรช่างซ่อม-ประกอบลำโพง เป็นหลักสูตรพื้นฐานที่จะทำให้ผู้เรียนสามารถซ่อมและประกอบลำโพงได้อย่างมีมาตรฐาน \n\n     2. หลักสูตรวิศวกรลำโพง เป็นหลักสูตรระดับสูง ที่จะต่อยอดให้ผู้เรียนหลักสูตรพื้นฐาน สามารถออกแบบ-สร้าง-โม-ทดสอบ-พัฒนาลำโพงได้ด้วยตนเอง โดยใช้โปรแกรมและเครื่องมือวัดในระดับอุตสาหกรรม ที่เป็นมาตรฐานระดับโลก\n\nCarAudioTraining ให้บริการออกแบบ-ผลิต-จำหน่าย-ซ่อม-โมลำโพงทุกชนิด\n\nCarAudioTraining จำหน่ายอะไหล่ลำโพงทุกชนิด จากโรงงานผู้ผลิตโดยตรง",
        "emails": [
            "vr_audio@hotmail.com"
        ],
        "id": "332854813432384",
        "location": {
            "city": "Bangkok",
            "country": "Thailand",
            "street": "93 ซ.จันทน์ 43 ถนนจันทน์ แขวงทุ่งวัดดอน เขตสาทร",
            "zip": "10120"
        },
        "name": "เครื่องเสียงรถยนต์ ซ่อมสอนโมลำโพง",
        "phone": "084-733-5235"
    },
    {
        "about": "*ซ่อมไมล์ดิจิตอล Car\u0026BigBike\n*ซ่อมกล่อง ECU ABS SRS\n*รับซ่อมกระจกรถยนต์แตกร้าว\n",
        "description": "รับซ่อมกระจกรถยนต์แตกร้าว\nรับซ่อมไมล์ดิจิตอลทุประเภท\nจำหน่ายเครื่องมือ",
        "id": "221502164670681",
        "location": {
            "city": "อำเภอเมืองขอนแก่น",
            "street": "Jirapan Glass Clinics Tel.092-9565338"
        },
        "name": "Jirapan Glass Clinics รับซ่อมไมล์ดิจิตอลรถยนต์ รับซ่อมกระจกรถยนต์แตกร้าว",
        "phone": "0929565338"
    },
    {
        "about": "รับซ่อมเครื่องยนต์ ช่วงล่าง เบรค คลัช รถยนต์ ปิคอัพ เก๋ง สิบล้อ โดยช่างผู้ชำนาญ",
        "description": "รับซ่อมรถยนต์ รถเก๋ง รถบรรทุก ซ่อมเครื่องยนต์ ช่วงล่าง เบรค คลัช\nโดยช่างผู้ชำนาญ รับติดตั้งแก๊ส NGV รถบรรทุก",
        "emails": [
            "ิิbenten-2010@windowslive.com"
        ],
        "id": "342690945756209",
        "location": {
            "city": "Amphoe Kaeng Khoi",
            "country": "Thailand",
            "latitude": 14.62373333,
            "longitude": 101.09558333,
            "street": "ถนนมิตรภาพ ตรงข้ามศูนย์ Toyota Sure",
            "zip": "18110"
        },
        "name": "อู่ซ่อมรถยนต์ \"ทศพรเซอร์วิส\" แก่งคอย",
        "phone": "0894781018"
    },
    {
        "about": "เราคือทีมงาน MC THAI รับซ่อมระบบไฟฟ้ารถยนต์ทุกชนิด พร้อมให้บริการนอกสถานที่ 24 ชั่วโมง",
        "emails": [
            "info@mcthai.net"
        ],
        "id": "1592794474302603",
        "name": "Mc Thai บริการรับซ่อมระบบไฟฟ้ารถยนต์นอกสถานที่ 24 ชั่วโมง"
    },
    {
        "about": "ศูนย์ซ่อมรถยนต์มาตราฐานวิริยะประกันภัย (เขตดอนเมือง)",
        "id": "278010915707057",
        "location": {
            "city": "แขวงสีกัน เขตดอนเมือง กรุงเทพ",
            "street": "84 ซอยพหลโยธิน 79 (ตรงข้ามสนามกอล์ฟธูปะเตมีย์)",
            "zip": "10210"
        },
        "name": "อู่ซ่อมรถยนต์ เพอร์เฟคท์ สปีดไลน์ ดอนเมือง",
        "phone": "02-9967277, 02-9967288"
    },
    {
        "id": "172848179588881",
        "location": {
            "latitude": 7.0958509782098,
            "longitude": 100.59737530659
        },
        "name": "อู่ซ่อมรถยนต์ห้วยขันการช่าง"
    }
]