[
    {
        "id": "451640631558623",
        "location": {
            "city": "Supanburi",
            "country": "Thailand",
            "latitude": 14.377595,
            "longitude": 99.8962,
            "street": "1612/1  moo 6 Malaiman Rd, U Thong",
            "zip": "72160"
        },
        "name": "มิตรยนต์-สถานตรวจสภาพรถเอกชน/ซ่อมรถยนต์/ตั้งศูนย์",
        "phone": "035-551170"
    },
    {
        "id": "234234153452554",
        "name": "รับซ่อมไมล์รถยนต์ ดิจิตอล รถจักรยานยนต์ทุกชนิด 0962874445,0868983434"
    },
    {
        "about": "รับซ่อมแอร์รถยนต์ ทั้งรถยุโรป และญี่ปุ่น",
        "description": "รับซ่อมแอร์รถยนต์ ทั้งยุโรปและญี่ปุ่นนอกสถานที่ บริการถึงบ้านลูกค้า หรือที่ทำงานของคุณลูกค้า ด้วยประสบการณ์กว่า 20 ปี ยินดีให้คำปรึกษา ทั้งระบบแอร์ ระบบไฟ และ ระบบอิเล็คทรอนิกส์",
        "id": "400753693467859",
        "location": {
            "city": "Bang Phlat",
            "country": "Thailand",
            "latitude": 13.7857599,
            "longitude": 100.4957809,
            "street": "บางพลัด",
            "zip": "10700"
        },
        "name": "รับซ่อมแอร์รถยนต์ ญี่ปุ่น ยุโรป",
        "phone": "0911056436"
    },
    {
        "about": "รับซ่อม คอมพิวเตอร์ PC และ Notebook ทุกอาการเสีย ทั้งในและนอกสถานที่",
        "description": "☻รับซ่อม คอมพิวเตอร์ PC และ Notebook ทุกอาการเสีย ทั้งในและนอกสถานที่\n- ลง Program ใหม่ พร้อม Applications\n- แสกนไวรัสด้วย Anti virus License และ จำหน่าย Anti virus License ของแท้\n- จัด สเปค ประกอบเครื่องใหม่ และ ติดตั้งลงโปรแกรมทุกชนิด\n- อัพเกรด เครื่องคอมพิวเตอร์\n- กู้ข้อมูล ฮาดร์ดิส แฟลชไดร์ และ เมมโมรี่\n- ติดตั้ง ระบบเครือข่าย Lan Network Wireless ทั้งร้านเกมส์ ออฟฟิศ และสถานที่ทั่วไป \n- รับทำนามบัตรราคาพิเศษ ปริ๊นงาน พิมพ์งานด่วน \n- รับซื้อขายอะไหล่คอม ใหม่ เก่า ทุกรุ่น\n- บริการรับส่งเครื่องซ่อม ถึงบ้าน พร้อมใบรับส่งเครื่องซ่อม\n- รับเหมา แก้ไข ซ่อมแซม ติดตั้ง เดินสาย ระบบ ไฟฟ้า Network กล้องวงจรปิด เครื่องเสียง ทุกสถานที่\n- ทุกงานบริการมีรับประกัน\n\n☺รับต่อภาษี-พรบ.-ประกันภัยรถยนต์\nซื้อไว้ใช้เอง หรือสนใจเป็นตัวแทนขายก็คุ้ม\n++++ลงทุนเพียงครั้งเดียวแค่ 250 บาท++++ \nคุณก็สามารถใช้สิทธิต่างๆมากมายในการต่อภาษี-พรบ.\nไม่มีข้อผูกมัดใดๆ แน่นอนจร้า\nใช้กับรถตัวเองก็ได้ราคาถูกลง\nขายคนอื่นก็ได้เงินใช้ ง่ายจะตาย\nไม่ลองไม่ได้แล้ว สนใจสอบถามได้เล๊ย\n\nติดต่อ อนันต์ 0894401698\nLine ID : styletamz",
        "id": "268452909998462",
        "location": {
            "city": "กทม.",
            "street": "หมู่บ้าน บุราพันธ์ หนองจอก",
            "zip": "10530"
        },
        "name": "รับต่อภาษีพรบ.ประกันภัยรถยนต์/ซ่อมประกอบอัพเกรด คอมฯโน๊ตบุค",
        "phone": "0894401698"
    },
    {
        "about": "รับซ่อมสีรถยนต์ ขัดเคลือบเงา ซ่อมสีแม๊ก ลบรอยขีดข่วน ล้างสีดูดฝุ่น \n",
        "id": "1447702508807930",
        "name": "รับซ่อมสีรถยนต์ ซ่อมแม๊ก ขัดเคลือบสี ลบรอยขีดข่วน เคาะปะผุ"
    },
    {
        "about": "ราคา ขอรบกวนโทรสอบถาม T. 0823897272 ชัย",
        "id": "658226800977254",
        "location": {
            "city": "Chiang Mai",
            "country": "Thailand",
            "latitude": 18.7903,
            "longitude": 98.9817,
            "zip": "50300"
        },
        "name": "จำหน่ายอุปกรณ์เครื่องซ่อมรถยนต์",
        "phone": "0823897272"
    },
    {
        "about": "รับ ซ่อม ทำ โซฟา เก้าอี้ บุผนัง บุหัวเตียง และเบาะรถยนต์ บุภายในรถยนต์",
        "id": "278479185602995",
        "name": "รับ ซ่อม ทำ โซฟา เก้าอี้ บุผนัง บุหัวเตียง และเบาะรถยนต์"
    },
    {
        "about": "รับซ่อมและให้คำปรึกษาปัญหาเกียร์ออโต้รถยนต์ทุกชนิด",
        "id": "1472623809640625",
        "location": {
            "city": "Bangkok",
            "country": "Thailand",
            "latitude": 13.774,
            "longitude": 100.65728,
            "street": "บางกะปิ",
            "zip": "10240"
        },
        "name": "G-overhaul shop รับซ่อมเกียร์ออโต้รถยนต์ทุกชนิด",
        "phone": "0853743888"
    },
    {
        "id": "1132876066739542",
        "location": {
            "city": "Bangkok",
            "country": "Thailand",
            "latitude": 13.7522,
            "longitude": 100.494,
            "street": "ตลิ่งชัน",
            "zip": "10170"
        },
        "name": "ซ่อมรอยบุบ รอยลักยิ้ม ตัวถังรถยนต์โดยไม่ต้องทำสี byช่างแชมป์",
        "phone": "0843423846"
    },
    {
        "about": "เคาะ ปะผุ ทำสี ซ่อมช่วงล่าง\nLINE.ID.tornhpol08",
        "emails": [
            "torngpol08@gmail.com"
        ],
        "id": "462577937187424",
        "location": {
            "city": "Khon Kaen",
            "country": "Thailand",
            "latitude": 16.47889,
            "longitude": 102.82676,
            "street": "ใกล้สี่แยกไฟแดง บ้านทุ่ม",
            "zip": "40000"
        },
        "name": "อู่ ทรงพล Body \u0026 Paint ซ่อมสี ตัวถัง ช่วงล่าง รถยนต์",
        "phone": "0836657870"
    },
    {
        "about": "รับซ่อมรถทุกชนิดครับ",
        "id": "696602433786422",
        "location": {
            "city": "Tak",
            "country": "Thailand",
            "latitude": 16.898091,
            "longitude": 99.1276193,
            "street": "96",
            "zip": "63000"
        },
        "name": "อู่ช่างเบน รับซ่อมมอเตอร์ไซค์ bigbike และรถยนต์-รับสั่งอไหล่bigbike",
        "phone": "0997914837"
    },
    {
        "about": "ล้างไฟหน้าทุกร่น/ซ่อมมองข้าง/รับจัดอะไหล่ไฟหน้ามือ2/เบนซ์w211/bmwe92 e60e39 0814310403  จรัล  13ซ.บางแวก78",
        "description": "รับล้างไฟหน้า/ซ่อมมองข้าง/จัดอะไหล่เบนซ์/บีเอมมือ2  ญี่ปุ่น   ประเภทไฟหน้า/กนชนหน้า/หลัง/มองข้างฝาหน้า/ท้าย ประเภทบอดี้",
        "emails": [
            "thavechai2010@hotmail.com"
        ],
        "id": "106280989503752",
        "location": {
            "street": "จรัล 13เลขที่810 ปากซอยบางแวก 78       0814310403",
            "zip": "10160"
        },
        "name": "ทวีชัยการช่าง/ล้างไฟหน้า/ซ่อมมองข้างรถยนต์ /รับจัดอะไหล่เบนซ์/บีเอมมือ2",
        "phone": "0814310403"
    },
    {
        "about": "รับบริการ ซ่อมสีรถยนต์ เคาะรถยนต์ โป้วสีรถยนต์ ทุกชนิด",
        "emails": [
            "wirat.be@hotmail.com"
        ],
        "id": "644637105570426",
        "location": {
            "city": "Bangkok",
            "country": "Thailand",
            "latitude": 13.8054895,
            "longitude": 100.8110199,
            "street": "กรุงเทพปริมณฑล"
        },
        "name": "อู่ซ่อม สี ตัวถัง รถยนต์",
        "phone": "0905409378"
    },
    {
        "id": "506252686200594",
        "location": {
            "city": "Nakhon Ratchasima",
            "country": "Thailand",
            "latitude": 14.975,
            "longitude": 102.1,
            "street": "อำเภอครบุรี",
            "zip": "30250"
        },
        "name": "อู่.ช่างภา - รับซ่อมรถยนต์และต่อรถอีแต๋น",
        "phone": "0896118690"
    },
    {
        "about": "ยานยนต์",
        "id": "1567194660202087",
        "location": {
            "city": "Amphoe Khlong Luang",
            "country": "Thailand",
            "latitude": 14.0667,
            "longitude": 100.65,
            "street": "รังสิต",
            "zip": "11200"
        },
        "name": "รวมอู่ซ่อมรถยนต์",
        "phone": "023213458"
    },
    {
        "about": "รับซ่อมกล่อง ECU GAS# AG , AC, EMER, MIMGAS, SEC, EME, BSM ECU รถยนต์ #NISSAN NEO , TOYOTA 1JZ, 2JZ, 1UZ, 5A, 4A\nเรือนไมล์ Nissan Frontier Neo ,Toyota 4A Vigo",
        "id": "190703697807304",
        "name": "รับซ่อม Ecu Gas, Ecu รถยนต์, เรือนไมล์"
    },
    {
        "description": "- ศูนย์บริการรถยนต์ ซ่อมเครื่องยนต์ ช่วงล่าง เบรคคลัทซ์  รับวางเครื่อง \nวายลิ่งสายไฟในรถยนต์ ระบบไฟฟ้า เปลี่ยนถ่ายน้ำมันเครื่อง เช็คระยะ\n- ติดตั้งแก๊ส LPG NGV E85 ตรวจสภาพ รับปรึกษาปัญหา โดยวิศวกรเครื่องกล\nโดยตรง ออกใบวิศวะเพื่อจดทะเบียนขนส่ง ปรับจูน แก้ไข งานแก๊สในรถยนต์ \nเครื่องยนต์ เบนซิน ดีเซล  รับเพิ่มถังแก๊ส ดัดแปลงรถยนต์เครื่องดีเซล\nใช้แก๊ส NGV,LPG ทุกระบบ รับประกันงานติดตั้ง \n -ศูนย์ติดตั้งอุปกรณ์ประหยัดน้ำมัน รถเบนซิน,ดีเซล ทุกระบบ\nติดตั้งวันนี้ ฟรีประกันอัคคีภัยรถยนต์ 4,000,000 บาท นาน 3 ปีเต็ม\nบริการและบริหารงานโดย วิศวกรเครื่องกลโดยตรง ",
        "id": "139664399568094",
        "location": {
            "city": "Ubon Ratchathani",
            "country": "Thailand",
            "zip": "34000"
        },
        "name": "ศุนย์ติดตั้งแก๊ส lpg Ngv E85 ตรวจสภาพ ซ่อมรถยนต์ อุปกรณ์ประหยัดน้ำมัน อุบลฯ"
    },
    {
        "about": "เนียนทุกอณู",
        "description": "จำหน่าย ติดตั้ง กระรถยนต์ ฟิล์ม รถยนต์ อาคาร รับเคลมงานบริษัทประกันภัย ทำ พรย ต่อภาษี ประกันภัย",
        "emails": [
            "krajokanan@hotmail.com"
        ],
        "id": "247352678774561",
        "location": {
            "city": "เมืองปทุมธานี",
            "street": "20/2 ม.5 ต.บางพูน",
            "zip": "12000"
        },
        "name": "กระจกอนันต์ กระจกรถยนต์ ฟิล์ม ซ่อมรอยแตก 0869949955",
        "phone": "025672758"
    },
    {
        "about": "ศูนย์บริการซ่อมรถยนต์ ยุโรป-ญี่ปุ่น ทุกรุ่น ทุกยี่ห้อ/คาร์แคร์ แมกไกว์ 02-9523073 ,0925569536",
        "description": "ทีที ออโต้โปร ศูนย์บริการ ซ่อมรถยุโรป-ญี่ปุ่นทุกรุ่นทุกยี่ห้อ\nบริการซ่อมรถ ยุโรป-ญี่ปุ่นทุกรุ่นทุกยี่ห้อ\nบริการซ่อมรถ VOLVO ทุกรุ่น ตรวจเช็คด้วยระบบคอมพิวเตอร์ ทุกรุ่นถึงปี2014 โดยช่างผู้ชำนาญจากศูนย์มาตราฐาน ประสบการณ์กว่า20ปี ค่าบริการถูกกว่าศูนย์ 60%บริการตรวจเช็คเครื่องยนต์ทุกระยะทาง เบรค คลัช เกียร์ ระบบช่วงล่าง ระบบไฟฟ้า ระบบแอร์ บริการรับวาวงเครื่องยนต์ ทุกรุ่น รับประกัน 18 เดือน อะไหล่ใหม่ทุกชิ้นรับประกัน14เดือน อะไหล่แท้ลด 15-20% บริการล้างเลนส์ไฟหน้ารถวอลโว่ ฟรี บริการล้างห้องเครื่อง+เคลือบ ฟรี บริการเซอร์วิสฉุกเฉิน 24 ชั่วโมง บริการรับ-ส่งรถ ถึงที่บ้าน\nTT AUTOPRO SERVICE\nทีที ออโต้โปร เซอรวิส\nจากแยกปากเกร็ด ก่อนถึงแยกสนามบินน้ำ200เมตรซ้ายมือ เลยศูนย์โตโยต้ามา\nhttp://ttautopro.com/\nhttps://m.facebook.com/ttautopro\nศูนย์บริการซ่อมรถยุโรป-ญี่ปุ่น ทุกรุ่น ทุกยี่ห้อ#บริการด้านรถยนต์ ครบวงจร# WET DRY 2 SHINE\nCar wash \u0026 detailing by Autopro service\nhttps://m.facebook.com/WetDry2Shine…\n#คาร์แคร#แมกไกวส์#\nทุกเรื่องที่เกี่ยวกับรถ ถ้าคุณอยากได้ เราจัดให้!!!\nสอบถามเพิ่มเติมโทร 0925569536",
        "emails": [
            "ttautopro@hotmail.com"
        ],
        "id": "1426469430987459",
        "location": {
            "city": "Nonthaburi",
            "country": "Thailand",
            "latitude": 13.8622494,
            "longitude": 100.513848,
            "street": "146/5 หมู่ที่6 ถนนติวานนท์ ตำบลท่าทราย อำเภอเมือง จังหวัดนนทบุรี",
            "zip": "11000"
        },
        "name": "ทีที ออโต้โปร เซอร์วิส อู่ซ่อมรถยนต์ยุโรป+ญี่ปุ่น",
        "phone": "0925569536"
    },
    {
        "id": "962996257074784",
        "location": {
            "city": "Bangkok",
            "country": "Thailand",
            "latitude": 13.7753457,
            "longitude": 100.6578832,
            "street": "เสรีไทย19"
        },
        "name": "ธีมายนตรกิจ อู่ ซ่อมรถยนต์"
    },
    {
        "about": "เครื่องมือซ่อรถยนต์ ลิฟท์ยกรถ ห้องพ่นอบสี เครื่องถอดยาง",
        "id": "760210214097432",
        "name": "เครื่องมือซ่อมรถยนต์ ลิฟท์ยกรถ เครื่องถอดยาง ห้องพ่นอบสี"
    },
    {
        "about": "ไม่มีหน้าร้านบริการถึงที่ครับผม",
        "id": "778204182214149",
        "location": {
            "city": "Changwat Phuket",
            "country": "Thailand",
            "latitude": 7.9212454288738,
            "located_in": "682759875083309",
            "longitude": 98.401815855147,
            "zip": "83000"
        },
        "name": "ภูเก็ตซ่อมรอยบุบ รอยลักยิ้ม ตัวถังรถยนต์โดยไม่ต้องทำสี",
        "phone": "089-6927171"
    },
    {
        "about": "ซ่อมรถยนต์เชฟโรเลตทุกรุ่น พร้อมอะไหล่เก่าและใหม่ ราคาเป็นกันเองคับ",
        "id": "1634333990182521",
        "location": {
            "city": "Rayong",
            "country": "Thailand",
            "latitude": 12.6742,
            "longitude": 101.279,
            "street": "8ม.4 ต.ทับมา อ.เมือง จ.ระยอง",
            "zip": "21000"
        },
        "name": "อู่ซ่อมและขายอะไหล่เก่ารถยนต์ เชฟโรเลต ทุกรุ่น",
        "phone": "0882076096"
    },
    {
        "about": "รับซ่อมกล่อง ecu ครบวงจรกับกล่อง ecu ที่เป็นเรื่องง่าย ขอบคุณที่ไว้ว่างใจครับ",
        "emails": [
            "ake327@gmail.com"
        ],
        "id": "741549869232611",
        "location": {
            "city": "กรุงเทพ",
            "street": "ถนนเพิ่มสิน ซอยเพิ่มสิน 52 เขตสายไหม",
            "zip": "10220"
        },
        "name": "รับซ่อมกล่อง ecu รถยนต์ทุกรุ่น",
        "phone": "0895328348"
    },
    {
        "about": "บริการ เคาะ พ่นสี เปลี่ยนสีรถยนต์ ระบบสี2k แห้งช้า เกรดพรีเมี่ยม (แลคเกอร์นำเข้า)\nto 0832923553",
        "id": "776393135736554",
        "location": {
            "street": "ถนนประชาชื่น ซอย.23 ติดกับ ธ.กสิกรไทย บริหารงานโดย AEK MIKADO",
            "zip": "10900"
        },
        "name": "AP การาจ เคาะซ่อมสี เปลี่ยนสีรถยนต์",
        "phone": "0832923553"
    }
]