[
    {
        "id": "440170729400392",
        "location": {
            "city": "Bangkok",
            "country": "Thailand",
            "latitude": 14.013919447455,
            "longitude": 100.66328458992
        },
        "name": "อู่ซ่อมรถยนต์ \"อู่พี่ต้น\""
    },
    {
        "id": "439479986195963",
        "location": {
            "city": "Bangkok",
            "country": "Thailand",
            "latitude": 13.933996866116,
            "longitude": 100.60892600699,
            "street": "ดอนเมือง",
            "zip": "10210"
        },
        "name": "อู่ซ่อมรถยนต์ สันติ เซอร์วิส",
        "phone": "0898812134"
    },
    {
        "id": "439147416242568",
        "location": {
            "city": "Bang Son",
            "country": "Thailand",
            "latitude": 10.707346414047,
            "longitude": 99.322834449721
        },
        "name": "อู่ซ่อมรถยนต์ชำนาญปะทิว",
        "phone": "0986712369"
    },
    {
        "id": "435919443251450",
        "location": {
            "city": "Phatthana Nikhom",
            "country": "Thailand",
            "latitude": 14.86874963782,
            "longitude": 100.95425499643,
            "street": "16 หมู่ 12 ตำบล พัฒนานิคม อำเภอพัฒนานิคม จังหวัด ลพบุรี"
        },
        "name": "อู่ซ่อมรถยนต์ช่างนิด ซอย18 - บ้านเดือน"
    },
    {
        "id": "435255953279637",
        "location": {
            "city": "Bangkok",
            "country": "Thailand",
            "latitude": 13.70283,
            "longitude": 100.67317,
            "street": "5/1-7 อ่อนนุช44 เข้าซอยมา100เมตร อยู่ซ้ายมือ",
            "zip": "10250"
        },
        "name": "ล้างแอร์รถยนต์แบบไม่ถอดตู้ เพียง 500บาท รับซ่อมแอร์รถยนต์ทุกรุ่น",
        "phone": "0928866621"
    },
    {
        "id": "432085483666547",
        "location": {
            "city": "Bangkok",
            "country": "Thailand",
            "latitude": 13.7522,
            "longitude": 100.494
        },
        "name": "ก๋วยเตี๋ยวรถเข็นข้างปั้มเชลล์ตรงข้ามเต้นข้างซอยรัชดา46หน้าอู๋ซ่อมรถยนต์"
    },
    {
        "id": "138715566330093",
        "location": {
            "city": "Pattani",
            "country": "Thailand",
            "latitude": 6.8630442721833,
            "longitude": 101.24238160448,
            "zip": "94000"
        },
        "name": "ร้านวีระแอร์ ซ่อมแอร์ บ้าน แอร์รถยนต์ ,,สาขา2"
    },
    {
        "id": "154903178032879",
        "location": {
            "city": "Pattaya",
            "country": "Thailand",
            "latitude": 12.926352538371,
            "longitude": 100.90116168156,
            "street": "Boonsampan เขาน้อย"
        },
        "name": "อู้ซ่อมรถยนต์ ช่างเจน"
    },
    {
        "id": "154145598080021",
        "location": {
            "city": "Muang Loei",
            "country": "Thailand",
            "latitude": 17.49162752131,
            "longitude": 101.72023942283
        },
        "name": "อู่ซ่อมและติดตั้งแก๊สรถยนต์"
    },
    {
        "id": "154125918019596",
        "location": {
            "city": "Bangkok",
            "country": "Thailand",
            "latitude": 13.773318716138,
            "longitude": 100.56328029048,
            "zip": "10400"
        },
        "name": "ศูนย์ซ่อมรถยนต์ อ้วนการไฟฟ้า"
    },
    {
        "id": "151145441690912",
        "location": {
            "city": "Bangkok",
            "country": "Thailand",
            "latitude": 14.00488728988,
            "longitude": 100.61422488851,
            "zip": "12110"
        },
        "name": "@กซบ. ( กองซ่อมบำรุงและปรนนิบัติรถยนต์โดยสาร ) บ.ขนส่ง จก."
    },
    {
        "id": "150588308421801",
        "location": {
            "city": "Narativat",
            "country": "Thailand",
            "latitude": 6.4184945679139,
            "longitude": 101.81376307426,
            "zip": "96000"
        },
        "name": "ศูนย์บริการซ่อมตัวถังและสีรถยนต์ พิธานพาณิชย์ นราธิวาส",
        "phone": "0864885517"
    },
    {
        "id": "148670058605741",
        "location": {
            "city": "Bangkok",
            "country": "Thailand",
            "latitude": 13.974993796009,
            "longitude": 100.57663715224,
            "zip": "12000"
        },
        "name": "โรงงานซ่อมสร้างรถยนต์ทหาร"
    },
    {
        "id": "510765075745958",
        "location": {
            "city": "Bangkok",
            "country": "Thailand",
            "latitude": 13.7522,
            "longitude": 100.494
        },
        "name": "ศูนย์ซ่อมบำรุงยางรถยนต์ B-Quikสาขารามอินทรา"
    },
    {
        "id": "530507227007282",
        "location": {
            "city": "Bangkok",
            "country": "Thailand",
            "latitude": 13.733737,
            "longitude": 100.646297
        },
        "name": "กิมเซ้งไถ่ ร้านซ่อมหม้อน้ำรถยนต์"
    },
    {
        "id": "527709327362010",
        "location": {
            "city": "Muang Khon Kaen",
            "country": "Thailand",
            "latitude": 16.422168938707,
            "longitude": 102.88707987053
        },
        "name": "อู่สุวิทย์กลการ รับซ่อมรถยนต์ รถยุโรป และยานอวกาศ"
    },
    {
        "id": "527530694069701",
        "location": {
            "city": "Rayong",
            "country": "Thailand",
            "latitude": 12.676894187927,
            "longitude": 101.24565887451,
            "street": "285/8"
        },
        "name": "มาเวย์ ออโต้ เซอร์วิส สายล่าง อู่ซ่อมรถยนต์ย่านใจกลางผับดังเมืองระยอง",
        "phone": "0859161964"
    },
    {
        "id": "527457650701200",
        "location": {
            "latitude": 15.896008252181,
            "longitude": 100.04172284165
        },
        "name": "อู่ซ่อมรถยนต์ บางตาหงาย บรรพต"
    },
    {
        "description": "5 ซ.รามอินทรา 21 แยก 6 ถนนรามอินทรา แขวงอนุสาวรีย์ เขตบางเขน กทม. 10220",
        "id": "525097504194031",
        "location": {
            "city": "Bangkok",
            "country": "Thailand",
            "latitude": 13.865197,
            "longitude": 100.618611,
            "zip": "10220"
        },
        "name": "Mitsu Only Service (ศูนย์บริการซ่อมรถยนต์ มิตซูบิชิ"
    },
    {
        "id": "520261941402091",
        "location": {
            "city": "Bangkok",
            "country": "Thailand",
            "latitude": 13.963564148247,
            "longitude": 100.58903592451
        },
        "name": "ช่างโนด ซ่อมกุญแจ-เปิดรถยนต์ สี่แยกวุ่นวาย",
        "phone": "0878096342"
    },
    {
        "id": "516185025067117",
        "location": {
            "city": "Chiang Mai",
            "country": "Thailand",
            "latitude": 18.781571920717,
            "longitude": 99.000086432279
        },
        "name": "เช็คค่าเบี้ยประกันรถยนต์ซ่อมห้างวันนี้05333444-6"
    },
    {
        "id": "530930810322559",
        "location": {
            "city": "Hat Yai",
            "country": "Thailand",
            "latitude": 6.9755226,
            "longitude": 100.4742664
        },
        "name": "อู่ซ่อมรถยนต์ คลองหวะ"
    },
    {
        "id": "509466395799138",
        "location": {
            "city": "Bangkok",
            "country": "Thailand",
            "latitude": 13.75395,
            "longitude": 100.50224,
            "street": "อ.บางบัวทอง จ.นนทบุรี"
        },
        "name": "อู่ซ่อมรถยนต์\u0026ราชาฝาท้าย \"โก๊ะ เซอร์วิส\"",
        "phone": "0867825681"
    },
    {
        "id": "504585556261741",
        "location": {
            "city": "Bangkok",
            "country": "Thailand",
            "latitude": 13.843476877836,
            "longitude": 100.64362134224
        },
        "name": "ศูนย์บริการซ่อมสีและตัวถังรถยนต์ Pt Motor"
    },
    {
        "id": "504563026308854",
        "location": {
            "city": "Khonkean",
            "country": "Thailand",
            "latitude": 16.49097129648,
            "longitude": 102.84074811495,
            "street": "720 หมู่ 2 ต.ศิลา อ.เมือง จ.ขอนแก่น",
            "zip": "40000"
        },
        "name": "KPN PAINT - เคพีเอ็นเพ้นท์,รับซ่อมรับรถยนต์",
        "phone": "66894185402"
    }
]