[
    {
        "about": "ศูนย์ซ่อมรถยนต์มาตราฐาน",
        "description": "บริการซ่อม ตัวถัง เครื่องยนต์ \nด้วยทีมงานที่มีประสบการณ์กว่า 30 ปี \nใช้ระบบสี Axalta  ระบบ 2K เต็มระบบ",
        "emails": [
            "suanmali_garage2@hotmail.co.th"
        ],
        "id": "204162736286942",
        "location": {
            "city": "Bang Bua Thong",
            "country": "Thailand",
            "street": "41/2 ม.2 ต.บางคูรัด อ.บางบัวทอง",
            "zip": "11110"
        },
        "name": "ศูนย์ซ่อมรถยนต์มาตรฐาน สวนมะลิการาจ สาขาบางบัวทอง",
        "phone": "0-2956-0742,44,46"
    },
    {
        "about": "ซ่อมช่วงล่าง  ตั้งศูนย์ ถ่วงล้อ เปลี่ยนลูกหมาก เปลี่ยนยาง ",
        "id": "465997630150297",
        "location": {
            "city": "Bangkok",
            "country": "Thailand",
            "latitude": 13.746311907342,
            "longitude": 100.46996204281,
            "street": "จรัญฯ 23 ถนนจรัญสนิทวงศ์ แขวงบางขุนศรี เขตบางกอกน้อย กทม",
            "zip": "10700"
        },
        "name": "ชัยเจริญการยาง - รับซ่อมรถยนต์ช่วงล่างเบรคครัช",
        "phone": "0814383163"
    },
    {
        "id": "221442531368742",
        "name": "ซ่อมรถยนต์"
    },
    {
        "about": "อู่ซ่อม รถยนต์ อยุธยา กระจกไฟฟ้า เซ็นทรัลล็อค กลอนประตู แอร์ ช่วงล่าง เบรค คลัช  0891370726",
        "description": "อู่ซ่อม รถยนต์ อยุธยา กระจกไฟฟ้า เซ็นทรัลล็อค กลอนประตู แอร์ ช่วงล่าง เบรค คลัช เบอร์ติดต่อ 089-1370726",
        "emails": [
            "charoenchai39@gmail.com"
        ],
        "id": "658037674312713",
        "location": {
            "city": "Ayutthaya",
            "country": "Thailand",
            "latitude": 14.35456813864,
            "longitude": 100.59423208237,
            "street": "225 ม.5 ต.ไผ่ลิง อ.พระนครศรีอยุธยา",
            "zip": "13000"
        },
        "name": "ซ่อม กระจกไฟฟ้า แอร์ รีโมท เซ็นทรัลล็อค กุญแจ กระจกมองข้าง รถยนต์ อยุธยา",
        "phone": "0891370726"
    },
    {
        "about": "รับซ่อมกลอนประตู กระจกไฟห้ารถยนต์ เปิด-ปิดประตูยาก กระจกไฟฟ้าไม่ขึ้นไม่ลง ประตูไม่ล็อค ",
        "id": "752250684798726",
        "location": {
            "city": "Amphoe Muang Phuket",
            "country": "Thailand",
            "latitude": 7.9060721008022,
            "longitude": 98.380752468109,
            "street": "near Talat Nuea, Phuket, Phuket, Thailand",
            "zip": "83000"
        },
        "name": "ซ่อมกลอนประตูรถยนต์ กระจกไฟฟ้า /จำหน่ายมอเตอร์กระจกไฟฟ้ารถยนต์มือสอง ภูเก็ต",
        "phone": "0840589277"
    },
    {
        "about": "รับซ่อมรถยนต์ชนหนักและเคาะพ้นสีทุก ยี่ห้อ(ช่างเค 0849308918 ช่างนัด 0814311838",
        "description": "มีปัญหาเรื่องรถเราให้คำปรึกษาได้ครับ",
        "id": "203212656517982",
        "name": "รับซ่อมรถยนต์ชนหนักชนเบาทุกชนิดโดย ช่างผู้ชำนาญและทีมงานติดต่อ0849308918"
    },
    {
        "about": "กลอนประตูรถยนต์ กระจกไฟฟ้า เซ็นทรัลล็อค ยางขอบประตู เบาะไฟฟ้า\nโทร 024380307-8 \nพิกัดGPS 13.728327, 100.50230",
        "emails": [
            "mscarlock_ladya@hotmail.com"
        ],
        "id": "443944989043403",
        "location": {
            "city": "Bangkok",
            "country": "Thailand",
            "latitude": 13.72847535693,
            "longitude": 100.50225656143,
            "street": "472-474 ถนนลาดหญ้า คลองสาน กทม"
        },
        "name": "ซ่อมกลอนประตูรถยนต์ Ms carlock",
        "phone": "024380307"
    },
    {
        "about": "รับซ่อมโซฟา เก้าอี้ รถยนต์ ราคาย่อมเยาว์",
        "description": "รับซ่อมโซฟา เก้าอี้ เบาะรถยนต์ รถตู้ รถทัวร์ รถมอเตอร์ไซค์ และรับทำที่นอนฟองน้ำอัด ทางร้านมีบริการรับส่งสินค้าฟรีในเขตกรุงเทพฯ และจ.สมุทรปราการ แต่จ.อื่นทางร้านรบกวนขอคิดค่าน้ำมันนะจ๊ะ ^^ หรือต้องการสอบถามรายละเอียดเพิ่มเติมได้ที่เบอร์โทร 081-933-3607  คุณลัดดา ^^",
        "id": "232136820195816",
        "name": "รับซ่อมโซฟา เก้าอี้ เบาะรถยนต์ และรับทำที่นอนฟองน้ำอัด"
    },
    {
        "about": "รับซ่อมไมล์รถยนต์และบิ๊กไบค์ 081-8748642",
        "description": "รับซ่อมเรือนไมล์รถยนต์ ทุกอาการ และมีอะไหล่ไว้สำหรับท่านที่ไม่ต้องการรอซ่อม สนใจติดต่อที่: 081-8748642 ",
        "emails": [
            "crazy_dogman@yahoo.com"
        ],
        "id": "510647812334008",
        "location": {
            "city": "อ.เมือง จ.นครราชสีมา",
            "zip": "30000"
        },
        "name": "รับซ่อมไมล์รถยนต์ โคราช  081-8748642",
        "phone": "0818748642"
    },
    {
        "about": "รับซ่อมโช๊คอัพรถยนต์ ยกสูง โหลดเตี้ย ดัดแหนบ ใส่สตรัทปรับเกลียว ช่วงล่าง เบรค ครัช087-9218282 ",
        "description": "อู่โชคประสิทธิ์ โช๊คอัพ รับซ่อมโช๊คอัพรถยนต์ ยกสูง  โหลดเตี้ย ดัดแหนบ ใส่สตรัทปรับเกลียว ช่วงล่าง เบรค ครัช ร้านอยู่ที่ ต.คลองมะเดื่อ อ.กระทุ่มแบน จ.สมุทรสาคร  Tel.087-9218282,0615739980=ติดต่อช่างเบิ้ม",
        "emails": [
            "sony234539@gmail.com"
        ],
        "id": "306726336142138",
        "location": {
            "city": "สมุทรสาคร",
            "street": "87/8ม.2ต.คลองมะเดื่อ อ.กระทุ่มแบนจ.สมุทรสาคร",
            "zip": "74110"
        },
        "name": "ร้านซ่อมโช๊คอัพรถยนต์ กระทุ่มแบน สมุทรสาคร",
        "phone": "087-9218282,061- 5739980 ช่างเบิ้ม"
    },
    {
        "about": "8.00-17.00 น. หยุดวันอาทิตย์",
        "description": "รุ่งโรจน์ลักยิ้ม : บริการซ่อมรอยบุบ รอยลักยิ้มรถยนต์ และขัดไฟหน้า\n\nการศึกษา : \n- Fahrzeugbau (Vehicle Construction) at Robert Bosch Schule ,Stuttgart-Zuffenhausen , Germany\n\n- Paintless Dent Removal at Training Center of NÜSSLE Spezialwerkzeuge \u0026 Karosserie NÜSSLE GmbH ,Gärtringen , Stuttgart, Germany\n\nประสบการณ์ทำงาน : \n \n- Auwärter GmbH ,Steinenbronn Germany\n",
        "id": "503236236449442",
        "location": {
            "city": "Amphoe Hat Yai",
            "country": "Thailand",
            "latitude": 7.0152,
            "longitude": 100.39974,
            "street": "20 ถ.ศรีภูวนารถใน",
            "zip": "90110"
        },
        "name": "ซ่อมรอยบุบ รอยลักยิ้ม รถยนต์ทุกยี่ห้อ โดยไม่ต้องทำสี",
        "phone": "0887847311"
    },
    {
        "about": "ศูนย์บริการซ่อมรถยนต์ และ ติดตั้งแก๊ส LPG บานบอน5",
        "description": "ศูนย์ติดตั้งแก๊ส LPG ซ่อม บำรุงรักษา ให้คำปรึกษา ตรวจสภาพ รถยนต์ครบวงจร ด้วยระบบคอมพิวเตอร์ โดยทีมงานผู้ชำนาญ \nติดต่อเรา 081-815-8228 \n\nระบบเครื่องยนต์\n- ตรวจ เช็ค สภาพรถด้วยระบบคอมพิวเตอร์\n- เช็คระยะ เปลี่ยน ถ่าย น้ำมันเครื่อง มาตราฐานคาสตรอล\n- ซ่อมเครื่องยนต์ ช่วงล่าง เบรค คลักซ์ เกียร์ ระบบแอร์ \n- วางเครื่อง วายลิ่งสายไฟในรถยนต์ ระบบไฟฟ้า\n\nระบบแก๊ส\n-  ติดตั้งแก๊สรถยนต์ LPG \n-  ปรับ จูน แก้ไขงานแก๊สรถยนต์\n \nเรามีห้องรับรองลูกค้าที่สะอาด สบาย พร้อมทั้ง Cable TV, Free Wi-Fi \nบริการฟรี ชา กาแฟ น้ำหวาน รวมทั้งขนมและผลไม้ สำหรับทานเล่น\nไว้บริการลูกค้าทุกท่าน\n\nทั้งนี้ทาง บิ๊ก ออโต้ เซอร์วิส ขอขอบคุณลูกค้าทุกท่านที่ให้ความไว้วางใจ\nเรามีความมุ่งมั่นจะให้บริการลูกค้าอย่างครบวงจร และมีการพัฒนาการบริการอย่างต่อเนื่อง เพื่อตอบสนอง ความพึงพอใจอย่างสูงสุดให้กับลูกค้า รวมทั้งการรับประกันงานซ่อมและติดตั้งแก๊สตามมาตรฐานที่กำหนด ",
        "id": "119042918250672",
        "location": {
            "city": "แขวงบางบอน เขตบางบอน กทม ",
            "street": "203/4 ถนน บางบอน5",
            "zip": "10150"
        },
        "name": "Big Auto Service ศูนย์ซ่อมรถยนต์ทุกยี่ห้อ ติดตั้งแก๊ส LPG  และ E85 บางบอน5",
        "phone": "ติดต่อ  02-429-3500   มือถือ 081-815-8228"
    },
    {
        "about": "ให้ ProPit ดูแลรถของคุณ โทร 084 188 5855",
        "description": "ProPit ศูนย์บริการซ่อมช่วงล่าง เบรค คลัช เจียรจานเบรค เจียรฟลายวีล\nปะยาง ถ่วงล้อ เปลี่ยนถ่ายน้ำมันเครื่อง บริการรถทุกยี่ห้อ ราคาเป็นกันเอง\nโทร 084 188 5855",
        "id": "742146369157387",
        "location": {
            "city": "Nonthaburi",
            "country": "Thailand",
            "latitude": 13.974995375097,
            "longitude": 100.61732418803,
            "street": "ซ.งามวงศ์วาน23 (ซ.วัดบัวขวัญ) เข้าซอยเพียง200เมตร ร้านอยู่ขวามือ",
            "zip": "11000"
        },
        "name": "ProPit ศูนย์ซ่อมช่วงล่างรถยนต์",
        "phone": "0841885855"
    },
    {
        "about": "#ร้าน ซ่อมกระจกไฟฟ้ารถยนต์ ซ่อมกระจกมองข้าง",
        "description": "ร้าน เจริญรุ่งเรือง (ช่างเอ๋) รับซ่อมกลอนประตูรถยนต์\n-เปลี่ยนสลักประตูรถยนต์ กรณีปิดเปิดประตูรถยาก ปิดประตูรถแล้วไม่สนิท -เปลี่ยนเฟืองยกกระจก,สลิงยกกระจกไฟฟ้า กรณีกระจกรถตก\n-เปลี่ยนยางร่องกระจก,ยางขอบประตู,ยางรีดน้ำ,ยางกระดูกงูฝาท้าย กรณีล้างรถแล้วน้ำซึมเข้า รถวิ่งแล้วลมเข้า \n-รับซ่อมกระจกมองข้างไฟฟ้า พับปิด-เปิดไม่ได้\n-เซ็นทรัลล็อก รับดัดแปลงกระจกไฟฟ้า ติดตั้งกุญแจกันขโมย (ยินดีให้คำปรึกษา ทุกกรณี) โทร 02-9963535,080-0825798",
        "id": "1409365845962610",
        "location": {
            "city": "Bangkok",
            "country": "Thailand",
            "latitude": 13.921932836887,
            "longitude": 100.64704289221,
            "street": "ซอย สายไหม 23 ถนน สายไหม",
            "zip": "10220"
        },
        "name": "ร้านซ่อมกระจกไฟฟ้ารถยนต์ , กระจกมองข้างพับไฟฟ้า และกลอนประตูรถยนต์",
        "phone": "02-9963535/0800825798-ช่างเอ๋"
    },
    {
        "about": "ร้านซ่อมกลอนประตูกระจกไฟฟ้ารถยนต์ โทร -086-9891741. ช่างรุ่ง",
        "description": "รับซ่อมกระจกไฟฟ้า ซ่อมกลอนประตู ซ่อมกระจกมองข้าง ซ่อมเบาะ ทุกรุ่นทุกยี่ห้อ",
        "emails": [
            "kad_25256@hotmail.com"
        ],
        "id": "129768170544655",
        "location": {
            "city": "Bangkok",
            "country": "Thailand",
            "latitude": 13.67465029,
            "longitude": 100.436822985,
            "street": "ซอย เอกชัย69 ร้านอยู่ฝั่งซ้ายมือ ก่อนถึงลางรถไฟ 800 เมตร",
            "zip": "10150"
        },
        "name": "ซ่อมกระจกไฟฟ้ารถยนต์ ฝั่งธน เอกชัย บางบอน ร้านเเสงเจริญสุข กลอนประตู",
        "phone": "086-9891741 ช่างรุ่ง  02-4162079 "
    },
    {
        "about": "ซ่อมกระจกโดนหินแตกร้าวสามารถซ่อมได้",
        "id": "551121611700470",
        "location": {
            "city": "Bangkok",
            "country": "Thailand",
            "latitude": 13.84211,
            "longitude": 100.86283,
            "street": "9/354 Moo 5 Kratumrai Kayt Nong Jok Bangkok,Thailand",
            "zip": "10530"
        },
        "name": "ซ่อมกระจกรถยนต์โดนหินดีดแตกร้าว",
        "phone": "0890460553"
    },
    {
        "about": "บริการซ่อม-ขาย-เปลี่ยน อะไหล่รถยนต์\nแอร์-ไดนาโม-แบตเตอรี่-น้ำมันเครื่อง-หม้อน้ำ-ชุด Kit E85",
        "description": "บริการซ่อม-ขาย-เปลี่ยน อะไหล่แอร์รถยนต์\nแอร์-ไดนาโม-แบตเตอรี่-น้ำมันเครื่อง-หม้อน้ำ-ชุด Kit E85\n เซอร์วิส นอกสถานที่บริเวรใกล้เคียง\nTel. 085-9161964 (ต่อ)\n ID. pantor25",
        "emails": [
            "pantor_1988@hotmail.com"
        ],
        "id": "885830351458181",
        "location": {
            "city": "Rayong",
            "country": "Thailand",
            "latitude": 12.672585410121,
            "longitude": 101.29150986671,
            "street": "903/2 ถ.สุขุมวิท ต.เชิงเนิน อ.เมือง จ.ระยอง",
            "zip": "21000"
        },
        "name": "ร้านซ่อมรถยนต์ มาเวย์ ออโต้ เซอร์วิส-ระยอง",
        "phone": "0859161964"
    },
    {
        "id": "315044702030040",
        "name": "ช่างซ่อมรถยนต์"
    },
    {
        "about": "จำหน่ายอะไหล่Mitsubishi 084-711-4248 บอล ,087-6915441 ตั้ม",
        "description": "จำหน่ายอะไหล่แต่งของ FLEX \nจำหน่ายเครื่องยนต์ MITSUBISHIและอื่นๆ มือสองจากญี่ปุ่น\nจำหน่ายอะไหล่ Bosch ของแท้ราคากันเอง\nรับวางเครื่อง ซ่อมเครื่อง Mitsubishi Evo,Ecar,Ck ฯลฯ\nรับเปลี่ยนถ่ายน้ำมันเครื่อง,ช่วงล่วง,เบรค,ครัช\n \n\n\n\n",
        "emails": [
            "t-and-b_icb@hotmail.com"
        ],
        "id": "201354493266268",
        "location": {
            "city": "Bangkok",
            "country": "Thailand",
            "latitude": 13.680726000873,
            "longitude": 100.43172524125,
            "street": "T\u0026B Car's Service เลขที่ 18 ซอย.เอกชัย 60 ถนน.บองบอน-เอกชัย แขวง.บางบอน เขต.บางขุนเทียน",
            "zip": "10150"
        },
        "name": "T\u0026B Car's Body รับซ่อมบำรุงรักษารถยนต์ทุกรุ่น",
        "phone": "090-278-6364 , 084-711-4248 บอล ,087-6915441 ตั้ม"
    },
    {
        "about": "ซ่อมประตูรถยนต์ กระจกไฟฟ้ารถยนต์ กลอนประตู รีโมทรถยนต์",
        "description": "รับติดตั้งกระจกไฟฟ้ารถยนต์\nรับติดตั้งรีโมทกันขโมยรถยนต์\nซ่อมกลอนประตูรถยนต์\nซ่อมกุญแจประตูรถยนต์\nมอเตอร์กระจกไฟฟ้ารถยนต์\nซ่อมเซ็นทรัลล็อคประตูรถยนต์\n\n\nซ่อมเกียวกับประตูรถยนต์โดยตรง",
        "id": "848731735167013",
        "location": {
            "city": "Bangkok",
            "country": "Thailand",
            "latitude": 13.974050112555,
            "longitude": 100.55786132812,
            "street": "Khlong Luang",
            "zip": "12120"
        },
        "name": "ร้านซ่อมกระจกไฟฟ้ารถยนต์ คลองหลวง เวนิช เซอร์วิส",
        "phone": "0860092171"
    },
    {
        "about": "รับซ่อมเกียร์ออโต้รถยนต์ทุกชนิดทุกยี่ห้อ GPS 13.743911,100.414537\n",
        "description": "รับซ่อมเกียร์ออโต้รถยนต์ทุกชนิดทุกยี่ห้อพร้อมรับประกัน 1 ปี",
        "id": "257577624358659",
        "location": {
            "city": "Bangkok",
            "country": "Thailand",
            "latitude": 13.7442799,
            "longitude": 100.4148636,
            "street": "ถนน.จรัญฯ13(บางแวก) ซ.บางแวก 116",
            "zip": "10160"
        },
        "name": "Oatauto ซ่อมเกียร์ออโต้รถยนต์ทุกยี่ห้อทุกชนิด",
        "phone": "0805777700"
    },
    {
        "about": "สาธุ ออโต้ เซอร์วิส รับซ่อมรถยนต์ วางเครื่อง ดัดแปลงช่วงล่าง ติดตั้งแก๊ส ",
        "description": "อู่บริการตรวจ เช็ค ซ่อมรถยนต์ทุกยี่ห้อ รับดัดแปลง วางเครื่องยนต์ร รับดัดแปลงช่วงล่าง  และติดตั้งแก๊ส อู่ซ่อมรถพระราม 3",
        "id": "269410736514468",
        "location": {
            "city": "Bangkok",
            "country": "Thailand",
            "latitude": 13.677668288947,
            "longitude": 100.53329748684,
            "street": "สาธุ ออโต้เซอร์วิส ถนนพระราม 3 ซอย 41 หรือ ถนนสาธุประดิษฐ์ 57  ยานนาวา",
            "zip": "10120"
        },
        "name": "Sathu Auto Servicesอู่ซ่อมรถยนต์พระราม 3ช่วงล่างวางเครื่องติดแก๊ส",
        "phone": "+66863682726"
    },
    {
        "about": "ติดต่อสอบถาม ☎ 081-6950785",
        "id": "1518115438402304",
        "name": "ซ่อม ซื้อ ขาย คอมแอร์รถยนต์ทุกรุ่น"
    },
    {
        "about": "ทำสีตัวถังเคลมประกัน รับทั้งนิสสันและเชฟโรเลต รับประกันงานซ่อม อะไหล่แท้ทุกชิ้น โทร. 092-271-5775",
        "description": "ศูนย์ซ่อมสีรถยนต์นครปฐม - รับทั้งนิสสันและเชฟโรเลต รับงานเคลมประกันภัย ซ่อมสีรอยเล็กเสร็จภายใน 2-3 วัน รายชื่อบริษัทประกันในเครือค่ะ \n- วิริยะประกันภัย\n- ธนชาตประกันภัย\n- นวกิจประกันภัย\n- MSIG ประกันภัย\n- โตเกียวมารีนประกันภัย\n- ประกันคุ้มภัย\n- กรุงไทยพานิชประกันภัย\n- กรุงเทพประกันภัย\n- มิตรแท้ประกันภัย\n- สินมั่นคงประกันภัย\n- ทิพยประกันภัย\n- เมืองไทยประกันภัย \nทำสีตัวถังเคลมประกันที่ศูนย์ซ่อมสีนิสสัน ช.เอราวัณ นครปฐม รับทั้งนิสสันและเชฟโรเลต รับประกันงานซ่อมจากศูนย์ รับรองอะไหล่แท้ทุกชิ้น โทรสอบถาม/จองคิวได้ที่ 092-271-5775\n=====================================\nตู้อบสีมาตรฐานทำให้งานออกมาเนี๊ยบ พร้อมรับประกันคุณภาพกับบริษัทประกันชั้นนำมากถึง 12 แห่ง เคลมชน/เคลมทำสี/ขัดเคลือบที่ โทรจองคิวเลยที่ 092-271-5775\n=====================================\nซ่อมรถแล้วยังอนุรักษ์สิ่งแวดล้อมไปในตัว ด้วยสีสูตรน้ำคุณภาพเยี่ยมมาตรฐานยุโรป Sikkens จาก Akzo Nobel \n=====================================\nนิสสัน ช.เอราวัณ นครปฐม บริการครบวงจร โชว์รูม | ศูนย์บริการ | ซ่อมสีตัวถัง\nลูกค้าเดินทางมาที่นิสสัน ช.เอราวัณ สามารถกดลิงค์แผนที่นี้ได้เลยค่ะ https://goo.gl/maps/KZZcN\nโทร. 034-30-5000\n----------------------------------------­-----------\n==ซ่อมสี-ตัวถัง===เคลมประกัน/ทำสี-ตัวถัง มั่นใจซ่อมห้างอะไหล่แท้ รับประกันศูนย์ จองคิวโทร. 092-271-5775\n==ออกรถใหม่===Hot Line โปรโมชั่นรถใหม่นิสสัน โทร. 089-330-5000, 034-30-5000\n==ศูนย์บริการ===จองคิวศูนย์บริการนิสสัน เปลี่ยนน้ำมันเครื่อง, เช็ครถและซ่อมรถ โทร. 098-270-0090\n----------------------------------------­-----------\nwww.nissan-erawan.com\nhttp://www.facebook.com/nissannakhonpathom\nhttp://vimeo.com/nissanerawan\nhttp://instagram.com/nissanerawan\nhttp://nissan-erawan.blogspot.com\nhttp://google.com/+Nissan-erawan",
        "emails": [
            "ch.erawan_01@nissan-dealer.in.th"
        ],
        "id": "1526755747580531",
        "location": {
            "city": "Nakhon Pathom",
            "country": "Thailand",
            "latitude": 13.811326419952,
            "longitude": 100.12175559998,
            "street": "109/3 หมู่ 1 ถนนเพชรเกษม ตำบลธรรมศาลา อำเภอเมือง",
            "zip": "73000"
        },
        "name": "ศูนย์ซ่อมสีรถยนต์นครปฐม - นิสสัน ช.เอราวัณ",
        "phone": "034-30-5000"
    },
    {
        "about": "เป็นอู่ ซ่อมรถยนต์รถบรรทุก รถหนัดทุกประเภท",
        "id": "403447916431000",
        "location": {
            "city": "Saraburi",
            "country": "Thailand",
            "latitude": 14.57628,
            "longitude": 100.99528,
            "street": "3/10 ต.แก่งคอย อ.แก่งคอย จ.สระบุรี",
            "zip": "18110"
        },
        "name": "อู่ช่างนงค์ ซ่อมรถยนต์",
        "phone": "081-556-2087"
    }
]