[
    {
        "id": "1634079023517305",
        "name": "รับเปลี่ยนถ่ายน้ามันเครื่อง ซ่อมเครื่องช่วงล่าง เบรค ครัช แอร์รถยนต์"
    },
    {
        "id": "761362700676898",
        "location": {
            "city": "Ubon Ratchathani",
            "country": "Thailand",
            "latitude": 15.2424355,
            "longitude": 104.8475266,
            "street": "59/4ถ.พิชิตรังสรรค์",
            "zip": "34000"
        },
        "name": "TTK  ไทธนกิจยานยนต์ ล้างอัดฉีด ซ่อมแอร์รถยนต์",
        "phone": "0939366568"
    },
    {
        "about": "โทรสอบถามได้ครับ ปรึกษาฟรี เฉพาะเกียร์มีทุกรุ่นครับ",
        "id": "1651100201780202",
        "location": {
            "street": "1/201 ถนนพระราม 5 นครอินทร์ ต.ตลาดขวัญ",
            "zip": "11000"
        },
        "name": "ASP Autoservice รับซ่อมเกียร์รถยนต์ทุกชนิด",
        "phone": "0818035138"
    },
    {
        "id": "1561377400775974",
        "location": {
            "city": "Lampang",
            "country": "Thailand",
            "latitude": 18.39182,
            "longitude": 99.62182,
            "street": "โครงการเจดีย์ซาว 473/6  ถนน ลำปาง-แจ้ห่ม",
            "zip": "52000"
        },
        "name": "อู่ณัฐภัทรการช่าง รับซ่อมสีรถยนต์ ลำปาง",
        "phone": "0861913387"
    },
    {
        "about": "ติดตั้งและซ่อมแอร์รถยนต์ทุกรุ่น ทุกชนิด\n",
        "id": "486343828195464",
        "location": {
            "city": "Amphoe Muang Chanthaburi",
            "country": "Thailand",
            "street": "104/24 Tachang",
            "zip": "22000"
        },
        "name": "ร้านช่างหวินติดต้ังซ่อมแอร์รถยนต์ทุกชนิด",
        "phone": "0822718831"
    },
    {
        "id": "140580319629269",
        "location": {
            "city": "Chonburi",
            "country": "Thailand",
            "latitude": 13.36,
            "longitude": 100.98,
            "street": "Pattaya",
            "zip": "20250"
        },
        "name": "N.O อะไหล่ยนต์จำหน่ายแร็ครถยนต์และรับซ่อมแร็คทุกรุ่น",
        "phone": "0923933799"
    },
    {
        "about": "รับซ่อมเครื่องยนต์แอรถยนต์เดินระบบไฟและไดนาโมทุกชนิด",
        "id": "1429566230692300",
        "name": "ศูนย์บริการบุญมาการช่างรับซ่อมเครื่องยนต์ติดตั้งแอรถยนต์ทุกชนิด"
    },
    {
        "id": "1687181588182478",
        "location": {
            "city": "หนองคาย",
            "street": "หนองสองห้อง อ.เมือง"
        },
        "name": "รับซ่อมเกียร์ ออโต้ รถยนต์ทุกยี่ห้อ BY  Chuck tansmition Company.",
        "phone": "0840240349"
    },
    {
        "id": "286075804882026",
        "location": {
            "city": "Amphoe Thung Song",
            "country": "Thailand",
            "latitude": 8.08089,
            "longitude": 99.62777,
            "street": "แยกบ่อทราย บ้านนาป่า ม.4 หนองหงส์ อ.ทุ่งสง",
            "zip": "80110"
        },
        "name": "อู่ อ.หรั่ง ติดตั้งแก๊สรถยนต์ทุกยี้ห้อ แอร์รถยนต์ ซ่อมเบรก คลัทช์",
        "phone": "0828176832"
    },
    {
        "id": "288976614582664",
        "location": {
            "city": "Amphoe Kamphaeng Saen",
            "country": "Thailand",
            "latitude": 13.98716,
            "longitude": 99.94699,
            "street": "169/6ม.11 ต.ห้วยขวาง อ.กำแพงแสน จ.นครปฐม73140",
            "zip": "73140"
        },
        "name": "อู่ ต การช่าง Byeuro รับติดตั้งซ่อมแอร์ ไดนาโม เดินสายไฟระบบรถยนต์",
        "phone": "0867615962"
    },
    {
        "id": "289921744535023",
        "location": {
            "city": "Bangkok",
            "country": "Thailand",
            "latitude": 13.9438818,
            "longitude": 100.623632
        },
        "name": "ร้านภัทรแอร์ ซ่อมแอร์รถยนต์"
    },
    {
        "id": "290210647775789",
        "location": {
            "city": "Bangkok",
            "country": "Thailand",
            "latitude": 13.800387431414,
            "longitude": 100.71921417965,
            "zip": "10510"
        },
        "name": "เป เบาะยนต์ ซ่อมเบาะรถยนต์"
    },
    {
        "id": "291997904325196",
        "location": {
            "city": "Chachoengsao",
            "country": "Thailand",
            "latitude": 13.657018667163,
            "longitude": 101.0485162316,
            "street": "จังหวัดฉะเชิงเทรา"
        },
        "name": "อู่ เจ.ซี. ซ่อมสีรถยนต์"
    },
    {
        "id": "294149390649767",
        "location": {
            "city": "Bangkok",
            "country": "Thailand",
            "latitude": 13.729031,
            "longitude": 100.499905
        },
        "name": "ปิยะการช่าง:รับติดตั้ง-ซ่อมแอร์ หม้อน้ำ ท่อไอเสียรถยนต์"
    },
    {
        "id": "294492547230194",
        "location": {
            "city": "Photharam",
            "country": "Thailand",
            "latitude": 13.68926144045,
            "longitude": 99.842472918477,
            "zip": "70120"
        },
        "name": "อู่ซ่อมรถยนต์ที่บ้าน(โพธาราม)"
    },
    {
        "id": "296836287023158",
        "location": {
            "city": "Bangkok",
            "country": "Thailand",
            "latitude": 13.811998,
            "longitude": 100.591316,
            "zip": "10230"
        },
        "name": "ซ่อมแอร์รถยนต์(งานเข้าละ!!เสียเงินอีกละ!!)_''_ถึงเวลาของรถ5ปีละ!!\u003e_\u003c"
    },
    {
        "id": "300701830059573",
        "location": {
            "city": "Bangkok",
            "country": "Thailand",
            "latitude": 13.846082822433,
            "longitude": 100.50005435953
        },
        "name": "Tm Car Tuner อู่ซ่อมรถยนต์โตโยต้าโดยเฉพาะ"
    },
    {
        "id": "303554183139524",
        "location": {
            "latitude": 14.2917279,
            "longitude": 101.1398312
        },
        "name": "ศูนย์ซ่อมรถยนต์ซูซูกิ สระบุรี"
    },
    {
        "id": "307477956036630",
        "location": {
            "city": "Pichit",
            "country": "Thailand",
            "latitude": 16.433751617167,
            "longitude": 100.3505302154,
            "street": "Sraluang Road"
        },
        "name": "ร้านส.เจริญแอร์ ซ่อมล้างแอร์รถยนต์"
    },
    {
        "id": "308759432644889",
        "location": {
            "city": "Bang Kruai",
            "country": "Thailand",
            "latitude": 13.806451491142,
            "longitude": 100.50503135565
        },
        "name": "รับซ่อมแอร์รถยนต์"
    },
    {
        "id": "284815955015059",
        "location": {
            "city": "Phitsanulok",
            "country": "Thailand",
            "latitude": 16.816108580679,
            "longitude": 100.30371054076
        },
        "name": "ร้านซ่อมหม้อน้ำรถยนต์ พิษณุโลก"
    },
    {
        "id": "285873518208296",
        "location": {
            "city": "Bangkok",
            "country": "Thailand",
            "latitude": 14.002563193277,
            "longitude": 100.60832277311
        },
        "name": "@กองซ่อมบำรุงและปรนนิบัติรถยนต์โดยสาร"
    },
    {
        "id": "282641221832168",
        "location": {
            "city": "Surat Thani",
            "country": "Thailand",
            "latitude": 9.1042385296981,
            "longitude": 99.306151913571,
            "zip": "84000"
        },
        "name": "ปั่นเจริญการไฟฟ้า ซ่อมระบบแอร์ ไดนาโม ไฟรถยนต์ทุกรุ่น"
    },
    {
        "id": "315017245296244",
        "location": {
            "city": "Napa",
            "country": "Thailand",
            "latitude": 13.338862,
            "longitude": 101.060623
        },
        "name": "อู่ซ่อมรถยนต์ คอกม้า"
    },
    {
        "id": "315696248591712",
        "location": {
            "city": "Bangkok",
            "country": "Thailand",
            "latitude": 13.9607873,
            "longitude": 100.6787683
        },
        "name": "Honda คลอง4 อู่ซ่อมรถยนต์มาตรฐาน",
        "phone": "0873288171"
    }
]