[
    {
        "id": "194297524089031",
        "location": {
            "city": "Chonburi",
            "country": "Thailand",
            "latitude": 13.34795306438,
            "longitude": 101.00198443057,
            "zip": "20000"
        },
        "name": "ศูนย์ซ่อมรถยนต์วิริยะประกันภัย"
    },
    {
        "about": "รับซ่อมเบาะรถยนต์ทุกชนิด",
        "id": "380763572046893",
        "location": {
            "city": "Bangkok",
            "country": "Thailand",
            "latitude": 13.85247,
            "longitude": 100.73933,
            "street": "355 ถนนหทัยราษฎร์ ตรงข้ามหทัยราษฎร์26 แขวงสามวาตะวันตก เขตคลองสามวา. กทม10510",
            "zip": "10510"
        },
        "name": "ซ่อมเบาะรถยนต์",
        "phone": "089-8130432"
    },
    {
        "id": "318938164916806",
        "name": "ซ่อมสีรถยนต์"
    },
    {
        "about": "ศูนย์ซ่อมสีรถยนต์มาตรฐานสากล",
        "description": "ทางอู่ให้สี 2k เต็บระบบทำให้สามารถกล้ารับประกันงานสีที่ซ่อม 1 ปี",
        "emails": [
            "nakornhatyai_service@hotmail.com"
        ],
        "id": "146522645435411",
        "location": {
            "city": "Ban Hat Yai",
            "country": "Thailand",
            "street": "5 ซ.23 ราษฎร์อุทิศ",
            "zip": "90110"
        },
        "name": "ศูนย์ซ่อมรถยนต์",
        "phone": "074253641"
    },
    {
        "about": "กระจกรถยนต์ร้าว  โดนหินซ่อมด้วยตัวคุณเอง  ง่ายๆด้วยชุด Windshield  repair  ",
        "description": "ซ่อมได้   !!!!!!!   กระจกรถยนต์มีรอยร้าว   โดยหิน  ซ่อมด้วยตัวเอง  ด้วย  \nWindshield repair kit   เพียง 500  บาท/ชุด  ซ่อมได้  2  จุด  ส่งฟรี  EMS  ทั่วประเทศ สอบถามเพิ่มเติม    ID :    chaya11\n",
        "id": "468821269935633",
        "location": {
            "city": "Bangkok",
            "country": "Thailand",
            "latitude": 13.67066,
            "longitude": 100.6249619,
            "street": "บางนา-ตราด 13",
            "zip": "10260"
        },
        "name": "ซ่อมกระจกรถยนต์",
        "phone": "0625210198"
    },
    {
        "about": "รับซ่อมกระจกไฟฟ้า กระจกมองข้าง เซ็นทรัลล็อค รีโมท กลอนประตู รถยนต์ @บางนาออโต้กลาส T.02-396-1200",
        "description": "รับซ่อมกระจกไฟฟ้ารถเสีย ฝืดค้างไม่ขึ้นลง กระจกตกร่อง รางสลิงขาด เฟืองแตก มอเตอร์เสีย กระจกมองข้างพับไม่ได้   เซ็นทรัลล็อคเสีย กลอนประตู รีโมท ม่านไฟฟ้า ระบบไฟในรถยนต์ทุกชนิด เปิดทุกวัน T.0-2396-1200 Line id : bangnaautoglass ",
        "general_info": "ซ่อมได้ เชิญปรึกษา ปัญหาระบบไฟรถยนต์ ",
        "id": "855415084470203",
        "name": "ซ่อมกระจกไฟฟ้ารถยนต์บางนา"
    },
    {
        "about": "ซ่อมรถยนต์ เบรค คลัช ช่วงล่าง",
        "id": "645679788816569",
        "name": "C\u0026P Service ซ่อมรถยนต์"
    },
    {
        "emails": [
            "emachines.d7@gmail.com"
        ],
        "id": "1490612171258497",
        "location": {
            "city": "อ.ธัญบุรี",
            "street": "รังสิต",
            "zip": "12130"
        },
        "name": "ซ่อมโม เพาเวอร์แอมป์ รถยนต์  กลางแจ้ง",
        "phone": "0824769860"
    },
    {
        "about": "บริการ ซ่อมรถทุกยนต์ทุกรุ่น",
        "id": "377219705780132",
        "name": "อู่ซ่อมรถยนต์ ช่างเจน",
        "phone": "0861586953"
    },
    {
        "about": "เรามีการบริการและซ่อมบำรุงรถยนต์ ที่ดีเยี่ยม กับ รถระดับพรีเมี่ยม เช่น BMW,Mercedes ,Bentley,Porsche,Toyota,Honda,Nissan",
        "description": "เรามีการบริการและซ่อมบำรุงรถยนต์ ที่ดีเยี่ยม กับ รถระดับพรีเมี่ยม เช่น BMW,Mercedes ,Bentley,Porsche,Toyota,Honda,Nissan. เรามีช่างมืออาชีพ ให้บริการ เช่น เปลี่ยนยาง, น้ำมันเครื่อง,ผ้าเบรค,โช๊คอัพ,ตั้งศูนย์,ถ่วงล้อ,ซ่อมช่วงล่าง",
        "id": "108227172850436",
        "location": {
            "city": "Bangkok",
            "country": "Thailand",
            "latitude": 13.8282299,
            "longitude": 100.5915222,
            "street": "2  ซอยลาดพร้าววังหิน76ถนนลาดพร้าววังหิน แขวงลาดพร้าวเขตลาดพร้าว",
            "zip": "10230"
        },
        "name": "ศูนย์บริการอีการาจซ่อมรถยนต์ครบวงจร / e-garage Thailand",
        "phone": "025700911-3    0894484401   "
    },
    {
        "about": "ร้านซ่อมคอมพิวเตอร์ และ ระบบไฟภายในรถยนต์ ทั้งในและนอกสถานที่",
        "id": "1012128548890621",
        "location": {
            "city": "Amphoe Koh Sa-mui",
            "country": "Thailand",
            "latitude": 9.43333,
            "longitude": 99.9667,
            "street": "12/26 ม.2 หน้าเมือง เกาะสมุย สุราษฎร์ธานี",
            "zip": "84140"
        },
        "name": "ซ่อมคอมและรถยนต์",
        "phone": "0874687991, 0980241288"
    },
    {
        "description": "เปิดบริการ วันจันทร์-เสาร์\nเวลา 07.00-18.00 \nรับปรึกษาและรับซ่อมช่วงล่างรถยนต์ โดยช่างผู้ชำนาญ \nช่างแก๋ง,ช่างหนุ่ม\nที่อยู่: ตลาดรามอินทรา กม.2 \nโทร:087-594-3577,083-600-7300,089-811-6635,02-522-1614\n",
        "id": "414348678631263",
        "location": {
            "city": "Bangkok",
            "country": "Thailand",
            "latitude": 13.7964134,
            "longitude": 100.3736649,
            "street": "ตลาดรามอินทรา กม.2",
            "zip": "10220"
        },
        "name": "อู่แก๋ง ซ่อมรถยนต์ช่วงล่าง",
        "phone": "0836007300"
    },
    {
        "about": "รับซ่อมกล่อง ECU ระบบไฟฟ้ารถยนต์ อิเล็กทรอนิกส์ยานยนต์ วายสาย เกียร์ออโต ",
        "description": "บริการรับซ่อมกล่อง ECU รถยนต์ ระบบไฟฟ้ารถยนต์ เครื่องยนต์ระบบ EFI",
        "id": "1466446093594453",
        "location": {
            "city": "Sisakate",
            "country": "Thailand",
            "latitude": 14.62129,
            "longitude": 104.15586,
            "street": "นายปัญญา  หงสา 291 ม.2 ต.โสน อ.ขุขันธ์ จ.ศรีสะเกษ",
            "zip": "33140"
        },
        "name": "ซ่อมกล่อง ECU รถยนต์ อิเล็กทรอนิกส์ยานยนต์",
        "phone": "083-7339947"
    },
    {
        "about": "บริการรับซ่อมรถยนต์ราคากันเอง  บริการนอกสถานที",
        "id": "463813843695022",
        "location": {
            "city": "Bangkok",
            "country": "Thailand",
            "latitude": 13.75395,
            "longitude": 100.50224,
            "street": "Bangkok"
        },
        "name": "รับซ่อมรถยนต์",
        "phone": "089-0488189"
    },
    {
        "about": "บริการซ่อมรถยนต์ รถทั่วไป รถกระป๊อ ตั้งวาล์ว เปลี่ยนน้ำมันเครื่อง ช่วงล่าง เบรค ครัช",
        "id": "1419656874941946",
        "location": {
            "city": "Bang Kapi",
            "country": "Thailand",
            "latitude": 13.76682,
            "longitude": 100.6438293,
            "street": "58",
            "zip": "10240"
        },
        "name": "MIN AUTO Car services, garage ซ่อมรถยนต์",
        "phone": "089-448-9226"
    },
    {
        "about": "รับทําสีรถยนต์ ซ่อมสีรถยนต์ ราคากันเอง 0814201239",
        "description": "รับทําสีรถยนต์ ทั้งโป๊วสีและพ่นสี ทั้งงานหนักและเบา  ทั้งรอบคันและซ่อมเป็นชิ้น งานเร็วไม่ดองงาน ราคาเป็นกันเอง",
        "emails": [
            "e.g.1623@hotmail.com"
        ],
        "id": "534672899883984",
        "location": {
            "city": "Bangkok",
            "country": "Thailand",
            "latitude": 13.922043159,
            "longitude": 100.59907359715,
            "zip": "10210"
        },
        "name": "รับทําสีรถยนต์ ซ่อมสีรถยนต์ 0814201239",
        "phone": "0814201239"
    },
    {
        "about": "รับซ่อมกล่อง ECU รถยนต์ ทุกรุ่น ทุกยี่ห้อ (โทรสอบถามก่อนน่ะคับ)",
        "emails": [
            "tananusorn@hotmail.com"
        ],
        "id": "1456442091266987",
        "location": {
            "city": "กทม",
            "street": "575 ถ.ลาดพร้าว แขวง/เขต วังทองหลาง กทม., กทม. 10310",
            "zip": "10310"
        },
        "name": "รับซ่อมกล่อง ECU รถยนต์",
        "phone": "0839214262"
    },
    {
        "id": "500952683398401",
        "location": {
            "city": "Bang Khen",
            "country": "Thailand",
            "latitude": 13.7777205,
            "longitude": 100.5428619,
            "street": "3/1185 ม.8 ถ.พหลโยธิน แขวงอนุสาวรีย์",
            "zip": "10220"
        },
        "name": "อู่บรรเจิด ซ่อมรถยนต์ VOLVO และรถทั่วไป",
        "phone": "0817149084"
    },
    {
        "description": "ในส่วนของการซ่อมสีรถยนต์ ผมได้เคยใช้ผลิตภัณฑ์สีมาหลายยี่ห้อ ซึ่งให้คุณภาพงานที่ไม่พึงพอใจ บัดนี้ผมได้เลือกใช้ผลิตภัณฑ์สี 2K คุณภาพสูงที่ดีที่สุดที่ผมใช้มา ยี่ห้อ OCTORAL จากประเทศเนเธอร์แลนด์ เป็นสีสูตรน้ำ (WATER BASE) ช่วยรักษาสิ่งแวดล้อม ให้คุณภาพสีที่แลดูสวยสด เงางาม ฉ่ำลึก คงทนตลอดไป“ วงศ์วรท (กล่าว)",
        "emails": [
            "my.carsv@gmail.com",
            "m.y.carservicehatyai@gmail.com"
        ],
        "id": "114406665322431",
        "location": {
            "city": "Had Yai",
            "country": "Thailand",
            "street": "415 ถ.ธรรมนูญวิถี อ.หาดใหญ่ จ.สงขลา 90110 0 (เยื้องโรงเรียนอุดมศึกษาพณิชยการ หลังร้านบางรัก)",
            "zip": "90110"
        },
        "name": "M.Y. Car Service ศูนย์ซ่อมสี-ตัวถังรถยนต์ หาดใหญ่",
        "phone": "โทรศัพท์ 074-239059-60 โทรสาร 074-239061 "
    },
    {
        "about": "ซ่อมแอร์ใช่เพียงหน้าที่ แต่หมายถึงความรับผิดชอบ",
        "description": "ความเย็นจากแอร์รถยนต์หมายถึงความสุขที่ได้รับทุกการเดินทางจะวิ่งสั้นๆเป็นประจำทุกวัน จะไปทำงาน ไปส่งพ่อ ส่งแม่ ไปส่งแฟน ส่งลูก ส่งเพื่อน รับรุ่นพี่ รับเจ้านาย  ท่องเที่ยวพักผ่อน วิ่งทางยาวๆออกต่างจังหวัดวันหยุด ถ้าแอร์ไม่เย็น หลายๆคนที่เอยมา ต้องไม่มีความสุขแน่ๆ อากาศร้อนอยู่บ้าน หรือเที่ยวห้างดีก่วา นั่งแท๊กซี่แอร์เย็นก่วา รถแต่งหมดไปหลายตังค์ แต่ถ้าแอร์ไม่เย็น ฟิลม์ลดความร้อนที่ว่าแน่ๆยังยอมแพ้อากาศร้อนอย่างทุกวันนี้ 4 เหตุผลหลักที่เจ้าของรถจะเข้ารับบริการแอร์รถยนต์ 1.แอร์ไม่เย็น 2.แอร์ไม่ทำงาน 3.เปิดแอร์แล้วมีกลิ่นไห้มมีเสียงดังผิดปกติ 4.น้ำแอร์รั่วในรถพื้นเปียก มีกลิ่นเหม็นอับ ท่านเปลี่ยนน้ำมันเครื่อง น้ำมันเกียร์ น้ำมันเฟื่องท้าย ตามกำหนดระยะ แต่ท่านไม่เคยเติมน้ำมันคอมเพิ่มเลย 3 หมื่น 4 หมื่น 5 หมื่น 6 หมื่น 7หมื่น  8หมื่น 9หมื่น บางคันก่วา 1แสนกิโลเมตร อะไหล่ไม่เคยเปลี่ยน เอาหมดอายุว่า สะสมอาการเสียไว้ทุกปี พอทำแอร์ทีหนึ่งก็เสียค่าใช้จ่ายมาก อยากทำแบบถูกๆเลยต้องซ่อมหลายครั้งเสียเงินกับระบบแอร์ไม่จบซ๊ะที ขับรถไปดูบิลค่าซ่อมแอร์ไป ดูแล ตรวจเช็คระบบแอร์กันบ้าง ลองติดตามการแนะนำครับ http://www.oknation.net/blog/anurakair/2014/03/24/entry-1",
        "emails": [
            "ais1175@gmail.com"
        ],
        "id": "452253778242820",
        "location": {
            "city": "Chiang Mai",
            "country": "Thailand",
            "latitude": 18.8168483,
            "longitude": 98.9913324,
            "street": "41 ซอยเจริญเมือง 5 ตำท่าศาลา",
            "zip": "50000"
        },
        "name": "ร้านอนุรักษ์แอร์ ซ่อมแอร์รถยนต์เชียงใหม่",
        "phone": "094-6355505"
    },
    {
        "about": "รับซ่อมรถยนต์ทั่วไป เบรค ครัช ช่วงล่าง\nพร้อมอะไหล่ รถยนต์ทั่วไป",
        "id": "764733920220623",
        "location": {
            "city": "Bangkok",
            "country": "Thailand",
            "latitude": 14.0389816965,
            "located_in": "705013786217961",
            "longitude": 100.668727722,
            "zip": "12000"
        },
        "name": "ช่างกานต์ รับซ่อมรถยนต์ทั่วไป",
        "phone": "0867608906  -  0801071618"
    },
    {
        "about": "ปรึกษาสอบถามเกี่ยวกับ ระบบแอร์รถยนต์ ปัญหาแอร์ไม่เย็น ได้ครับ ยินดีตอบทุกคำปรึกษา",
        "id": "614666982009032",
        "location": {
            "city": "Bangkok",
            "country": "Thailand",
            "latitude": 13.8177261,
            "longitude": 100.7214737,
            "street": "212/1 ถนน หทัยราษฎร์ แขวง สามวาตะวันตก เขตคลองสามวา",
            "zip": "10510"
        },
        "name": "บริการซ่อม แอร์ รถยนต์",
        "phone": "0869003926"
    },
    {
        "about": "บริการซ่อมรถยรต์ทุกชนิด ราคาเป็นกันเอง",
        "id": "366817446754867",
        "location": {
            "city": "ระยอง",
            "street": "40/5 ม.4 บ้านดอน ต.เชิงเนิน อ.เมือง",
            "zip": "21000"
        },
        "name": "SD Service ซ่อมรถยนต์ทุกชนิด",
        "phone": "0854324849"
    },
    {
        "about": "รับซ่อมรถยนต์ เคาะ ปะผุ ทำสี โดยช่างผู้ชำนาญงานกว่า 20 ปี ในราคากันเอง089-1780978,095-5944121",
        "emails": [
            "chet_010621@hotmail.com"
        ],
        "id": "1480923078788233",
        "location": {
            "city": "ไทย",
            "street": "22 หมู่ 2 ต.คูคต อ.ลำลูกกา จ.ปทุมธานี",
            "zip": "12130"
        },
        "name": "รับซ่อมรถยนต์ เคาะ ปะผุ ทำสี  ชนะชัย เซอร์วิส ลำลูกา คลอง2 ปทุมธานี",
        "phone": "093-1107789, 089-1780978"
    },
    {
        "about": "ส.เซอร์วิสแอร์ บริการซ่อมแอร์รถยนต์ หม้อน้ำ ช่วงล่าง",
        "description": "ร้าน ส.เซอร์วิสแอร์ หาดใหญ่ บริการซ่อมหม้อน้ำ บริการซ่อมแอร์รถยนต์ แอร์ไม่เย็น ติดๆ ดับๆ แอร์รถยนต์เสีย ใช้บริการกับเรา โดยช่างป้อม ด้วยประสพการณ์เฉพาะทางกว่า 10 ปี บริการดี ราคาถูก \n\nร้านตั้งอยู่ตรงข้ามกับ \"ธนาคารออมสิน(ข้างป.ณัฐพล)\" ถนนศรีภูวนารถ หาดใหญ่ เปิดบริการทุกวันจันทร์ - เสาร์ ติดต่อช่างป้อม โทรศัพท์ 08-6968-7169",
        "id": "664548020264647",
        "location": {
            "city": "Songkhla",
            "country": "Thailand",
            "latitude": 7.0152,
            "longitude": 100.39974,
            "street": "Hatyai",
            "zip": "90110"
        },
        "name": "ส.เซอร์วิสแอร์ - ร้านซ่อมแอร์รถยนต์หาดใหญ่",
        "phone": "08-6968-7169"
    }
]