[
    {
        "about": "รับซ่อมแอร์รถยนต์  เบรค ครัช ช่วงล่าง ราคาเป็นกันเอง ",
        "id": "377264029048282",
        "location": {
            "city": "Sam Phran",
            "country": "Thailand",
            "latitude": 13.69786,
            "longitude": 100.26732,
            "street": "หมุ่บ้านสิวารัตน์ 8  9/365 ต.ยายชา  ติดร้า้นอาหารสุกี้วันชัย",
            "zip": "73160"
        },
        "name": "รับซ่อมแอร์รถยนต์",
        "phone": "0878606788"
    },
    {
        "id": "166369993392974",
        "name": "ช่างซ่อมรถยนต์"
    },
    {
        "about": "ซ่อมรอยบุบรถยนต์ ลักยิ้มโดยไม่ต้องทำสี",
        "id": "771250349657164",
        "location": {
            "city": "Bangkok",
            "country": "Thailand",
            "latitude": 13.8030796,
            "longitude": 100.8133087,
            "street": "97/22 ม.6 ถ.เอกชัย เขต.บางบอน แขวง.บางบอน",
            "zip": "10150"
        },
        "name": "ซ่อมรอยบุบลักยิ้มรถยนต์โดยไม่ต้องทำสี",
        "phone": "0808018245"
    },
    {
        "id": "987904574556294",
        "location": {
            "city": "Pak Kret",
            "country": "Thailand",
            "latitude": 13.77482483,
            "longitude": 100.57446546,
            "street": "ซอยแจ้งวัฒนะ-ปากเกร็ด24 ซอยสี่ไชยทอง 6 ปากเกร็ด จ.นนทบุรี 11120 ประเทศไทย",
            "zip": "11120"
        },
        "name": "อู่ซ่อมฮอนด้าพรีลูด Honda Prelude + อู่ทำสีรถยนต์ทุกยี่ห้อ",
        "phone": "0867891998"
    },
    {
        "id": "624456800990740",
        "name": "ซ่อมเครื่องเสียงรถยนต์"
    },
    {
        "id": "596948820394704",
        "name": "ซ่อมรถยนต์"
    },
    {
        "emails": [
            "tn@tngarage.net"
        ],
        "id": "138044649564695",
        "location": {
            "city": "Bangkok",
            "country": "Thailand",
            "street": "82/10 Soi.Chaiyaphuk 12 Chaiyaphuk Rd., Talingchan",
            "zip": "10170"
        },
        "name": "T.N.Garage - ศูนย์ซ่อมรถยนต์ ที.เอ็น.การาจ",
        "phone": "+6624245597"
    },
    {
        "about": "อู่ซ่อมรถยนต์ ย้ายไปบางวัวแล้ว\n\nติดต่อเบอร์ 086-388-1727",
        "id": "521732097882463",
        "location": {
            "city": "Chonburi",
            "country": "Thailand",
            "latitude": 13.36899,
            "longitude": 100.9957,
            "street": "เลียบถนนบางนา-ตราด",
            "zip": "20000"
        },
        "name": "อู่ซ่อมรถยนต์ อมตะ ชลบุรี บางปะกง เส้นบางนา-ตราด",
        "phone": "0808266318"
    },
    {
        "id": "258522074299623",
        "name": "ซ่อมรถยนต์"
    },
    {
        "about": "บริการซ่อมรถยนต์",
        "id": "283490931820474",
        "location": {
            "city": "Nakhon Ratchasima",
            "country": "Thailand",
            "latitude": 15.054947929471,
            "longitude": 102.19680670658,
            "street": "บ้านราษประสงค์ ตำบลตลาด อำเภอเมือง จังหวัดนครราชสีมา",
            "zip": "30310"
        },
        "name": "อู่ซ่อมรถยนต์ \"ส.เซอร์วิส\" KORAT",
        "phone": "0881131541"
    },
    {
        "id": "160526090945740",
        "name": "อู่ซ่อมรถยนต์ ภาชี"
    },
    {
        "about": "แผนที่ : http://goo.gl/maps/g50EG",
        "description": "ศูนย์ซ่อมตัวถังและสีรถยนต์ \n                           อายุรถไม่เกิน 15 ปี\n                      รับซ่อมงานทั่วไป (งานเงินสด) \nและงานประกันภัยดังนี้\n1.  กรุงเทพประกันภัย\n2.  ไทยศรีประกันภัย\n3.  โตเกียวมารีนศรีเมือง\n4.  มิตซุย สุมิโตโม อินชัวร์รัน\n5.  ฟอลคอนประกันภัย\n6.  เอเชีย 1950 ประกันภัย\n7.  ไทยไพบูลย์ประกันภัย\n8.  เทเวศประกันภัย\n9.  เจนเนอราลี่ประกันภัย\n10. อาคเนย์ประกันภัย \n11. อินทรประกันภัย\n12. ทิพยประกันภัย \n13. ศรีอยุธยาเจนเนอรัล\n\nสามารถนำรถมาแจ้งเคลม(ควรโทรสอบก่อนนะคะ) ประเมินราคาค่าซ่อม ประเมินวันซ่อม ได้ตามวันทำการ",
        "emails": [
            "aook.garage@gmail.com"
        ],
        "general_info": "โทร.    026881194-5\n            022920659\nแฟกซ์  026881665",
        "id": "178112102217466",
        "location": {
            "city": "Bangkok",
            "country": "Thailand",
            "latitude": 13.702801260689,
            "longitude": 100.50135545573,
            "street": "2196/6 ซอยเจริญกรุง 74/3 วัดพระยาไกร บางคอแหลม",
            "zip": "10120"
        },
        "name": "อู่ เคการาจ ศูนย์ซ่อมตัวถังและสีรถยนต์",
        "phone": "026881194-5"
    },
    {
        "id": "1430156467228816",
        "location": {
            "city": "Chiang Mai",
            "country": "Thailand",
            "latitude": 18.8124447,
            "longitude": 99.0113068,
            "street": "1",
            "zip": "50180"
        },
        "name": "อู่ซ่อมรถยนต์Honda ครบวงจร 089-9568829",
        "phone": "0899568829"
    },
    {
        "about": "บริการเคาะพ่นสีรถยนต์ \nทั้งเงินสดและบริษัทประกันต่างๆ\nและต่อทะเบียนรถ",
        "description": "ให้บริการเคาะพ่นสีรถยนต์ทุกชนิด\n***การันตีด้วยประสบการณ์ทำอู่มากกว่า 20 ปี\n***ห้องอบสีได้มาตรฐานจากญี่ปุ่น ถึงสองห้อง\n***ใช้สีมาตรฐานตรานกแก้วจากเยอรมันนี\n***ช่างผู้ชำนาญการกว่า 20 คน\n***สถานที่จอดรถกว้างขวาง ปลอดภัย มียามรักษาการ 24 ชม.\n***มีการส่งพนังงานเข้ารับการอบรมที่ศูนย์เทรนนิ่งประจำปี\nรับทั้งซ่อมเงินสดและประกันภัยบริษัทต่างๆมากมาย\n-บ.เมืองไทยประกันภัยจำกัดมหาชน\n-บ. LMG ประกันภัยจำกัด\n-บ. ประกันคุ้มภัยจำกัด\n-บ. กรุงเทพประกันภัยจำกัด\n-บ. อาคเนย์ประกันภัยจำกัด\n-บ. ไทยพาณิชย์สามัคคีประกันภัยจำกัด\n-บ. โตเกียวมารีนประกันภัยจำกัด\n-บ. AIG ประกันภัยจำกัด\n-บ. ศรีอยุธยาเจนเนอรัลประกันภัยจำกัด\n-บ. คุ้มภัยจำกัด\n-บ. ฯลฯ\nท่านลูกค้าที่อยู่ต่างจังหวัด\nต้องการงานซ่อมเร่งด่วนตรงเวลาเราทำได้\n***ติดต่อสอบถามพูดคุยได้ที่***\n38/1 ถ.โก-ลก - ตากใบ ต.ปาเสมัส\nอ.สุไหงโก-ลก จ.นาราธวาส 96120\nตั้งแต่วันจันทร์-เสาร์ เวลา 8.00-17.00 น.\nหรือโทรมาสอบถามได้ที่เบอร์ 073-646584-5\nและ 073-646655",
        "emails": [
            "pimthai_2554@hotmail.com"
        ],
        "id": "636056503197872",
        "location": {
            "city": "Amphoe Sungai Kolok",
            "country": "Thailand",
            "latitude": 6.0322069400109,
            "longitude": 101.97323083878,
            "street": "38/1 ตำบล ปาเสมัส อำเภอ สุไหงโก-ลก นราธิวาส 96120 ประเทศไทย",
            "zip": "96120"
        },
        "name": "ศูนย์ซ่อมสีรถยนต์สนิทเซอร์วิส Fanpage",
        "phone": "073-646584"
    },
    {
        "about": "ฝากถูกใจเพจตามชื่อเพจด้วยครับ.",
        "emails": [
            "tom_car56@hotmail.com"
        ],
        "id": "394900140609033",
        "location": {
            "city": "Pak Preo",
            "country": "Thailand",
            "latitude": 14.53236,
            "longitude": 100.92238,
            "street": "ช่างต้อม685/5ถ.พิชัยณรงค์สงคราม ต.ปากเพรียว อ.เมือง จ.สระบุรี18000",
            "zip": "18000"
        },
        "name": "ช่างต้อม สระบุรี รับซ่อมรถยนต์ Honda\u0026ยุโรป",
        "phone": "0941564591"
    },
    {
        "about": "บริการซ่อมเครื่องยนต์ เบรค ครัช ช่วงล่าง ตั้งวาวล์ ติดตั้งแก๊ส ปรึกษาวายลิ่ง ",
        "id": "512980252114518",
        "location": {
            "city": "Bangkok",
            "country": "Thailand",
            "latitude": 13.82676,
            "longitude": 100.56398,
            "street": "40/2 ลาดยาว จตุจักร",
            "zip": "10900"
        },
        "name": "S\u0026P Service อู่ซ่อมรถยนต์",
        "phone": "08-1629-7396"
    },
    {
        "about": "รับซ่อมกระจกรถยนต์  แตกร้าวเป็นจุดและเส้น ..โดยที่ไม่ต้องเปลี่ยนใหม่\nราคาเริ่มที่6⃣0⃣0⃣บาท\n",
        "description": "รับซ่อมกระจกรถยนต์ แตกร้าว..เป็นจุด..และเส้น..ซ่อมได้โดยที่ไม่ต้องเปลี่ยนใหม่...\nกระจกแตกโทรปรึกษาเราได้ครับ\nอย่าปล่อยให้แตกร้าวเพิ่มขึ้นกว่าเดิม\nจนต้องเสียเวลาเสียค่าใช้จ่ายมากขึ้น\nหลังซ่อมรับประกันตลอดอายุการใช้งาน\nในราคาย่อมเยาว์...ราคาเริ่มต้นที่600บาท\nพร้อมให้คำปรึกษาฟรี!!!!!\n",
        "emails": [
            "sddia2515@gmail.com"
        ],
        "id": "404972159694013",
        "location": {
            "city": "Nong Chok",
            "country": "Thailand",
            "latitude": 13.8030796,
            "longitude": 100.8133087,
            "street": "31/9",
            "zip": "10530"
        },
        "name": "ช่างซ่อมกระจกรถยนต์",
        "phone": "☎️0994424092"
    },
    {
        "about": "ของแต่งรถ ของตกแต่งรถ อุปกรณ์เกี่ยวกับรถยนต์ เส้นตัดขอบรถยนต์ น้ำยาซ่อมกระจกรถยนต์ ",
        "description": "KONIRO เป็นแบรนด์คนไทย \nผู้ผลิตและจัดจำหน่ายสินค้าตกแต่งรถยนต์ \nและอุปกรณ์ต่างๆที่เกี่ยวข้องกับรถยนต์ \nที่มีคุณภาพดี ในราคายุติธรรม\n\nทางทีมงาน KONIRO ทุกคน ยินดีให้คำแนะนำ\nและบริการลูกค้าทุกท่าน อย่างดีที่สุดคะ \n\nสามารถติดต่อได้ที่ :-\n084-6602659 / 081-4456946 / 089-4523351",
        "id": "531247976965400",
        "name": "Koniro น้ำยาซ่อมกระจกรถยนต์"
    },
    {
        "id": "586793831458978",
        "location": {
            "city": "Bangkok",
            "country": "Thailand",
            "latitude": 13.6782751,
            "longitude": 100.3416367,
            "street": "14 ถ.กัลปพฤกษ์ แขวง บางหว้า เขต ภาษีเจริญ",
            "zip": "101600"
        },
        "name": "ร้านซ่อมกระจกรถยนต์ สาธร-กัลปพฤกษ์",
        "phone": "0949415498"
    },
    {
        "about": "Sound up รับติดตั้งเครื่องเสียง ปรับแต่งรถยนต์ รับซ่อมช่วงล่าง และอื่นๆ",
        "emails": [
            "tuytuy241@hotmail.com"
        ],
        "id": "647799268606321",
        "location": {
            "city": "Bangkok",
            "country": "Thailand",
            "latitude": 13.919713853595,
            "longitude": 100.71389822388,
            "street": "ถนนหทัยราษฎร์",
            "zip": "10510"
        },
        "name": "Sound up Car Audio รับติดตั้งเครื่่องเสียงรถยนต์ ซ่อมช่วงล่างและอื่นๆ",
        "phone": "086-0709333 - 0891101450"
    },
    {
        "about": "รับซ่อมเครื่องยนต์ทุกชนิด,ช่วงล่าง,ดามแช๊ตซี ฯลฯราคาเป็นกันเอง",
        "id": "382783225155462",
        "location": {
            "city": "Lom Sak",
            "country": "Thailand",
            "latitude": 16.74237,
            "longitude": 101.28683,
            "street": "114/4 ม.3 ต.วัดป่า",
            "zip": "67110"
        },
        "name": "อู่.ช่างต๋อย - ซ่อมรถยนต์บ้านท่ามะกล้วย",
        "phone": "056704863"
    },
    {
        "about": "ร้านอมรแอร์ ศูนย์บริการตรวจซ่อมแอร์รถยนต์",
        "description": "ร้านอมรแอร์ ศูนย์บริการตรวจซ่อมแอร์รถยนต์ ด้วยประสบการณ์ช่างผู้ชำนาญงานมากกว่า 30 ปี",
        "id": "192953294236644",
        "location": {
            "city": "Bangkok",
            "country": "Thailand",
            "latitude": 13.750506537191,
            "longitude": 100.60885621333,
            "street": "ถนนรามคำแหง",
            "zip": "10240"
        },
        "name": "อมรแอร์ ศูนย์บริการตรวจซ่อมแอร์รถยนต์",
        "phone": "02-3143936 , 02-7198328"
    },
    {
        "about": " ซ่อมรถยนต์086-913-3727",
        "id": "700864706692729",
        "location": {
            "city": "เชียงใหม่",
            "street": "หลัง มช ใกล้กับวัดอุโมง",
            "zip": "50200"
        },
        "name": "อู่ซ่อมรถยนต์ ทําสี ซ่อมเครื่อง ขัดไฟหน้า ecu ยาง",
        "phone": "0835772613"
    },
    {
        "about": "084-155-0217 แบงค์  ซ. คู้บอน 27 (รับซ่อมรถยนต์ทุกชนิดโดยช่างผู้ชำนาญงาน รับประกันคุณภาพ )",
        "description": "รับซ่อมติดตั้ง - เครื่องยนต์  -เบรค -ครัช -ช่วงล่าง -ระบบไฟ -แอร์ -ไดนาโม  -เกียร์ -หม้อน้ำ -รีโมทกันขโมย -กระจกไฟฟ้า -เซ็นทรัทล็อก  -กลอนประตู -กุญแจ - /รับติดตั้งกล่อง e-85 / ประดับยนต์ / รับเปลี่ยน battery--(รถยนต์ทุกยี่ห้อ)",
        "emails": [
            "spoon.1992@hotmail.com"
        ],
        "id": "244670055608339",
        "location": {
            "city": "Bangkok",
            "country": "Thailand",
            "latitude": 13.89633,
            "longitude": 100.63934,
            "street": "2 ซ. คู้บอน 27 แยก 30 แขวงท่าแร้ง เขตบางเขน กทม. 10220",
            "zip": "10220"
        },
        "name": "วิชัยการช่าง (ซ่อมและจำหน่ายอุปกรณ์ตกแต่ง รถยนต์ทุกชนิด ซ.คู้บอน27 แยก30)",
        "phone": "0841550217"
    },
    {
        "id": "107304019605071",
        "location": {
            "city": "Bangkok",
            "country": "Thailand",
            "latitude": 13.8722696,
            "longitude": 100.6281433,
            "street": "สุขาภิบาล5",
            "zip": "10220"
        },
        "name": "อู่ซ่อมรถยนต์ช่างแมวเซอวิส \u0026 รถยก 0880101631",
        "phone": "0880101631"
    }
]