[
    {
        "about": "รับซ่อมรถทุกรุ่น ส่วนตัวและประกันภัย อู่กลาง สามารถสอบถามได้ โทรมาที่เบอร์ติดต่อ",
        "id": "606991705993006",
        "location": {
            "city": "กรุงเทพ",
            "street": "สะแกงามซอย25",
            "zip": "10150"
        },
        "name": "บริษัท สหรุ่งโรจน์2545 ศูนย์ซ่อมรถยนต์",
        "phone": "028971123"
    },
    {
        "about": "ซ่อมขัดโคมไฟรถยนต์ ซ่อมกันชนทุกรุ่น รับประกันคุณภาพ",
        "id": "444075229097011",
        "location": {
            "city": "Bangkok",
            "country": "Thailand",
            "latitude": 13.8455496,
            "longitude": 100.6496277,
            "street": "รามอินทรา กม8",
            "zip": "10230"
        },
        "name": "Road Fix ซ่อมขัดโคมไฟรถยนต์ ซ่อมกันชนทุกรุ่น รับประกันคุณภาพ",
        "phone": "092-657-4448"
    },
    {
        "about": "เครื่องมือช่าง เครื่องมือ อุปกรณ์ช่าง ประแจ ซ่อมรถยนต์ ปั๊มลม อุปกรณ์ลม แม่แรง ",
        "id": "1633350886910671",
        "name": "เครื่องมือช่าง อุปกรณ์ช่าง เครื่องมือ ประแจ ซ่อมรถยนต์ อะไหล่"
    },
    {
        "about": "กระจกโดนหินกระเด็นใส่เป็นรอยแตก รับขัดคาบน้ำ ไมล์เต็มเซ็ตได้ ราคาเป็นกันเอง",
        "id": "873812949349434",
        "name": "รับซ่อมกระจกและใมล์รถยนต์ทุกรุ่น",
        "phone": "0890320419"
    },
    {
        "about": "รับงานเคาะ พ่นสี ชิ้นส่วนรถยนต์ทุกชนิด\nและจำหน่ายชิ้นส่วนตัวถังรถยนต์ราคาถูก",
        "id": "1018149494896760",
        "location": {
            "street": "ต.บ่อวิน อ.ศรีราชา จ.ชลบุรี"
        },
        "name": "อู่ซ่อมสีรถยนต์ ขายอะไหล่ทุกชนิด"
    },
    {
        "id": "1523630427929178",
        "location": {
            "city": "Bangkok",
            "country": "Thailand",
            "latitude": 13.8541298,
            "longitude": 100.5878983,
            "street": "559หมู่3 ถ.พหลโยธิน แขวงอนุสาวรีย์ เขตบางเขน",
            "zip": "10220"
        },
        "name": "ร้านทำกุญแจรีโมทรถยนต์ ซ่อมรองเท้าทุกชนิด โลตัสหลักสี่",
        "phone": "0851426698"
    },
    {
        "id": "852257991476260",
        "location": {
            "city": "bangkok",
            "zip": "10900"
        },
        "name": "รับซ่อมรถบรรทุก รถยนต์ใช้ก๊าซ   JNL AUTO",
        "phone": "0869387825"
    },
    {
        "about": "ศูนย์ซ่อมสีและตัวถังรถยนต์มาตรฐาน ",
        "emails": [
            "vn_auto_body@hotmail.com"
        ],
        "id": "194239377287556",
        "location": {
            "street": "178 หมู่ 6 ถนน เชียงใหม่ - หางดง  ตำบล แม่เหียะ อำเภอ เมืองเชียงใหม่ , 178  Chiang Mai-Hang Dong Road, Moo 6, Tambol Maehia, Amphur Muang",
            "zip": "50100"
        },
        "name": "วี.เอ็น. ออโต้ บอดี้  VN Auto Body อู่ซ่อมสีและตัวถังรถยนต์",
        "phone": "โทรศัพท์ +66 (53) 805 900  โทรสาร  +66 (53) 806 900 , Telephone: +66 (53) 805 900  Facsimile: +66 (53) 806 900"
    },
    {
        "id": "1383565655266774",
        "location": {
            "city": "Samut Prakan",
            "country": "Thailand",
            "latitude": 13.61248,
            "longitude": 100.74425,
            "street": "บางพลีใหญ่ บางพลี",
            "zip": "10540"
        },
        "name": "จำเนียรการช่าง บริการซ่อมตรวจเช็คแอร์ ไดนาโม ไฟฟ้ารถยนต์ อะไหล่ ฯลฯ",
        "phone": "0897834511"
    },
    {
        "about": "เบอร์ติดต่อ 0815714287 บริการทั้ง ในอรัญประเทศ และพื้นที่จังหวัด สระแก้ว",
        "description": "จำหน่าย ติดตั้ง ซ่อม แอร์บ้าน แอร์รถยนต์ ตู้เย็น ตู้แช่ ระบบห้องเย็น เครื่องซักผ้า",
        "emails": [
            "chartake.8@gmail.com"
        ],
        "id": "436070953112019",
        "location": {
            "city": "Aranyaprathet",
            "country": "Thailand",
            "zip": "27120"
        },
        "name": "ศิริชัยแอร์  จำหน่าย ติดตั้ง ซ่อม แอร์บ้าน แอร์รถยนต์",
        "phone": "0815714287"
    },
    {
        "about": "ซ่อมแอร์รถยนต์ เติมน้ำยาแอร์ ซ่อมเครื่องยนต์ ซ่อมช่วงล่าง ซ่อมระบบไฟฟ้ารถยนต์",
        "id": "623610551074344",
        "location": {
            "city": "Nakhon Ratchasima",
            "country": "Thailand",
            "latitude": 14.959615474096,
            "longitude": 102.06066066906,
            "street": "142 ม.4 ต.พุดซา อ.เมือง จ.นครราชสีมา",
            "zip": "30000"
        },
        "name": "ล้างแอร์โคราช ซ่อมแอร์ เติมน้ำยาแอร์รถยนต์",
        "phone": "0879927476"
    },
    {
        "id": "389795311221005",
        "location": {
            "city": "Phitsanulok",
            "country": "Thailand",
            "latitude": 16.8158,
            "longitude": 100.264,
            "street": "49หมู่ 2 ตำบล ท่าทอง อำเภอ เมือง จังหวัด พิษณุโลก",
            "zip": "65000"
        },
        "name": "สมบัติแอร์ - ซ่อมและติดตั้งแอร์รถยนต์",
        "phone": "0846246251"
    },
    {
        "about": "รับซ้อมกลอนประตูรถยนต์ทุกรุ่นติดตั้งกระจกไฟฟ้าเซ็นทรัลล๊อครีโมทกันขโมยในราคากันเอง",
        "id": "495916607225792",
        "location": {
            "city": "Chiang Mai",
            "country": "Thailand",
            "latitude": 18.8118534,
            "longitude": 99.0112762,
            "street": "48/2ตำบลขุนคง อำเภอหางดง",
            "zip": "50230"
        },
        "name": "นิคมกลอนประตูรับซ่อมประตูรถยนต์ทุกระบบ",
        "phone": "0873020610"
    },
    {
        "about": "หากมีเหตุฉุกเฉิน สามารถเรียกรถยกลากมาที่อู่ได้ตลอด 24 ชั่วโมงครับ โดยโทรมาที่เบอร์ 0863199985",
        "description": "บริการ : เคาะ พ่นสี ปะผุ ซ่อม ดัดดึงตัวถังรถยนต์ทุกชนิด และรับงานประกันภัยทั่วไป ฝีมือประณีต โดยช่างผู้ชำนาญการ ราคาเป็นกันเอง",
        "emails": [
            "preechagarage11@hotmail.com"
        ],
        "id": "741462869274343",
        "location": {
            "city": "Bangkok",
            "country": "Thailand",
            "latitude": 13.70283,
            "longitude": 100.67317,
            "street": "อ่อนนุช 21/1",
            "zip": "10250"
        },
        "name": "อู่ทำสีรถยนต์ เคาะ พ่นสี ปะผุ ซ่อม - ปรีชา การาจ",
        "phone": "0863199985"
    },
    {
        "id": "347544865449184",
        "location": {
            "city": "Kalasin",
            "country": "Thailand",
            "latitude": 16.431062213333,
            "longitude": 103.50258720667,
            "street": "37 ถ.โสมพะมิตร",
            "zip": "46000"
        },
        "name": "ช.กุ้ง อะไหล่ซิ่ง ซ่อม-แต่ง เช่น คลาสสิค บิ๊กไบค์ รถยนต์ รถทั่วไป.",
        "phone": "0821346122"
    },
    {
        "about": "ซ่อมพ่นสีรถยนต์ ขัดเคลือบเงา  เปลื่ยนสี ขัดสี ลบรอยขีดข่วนทั่วไป  ขัดลบยางมะตอย",
        "id": "516588041784387",
        "name": "ซ่อมทำสีรถยนต์"
    },
    {
        "about": "ซ่อมรถยนต์ ประกันภัยรถยนต์และฝึกวิชาชีพ",
        "id": "837359219690566",
        "location": {
            "city": "Pattaya",
            "country": "Thailand",
            "latitude": 12.92902,
            "longitude": 100.97929,
            "street": "ุ64/20 หมู่ 8 ต หนองปลาไหล อ บางละมุง จ ชลบุรี",
            "zip": "20150"
        },
        "name": "ศูนย์ฝึกวิชาชีพ และชมรมอู่ซ่อมรถยนต์ เมือง พัทยา",
        "phone": "0828926946"
    },
    {
        "about": "ซ่อมและโมเพาเวอร์ คราสD,ABทุกชนิดและติดตั้งเครื่องเสียงติดรถยนต์",
        "id": "923051527765092",
        "location": {
            "street": "11/2ม.4ต.ยางหย่องอ.ท่ายาง",
            "zip": "76130"
        },
        "name": "รับซ่อมและรับโมเพาเวอร์คลาสd,abทุกชนิดและรับติดตั้งเครื่องเสียงติดรถยนต์"
    },
    {
        "about": "รับซ่อมกระจกประตูรถยนต์ ซ่อมกลอน เปลี่ยนเซนเทรอล็อค",
        "id": "530527133672133",
        "location": {
            "city": "Bangkok",
            "country": "Thailand",
            "latitude": 13.73955,
            "longitude": 100.53394,
            "street": "143 จุฬา 26 ถนนบรรทัดทอง เขตปทุมวัน กรุงเทพ",
            "zip": "10330"
        },
        "name": "ร้านซ่อมกระจกประตูรถยนต์"
    },
    {
        "id": "305739476258367",
        "name": "PR.Interservice ศูนย์ซ่อมสีตัวถังรถยนต์ รับงานประกัน"
    },
    {
        "description": "รับทำสีรถยนต์ทุกชนิด ทุกรูปแบบ ทำสีทั้งคัน ทำสีเฉพาะจุด เคาะ ปะผุ ซ่อมตัวถัง กันชน บอดี้พาร์ท ชุดแต่งรอบคัน ลิ้นต่อ ชายต่อ งานคุณภาพสูง ประณีต โดยช่างผู้ชำนาญการ ใส่ใจในทุกๆขั้นตอน\n\nสี  2K แห้งช้า สีซิ่ง ชุดแต่ง ราคาเบาๆ ประมาณ 15,000 ทั้งคัน\nพ่น 2K สาดทั้งคัน รถเล็ก – ขนาดกลาง ราคาประมาณ 15,000 / ปะผุ แล้วแต่สภาพ\n\nพ่น 2K สาดทั้งคัน รถกระบะ – ขนาดใหญ่ ราคาประมาณ 18,000 / ปะผุ แล้วแต่สภาพ\n\nสีรถซิ่ง มีหมดทุกสี เงางาม ทุกคัน\n\nชุดแต่ง งานแท้ ไฟเบอร์เกรด AAA งาน COPY เราพร้อมติดตั้ง ให้ทำสี ชิ้นละ 1200 บาท 2 ชิ้นขึ้นไป\n\n",
        "id": "1750712858489153",
        "location": {
            "city": "Samut Sakhon",
            "country": "Thailand",
            "latitude": 13.5333,
            "longitude": 100.283,
            "street": "อ้อมน้อย",
            "zip": "74130"
        },
        "name": "11mc อู่ทำสี เคาะ พ่นสี ปะผุ ซ่อมรถยนต์ โดยช่างผู้ชำนาณงาน",
        "phone": "085-1149-391"
    },
    {
        "about": "บริการประทับใจ งานคุณภาพ ราคามิตรภาพ ซื่อสัยต์ ยุติธรรม \n\nปลายฟ้า เซอร์วิส ครับ",
        "emails": [
            "nuttapan.boy@gmail.com"
        ],
        "id": "1560922914186017",
        "location": {
            "city": "Bangkok",
            "country": "Thailand",
            "latitude": 13.7522,
            "longitude": 100.494,
            "street": "โลตัส วังหิน"
        },
        "name": "ศูนย์บริการซ่อมรองเท้า ทำกุญแจ ทำรีโมทบ้าน รีโมทรถยนต์",
        "phone": "0873417979"
    },
    {
        "about": "บริการถึงที่ ที่ทำงาน ที่บ้าน รับประกันการร้าวต่อ3ปี  กรุงเทพและปริมณฑล-ฉะเชิงเทรา",
        "id": "386942724849623",
        "location": {
            "city": "Bangkok",
            "country": "Thailand",
            "latitude": 13.8030796,
            "longitude": 100.8133087,
            "street": "หมู่บ้านเทพทิพย์สายไหมซอย10"
        },
        "name": "ซ่อมกระจกรถยนต์โดนหินแตกรอยร้าว",
        "phone": "0964153551"
    },
    {
        "about": "บริการนอกสถานที่ กรุงเทพฯปริมณฑล \nซ่อมกระจกประตูไฟฟ้าและกระจกมองข้าง",
        "id": "1103878299638365",
        "location": {
            "city": "Bangkok",
            "country": "Thailand",
            "latitude": 13.7522,
            "longitude": 100.494,
            "street": "บางบอน",
            "zip": "10150"
        },
        "name": "รับซ่อมกระจก เปลี่ยนกระจกรถยนต์ทุกชนิดและขัดกระจกที่เป็นรอย",
        "phone": "0821193006"
    },
    {
        "about": "รับออเดอร์ ทุกกรณี ถ้าเรามี  ก้อจัดให้ได้  ",
        "id": "456333597882253",
        "location": {
            "city": "Nonthaburi",
            "country": "Thailand",
            "latitude": 13.8700933,
            "longitude": 100.5095749,
            "street": "บางกรวย",
            "zip": "11130"
        },
        "name": "รับซ่อมและอะไหร่ทุกชิ้นส่วนของรถยนต์ย่านนนทบุรี",
        "phone": "0838369145"
    }
]