[
    {
        "id": "858508164218489",
        "location": {
            "city": "Bangkok",
            "country": "Thailand",
            "latitude": 13.69878,
            "longitude": 100.42106,
            "street": "บางแค",
            "zip": "10160"
        },
        "name": "บางแคซาวด์ Bangkea Sound ขายเครื่องเสียงบ้าน-รถยนต์ รับซ่อมลำโพงทุกชนิด",
        "phone": "0830235275"
    },
    {
        "about": "ซ่อมเครื่องยนต์เบรคครัช ช่วงล่าง",
        "id": "767112070037956",
        "name": "P สี เซอร์วิส รับซ่อมรถยนต์จักรยานยนต์"
    },
    {
        "about": "อุปกรณ์ครบ เปิดร้านซ่อมกระจกรถยนต์ได้ทันที\nเพียง 29,000บาท โทร.089-9592006",
        "id": "1635699783344826",
        "name": "จำหน่ายอุปกรณ์ซ่อมกระจกรถยนต์"
    },
    {
        "id": "1645180165758504",
        "name": "ช่างซ่อมหม้อน้ำรถยนต์"
    },
    {
        "id": "1750290761867613",
        "name": "ช่าง ซ่อมช่วงล่างรถยนต์"
    },
    {
        "about": "ซ่อมอุปกรณ์ไฟฟ้าและซ่อมแอร์บ้านแอร์รถยนต์",
        "id": "101633483513975",
        "location": {
            "city": "Surin",
            "country": "Thailand",
            "latitude": 14.8833,
            "longitude": 103.483,
            "street": "ระยอง",
            "zip": "32210"
        },
        "name": "ศูนย์รวมซ่อมอุปกรณ์ไฟฟ้าและซ่อมแอร์บ้านแอร์รถยนต์ครอบครัว อินทรเดช",
        "phone": "0860177783"
    },
    {
        "about": "รับติดตั้งระบบ E85  และ รับเดินสายไฟรถยนต์ งานวางเครื่อง ",
        "id": "775260389205505",
        "location": {
            "city": "Bangkok",
            "country": "Thailand",
            "latitude": 13.774,
            "longitude": 100.65728,
            "street": "กรุงเทพ",
            "zip": "10240"
        },
        "name": "บริการซ่อมรถ  รับวางเครื่อง เดินสายไฟรถยนต์ ติดแก๊ต  ถอดชุดแก๊ต",
        "phone": "0854204773"
    },
    {
        "id": "1495955903971341",
        "location": {
            "city": "Maha Sarakam",
            "country": "Thailand",
            "latitude": 16.29141,
            "longitude": 103.28022,
            "street": "124/3  ม.11 ต.ท่าขอนยาง อ.กันทรวิชัย",
            "zip": "44150"
        },
        "name": "บริการซ่อมเครื่องยนต์  เบรค  ครับ แอร์รถยนต์ทุกรุ่นทุกยี่ห้อ",
        "phone": "0843915765"
    },
    {
        "id": "362166273965958",
        "location": {
            "city": "Chonburi",
            "country": "Thailand",
            "latitude": 13.15205,
            "longitude": 101.06408,
            "street": "236ก หมู่2 บางพระ ศรีราชา ชลบุรี",
            "zip": "20110"
        },
        "name": "หจกซีเอศูนย์ซ่อมรถยนต์",
        "phone": "038-341228"
    },
    {
        "id": "775460272510636",
        "location": {
            "city": "Ubon Ratchathani",
            "country": "Thailand",
            "latitude": 15.36575,
            "longitude": 104.89258,
            "street": "143/1 ม.1 ถ.สุขาอุปถัมภ์ ต.แจระแม อ.เมือง",
            "zip": "34000"
        },
        "name": "หจก.ซีเอชแอล บริการซ่อม เคาะ พ่นสี รถยนต์",
        "phone": "081-7900877"
    },
    {
        "about": "รับติดตั้ง*ซ่อม วิทยุรถยนต์ ฟิล์มกรองแสง สัญญานกันขโมย กระจกไฟฟ้า สอบถามรายละเอียดโทร 0815612492",
        "id": "350437388457218",
        "location": {
            "city": "Bangkok",
            "country": "Thailand",
            "latitude": 13.77803,
            "longitude": 100.4854,
            "street": "727/11 ถ.พรานนก แขวง บ้านช่างหล่อ เขต บางกอกน้อย",
            "zip": "10700"
        },
        "name": "รับติดตั้ง-ซ่อม วิทยุรถยนต์ ฟิล์มกรองแสง สัญญานกันขโมย กระจกไฟฟ้า",
        "phone": "0815612492"
    },
    {
        "id": "1626233500976665",
        "name": "ขายแบตเตอรี่ ซ่อมระบบไฟฟ้่า แอร์รถยนต์"
    },
    {
        "id": "158268127674648",
        "location": {
            "city": "Thiyala",
            "country": "Thailand",
            "latitude": 16.01262,
            "longitude": 104.01179,
            "street": "51/1 ม.11 ต.ขวัญเมือง อ.เสลภูมิ จ.ร้อยเอ็ด",
            "zip": "45120"
        },
        "name": "ร้าน หนึ่ง ไดนาโมรับซ่อม แอร์รถยนต์ หม้อน้ำ เเละจำหน่ายแบตเตอรรี่",
        "phone": "043550171"
    },
    {
        "about": "ยินดีให้คำปรึกษาทุกปัญหาระบบเครื่องยนต์และช่วงล่างรถยนต์ทุกชนิด...\n080-6261962 : อ้วน",
        "id": "811249552248785",
        "name": "อู่ช่างรวย บริการซ่อมบำรุงเครื่องยนต์ ช่วงล่าง รถยนต์ทุกชนิด"
    },
    {
        "id": "1623965657877691",
        "name": "บริการซ่อม-รถแทรคเตอร์และรถยนต์"
    },
    {
        "about": "บริการขัดเคลือบสีรถยนต์ เปลี่ยนกระจก ขัดไฟหน้ารถ",
        "id": "378967432259612",
        "name": "รักรถคาร์แคร์ บริการซ่อมรอยแตกร้าวกระจกรถยนต์ เปลี่ยนกระจกรถยนต์"
    },
    {
        "about": "รับกลึงงานเหล็ก ดัดแปลง ซ่อมช่วงล่างรถยนต์ โทร. 081-7812593 บุ๋ม, 082-2175288 ช่างหนู",
        "id": "673435969440956",
        "location": {
            "city": "เนินทราย",
            "street": "จากแยกทางเข้าไร่ป่า 200 ม.",
            "zip": "23000"
        },
        "name": "อะไหล่รถยนต์มือสองตราด \u0026 ซ่อมช่วงล่างรถยนต์",
        "phone": "0817812593"
    },
    {
        "about": "เพียง39,000บาท มีอุปกรณ์ให้ครบชุด เปิดร้านซ่อมกระจกรถยนต์ได้ทันที โทร.089-9592006",
        "id": "1633363176933653",
        "name": "แฟรนไชส์\"ธุรกิจซ่อมกระจกรถยนต์Delivery\"Mr.MassGlass Delivery"
    },
    {
        "id": "1499157010406578",
        "name": "ผู้จัดการ ร้าน.ซ่อมหม้อน้ำรถยนต์"
    },
    {
        "about": "รับโมแอมป์ คลาสดี  ซ่อมเครื่องแอมป์รถยนต์ทุกชนิด ",
        "id": "933928633318335",
        "location": {
            "city": "Bangkok",
            "country": "Thailand",
            "street": "93/21 นิรันดร์ 5 หนองบอน  ประเวศ กทม.10250",
            "zip": "10250"
        },
        "name": "รับโมแอมป์ คลาสดี ซ่อมแอมป์รถยนต์ทุกชนิด",
        "phone": "086-0083410"
    },
    {
        "about": "บริการซ่อม และซื้อ-ขายรถยนต์ทุกชนิด",
        "id": "879959888722682",
        "location": {
            "city": "Samrong",
            "country": "Thailand",
            "latitude": 13.61248,
            "longitude": 100.74425,
            "street": "28/28 ม.1 ต.บางโฉลง อ.บางพลี จ.สมุทรปราการ",
            "zip": "10540"
        },
        "name": "ดำ ออโต้ เซอร์วิส บริการซ่อม และซื้อขายรถยนต์ทุกชนิด",
        "phone": "0849457935"
    },
    {
        "id": "769337469855388",
        "name": "Customer Service ประเมินราคาซ่อมตัวถังและสีรถยนต์"
    },
    {
        "id": "925207210828489",
        "location": {
            "street": "กรุงเทพมหานคร"
        },
        "name": "แจ๊ค นะครับ คนจังหวัดอุบลฯ ยินดีช้วยเต็มที่ รับซ่อมรถยนต์ครับ",
        "phone": "0895322789"
    },
    {
        "about": "อู่ สิงห์ รับซ่อมสีรถยนต์ ราคาถูก!!!!\n\nรับซื้อขายรถยนต์ทุกชนิดให้ราคาสูง!!!\n\n",
        "id": "923780087641462",
        "location": {
            "city": "Bangkok",
            "country": "Thailand",
            "latitude": 13.77195,
            "longitude": 100.59684,
            "street": "ซอย ประชาราษฎร์บำเพ็ญ 26 แยก 12",
            "zip": "10310"
        },
        "name": "อู่สิงห์รับซ่อมสีรถยนต์",
        "phone": "0890659192"
    },
    {
        "about": "รับปรึกษาหรือติดตั้งแอร์รถยนต์\nและระบบตู้แช่ ทุกชนิด 6ล้อ10ล้อ กะบะ ตีราคาก่อนซ่อม",
        "id": "1549218948686126",
        "name": "ร้านเอกออโต้แอร์ซ้อมแอร์รถยนต์"
    }
]