[
    {
        "about": "รับซ่อมรถยนต์ทุกยี่ห้อ / รับทำประกันภัยรถยนต์ ต่อพ.ร.บ",
        "description": "รับซ่อมรถยนต์ทั้งทีมีประกันภัยและไม่มีประกันภัย ทางอูมีเครื่องมือที่ทำนมสัย ทั้งเครื่องดึงตัวถัง ห้องพ่นสี มีระบบการผสมสีของอู่โดยสีที่ใช้เป็นสี 2K ระบบ",
        "emails": [
            "ubaehenglee@hotmail.com"
        ],
        "id": "1538937616364575",
        "location": {
            "city": "Phetchaburi",
            "country": "Thailand",
            "latitude": 12.965281947692,
            "longitude": 99.899754424615,
            "street": "157/9  หมู่5  ต.ท่ายาง  อ.ท่ายาง",
            "zip": "76130"
        },
        "name": "อู่เบ๊เฮงหลีการช่าง. รับซ่อมรถยนต์ทุกชนิด ซ่อมรถยนต์จ.เพชรบุรี",
        "phone": "032-437696"
    },
    {
        "about": "ขายหัวรถสิบล้อ ซ่อมเบรค ครัช ตั้งสองคาน รถยนต์ทุกชนิด",
        "id": "867287383353928",
        "location": {
            "city": "ตำบลอู่ทอง อำเภออู่ทอง จังหวัดสุพรรณบุรี",
            "street": "420/2 หมู่1",
            "zip": "72160"
        },
        "name": "ขายหัวรถสิบล้อ ซ่อมรถยนต์ทุกชนิด"
    },
    {
        "about": "รับซ่อมเพาเวอร์รถยนต์ คลาสดี คลาสเอบี ซ่อมและโมดิฟาย ราคาไม่แพง",
        "id": "355692604625933",
        "location": {
            "city": "Chiang Rai",
            "country": "Thailand",
            "latitude": 19.9,
            "longitude": 99.8333,
            "street": "เชียงราย และจังหวัดอื่นๆ",
            "zip": "57100"
        },
        "name": "รับซ่อมเพาเวอร์รถยนต์ คลาสD คลาสab",
        "phone": "0851728311"
    },
    {
        "about": "บริการรับส่งรถในกรณีที่ลูกค้าไม่สะดวกขับมา  ตกลงราคากันก่อน ดูแลเหมือนคนในครอบครัว",
        "description": "ทางอู่ มีบริการรับรถมาซ่อมและส่งคืนเมื่อเสร็จเรียบร้อยแล้ว บริการปรึกษา หรือนำรถเข้ามาตรวจเช็คก่อนตัดสินใจซ่อมได้ที่ อู่ ตั้งอยู่ที่เสรีไทยซอย 19 หรือโทร 081-3084808 ราคาไม่แพงอย่างที่คิด ตกลงกันได้ ดูแลเหมือนคนในครอบครัว",
        "id": "187103161306301",
        "location": {
            "city": "กรุงเทพฯ",
            "street": "25/20 ถ.เสรีไทย19 คลองกุ่ม บึงกุ่ม"
        },
        "name": "ธีมายนตรกิจ อู่ ซ่อมรถยนต์",
        "phone": "089-791-4266 / 0813084808"
    },
    {
        "about": "บ้านเลขที่ 146 หมู่ 2 ตำบล สันกำแพง อำเภอ สันกำแพง จังหวัด เชียงใหม่ 50130",
        "id": "371369532935795",
        "location": {
            "city": "San Kamphaeng",
            "country": "Thailand",
            "latitude": 18.75529561344,
            "longitude": 99.127789693767,
            "zip": "50130"
        },
        "name": "อู่ สง่า รับซ่อม เคาะ พ่นสี รถยนต์ ต่อดั้ม ติดฟิล์ม",
        "phone": "084-378-9465"
    },
    {
        "about": "ศูนย์ซ่อมสีและตัวถังมาตรฐาน \nจ.เชียงใหม่ เลยรพ.นครพิงค์เพียง 300ม.\nติดต่อ053-890990-1\nเปิดบริการ Mon-Sat, 8-5pm",
        "emails": [
            "car-vision@hotmail.com"
        ],
        "id": "234905079975429",
        "location": {
            "city": "Chiang Mai",
            "country": "Thailand",
            "latitude": 18.853789766593,
            "longitude": 98.96873956604,
            "street": "234 หมู่4 ต.ดอนแก้ว ใกล้โรงพยาบาลนครพิงค์",
            "zip": "50180"
        },
        "name": "คาร์ วิชั่น Car vision ศูนย์ซ่อมสีและตัวถังรถยนต์",
        "phone": "(053) 890 990/ (053) 890 991 / 081 724 0990"
    },
    {
        "about": "บริการซ่อมรถยนต์ รถติดตั้งแก๊ส และ  ให้คำปรึกษาด้านเครื่องยนต์ ทั้งในและนอกสถานที่",
        "id": "939845792734882",
        "location": {
            "city": "Samut Prakan",
            "country": "Thailand",
            "latitude": 13.5935588,
            "longitude": 100.60671555,
            "street": "1574/152  ม.เด่นทอง  ต.เทพารักษ์",
            "zip": "10270"
        },
        "name": "อู่พอใจ เซอร์วิส-บริการซ่อมรถยนต์และรถติดตั้งแก๊สทั้งในและนอกสถานที่",
        "phone": "092-2827234"
    },
    {
        "about": "รับซ่อมช่วงล่าง-ลูกหมากรถยนต์ทุกรุ่น ในราคาย่อมเยา เสร็จภายใน 1 วัน ภูเก็ต \n098-879-5463,081-429-3636\n",
        "description": "รับซ่อมช่วงล่างลูกหมากรถยนต์ทุกรุ่น ทุกยี่ห้อ ในราคาย่อมเยา โดยช่างชำนาญงานจากกรุงเทพ ซึ่งมีประสบการณ์มากกว่า 20 ปี ",
        "id": "852224764885805",
        "location": {
            "city": "Amphoe Muang Phuket",
            "country": "Thailand",
            "latitude": 7.8992336562622,
            "longitude": 98.38892519474,
            "street": "105/4 ถ.เทพกษัตรี ต.ตลาดใหญ่ อ.เมือง",
            "zip": "83000"
        },
        "name": "J2A Auto Phuket รับซ่อมลูกหมากรถยนต์",
        "phone": "098-879-5463"
    },
    {
        "about": "ตรวจเช็คด้วยระบบคอมพิวเตอร์ ยินดีให้คำปรึกษาครับ",
        "description": "บริการซ่อมรถยนต์ทุกชนิด ทั้งนอกและในสถานที่ wiring สายไฟรถยนต์ ตรวจเช็คด้วยระบบคอมพิวเตอร์และเครื่องมือที่มาตรฐาน สอบถามข้อมูลเพิ่มเติม Tel.0811608035",
        "id": "1468307560114216",
        "location": {
            "city": "Chacherngsao",
            "country": "Thailand",
            "latitude": 13.7,
            "longitude": 101.083,
            "street": "3245 พนมสารคาม",
            "zip": "24120"
        },
        "name": "ศูนย์ซ่อมรถยนต์ ช่างรุ่ง  จิ๊จ๊ะเซอร์วิส",
        "phone": "0811608035"
    },
    {
        "about": "รับบริการ ซ่อม ถ่ายเปลี่ยนน้ำมันเครื่อง รถยนต์ และ อะไหล่รถยนต์แต่งซิ่ง",
        "id": "589875311116176",
        "location": {
            "city": "Bangkok",
            "country": "Thailand",
            "latitude": 13.7522,
            "longitude": 100.494,
            "street": "สมุทรปราการ",
            "zip": "10540"
        },
        "name": "ช่างก๊อบ บริการซ่อมรถยนต์และอะไหล่แต่งรถยนต์ซิ่ง",
        "phone": "0982547039"
    },
    {
        "about": "จำหน่ายอุปกรณ์ อิเล็กทรอนิกส์ สำหรับโทรศัพท์มือถือ และอุปกรณ์อิเล็กทรอนิกส์ติดรถยนต์",
        "id": "352667954760637",
        "location": {
            "city": "ชลบุรี",
            "street": "บ่อวิน ศรีราชา ชลบุรี",
            "zip": "20230"
        },
        "name": "ซ่อม-ขาย อุปกรณ์มือถือ และ กล้องvdoติดหน้ารถยนต์By Pratchaya",
        "phone": "089-274-6094"
    },
    {
        "id": "224927254201700",
        "location": {
            "city": "Bangkok",
            "country": "Thailand",
            "latitude": 13.7187796,
            "longitude": 100.6682663,
            "street": "ถนนอ่อนนุช",
            "zip": "10250"
        },
        "name": "ซ่อมและโมดิฟาย รถยนต์",
        "phone": "662898947915"
    },
    {
        "about": "รับซ่อมติดตั้ง แอร์ ไดชาร์ท ไดสตาร์ท ระบบไฟนถยนต์ เครื่องยนต์ ช่วงล่าง เบรค คลัช แบตเตอรี่ ",
        "emails": [
            "dcautoair1@gmail.com"
        ],
        "id": "117643938432309",
        "location": {
            "city": "Samut Prakan",
            "country": "Thailand",
            "latitude": 13.6183,
            "longitude": 100.61105,
            "street": "687หมู่1ต.เทพารักษ์ อ.เมือง จ.สมุทรปราการ",
            "zip": "10270"
        },
        "name": "D.C autoair อู่ซ่อมรถยนต์"
    },
    {
        "description": "บริการซ่อมเครื่องยนต์ ช่วงล่าง เบรก คลัช กลอนประตู กระจกไฟฟ้า เซ็นทรัลล็อก สัญญาณกันขโมย ระบบไฟรถยนต์ กุญแจ หม้อน้ำ ถ่ายน้ำมันเครื่องรถทุกชนิ",
        "emails": [
            "ิbasservice88@gmail.com"
        ],
        "id": "139661779538156",
        "location": {
            "city": "Sukhothai",
            "country": "Thailand",
            "latitude": 16.99196,
            "longitude": 99.82875,
            "street": "183/17 ถ.วิเชียรจำนงค์ ต.ธานี อ.เมือง",
            "zip": "64000"
        },
        "name": "บาสเซอร์วิส บริการซ่อมเครื่องยนต์ ช่วงล่าง ระบบไฟฟ้ารถยนต์ หม้อน้ำ กุญแจ",
        "phone": "0805041114"
    },
    {
        "about": "สนใจเปิดร้านซ่อมกระจกรถยนต์ เราช่วยได้ ราคาไม่แพง เปิดได้ทันที",
        "emails": [
            "tiparkorn66@hotmail.com"
        ],
        "id": "333695526798155",
        "location": {
            "city": "Bangkok",
            "country": "Thailand",
            "latitude": 13.82676,
            "longitude": 100.56398,
            "street": "47 พหลโยธิน 28 แขวงจันทรเกษม กรุงเทพ",
            "zip": "10900"
        },
        "name": "เปิดร้านซ่อมกระจกรถยนต์",
        "phone": "0835445669"
    },
    {
        "about": "ทำเบาะรถยนต์ \nซ่อมเบาะรถยนต์\nและงานหุ้มเบาะทุกชนิดตามแบบที่ลูกค้าต้องการ",
        "description": "ประสบการณ์ทำงานกว่า 30 ปี \nงานระดับคุณภาพและมาตรฐาน \nให้บริการด้วยความจริงใจต่อลูกค้า \nทำให้พรานนกการเบาะอยู่มาจนถึงปัจจุบันนี้\n",
        "id": "572956036138591",
        "location": {
            "city": "Bangkok",
            "country": "Thailand",
            "latitude": 13.77803,
            "longitude": 100.4854,
            "street": "727/1 ถนนพรานนก แขวง บ้านช่างหล่อ เขตบางกอกน้อย กทม.",
            "zip": "10700"
        },
        "name": "ซ่อมเบาะรถยนต์ \"พรานนกการเบาะ\"",
        "phone": "024122636"
    },
    {
        "id": "1129837883710612",
        "location": {
            "city": "Chon Buri",
            "country": "Thailand"
        },
        "name": "ร้านซ้อมเบาะ รถยนต์"
    },
    {
        "about": "รับซ่อมเครื่อง,ช่วงล่าง,เคาะ,ปะ,ผุ,ทำสี\nซื้อ-ขายรถยนต์มือสองสภาพดี",
        "id": "588885167877749",
        "location": {
            "city": "Ubon Ratchathani",
            "country": "Thailand",
            "latitude": 15.36575,
            "longitude": 104.89258,
            "street": "167 ม.1 ต.กระโสบ อ.เมือง จ.อุบลราชธานี 34000",
            "zip": "34000"
        },
        "name": "อู่อัญชลีรับซ่อมเครื่อง-ช่วงล่าง ซื้อ-ขายรถยนต์มือสอง",
        "phone": "0939479998"
    },
    {
        "about": "Ts Auto จำหน่ายและซ่อม คอมแอร์รถยนต์ ไดชาร์ท ไดสตาร์ท",
        "emails": [
            "tsauto162@gmail.com"
        ],
        "id": "483187068393293",
        "location": {
            "city": "นนทบุรี",
            "street": "29/162 หมู่2   ตำบล ตลาดขวัญ อำเภอ เมือง  จังหวัด นนทบุรี",
            "zip": "11000"
        },
        "name": "Ts Auto จำหน่ายและซ่อม คอมแอร์รถยนต์ ไดชาร์ท ไดสตาร์ท",
        "phone": "0818152063"
    },
    {
        "about": "รับซ่อมกล่องโดยเฉพาะ",
        "id": "381738188605211",
        "location": {
            "city": "Bangkok",
            "country": "Thailand",
            "latitude": 13.86226,
            "longitude": 100.37279,
            "street": "35/13 ม.2 ถ.บางกรวย-ไทรน้อย ต.บางเลน อ.บางใหญ่",
            "zip": "11140"
        },
        "name": "รับซ่อมกล่อง ECU รถยนต์และเรือนไมค์",
        "phone": "0897681894"
    },
    {
        "id": "807129082734626",
        "name": "อู่ซ่อมรถยนต์วิทยาไดนาโมแอร์ - ไทรโยคน้อย กาญจนบุรี"
    },
    {
        "about": "รับซ่อมรถยนต์อีซูซุนอกสถานที่ จากช่างผู้เชี่ยวชาญกว่า 20 ปี ",
        "id": "241359472662889",
        "location": {
            "city": "Thiyala",
            "country": "Thailand",
            "latitude": 7.0637,
            "longitude": 100.20237,
            "street": "อ.รัตภูมิ",
            "zip": "90180"
        },
        "name": "รับซ่อมรถยนต์อีซูซุ นอกสถานที่และวันอาทิตย์ เขต อ.รัตภูมิ จ.สงขลา",
        "phone": "0831910671"
    },
    {
        "about": "รับซ่อมกล่อง ecu รถยนต์ / ecu รถติดแก๊ส \nทุกยี่ห้อ ทั่วประเทศ โทร 080-234-1100 (ช่างสนั่น)",
        "id": "407542159397120",
        "location": {
            "city": "Bangkok",
            "country": "Thailand",
            "latitude": 13.787803220932,
            "longitude": 100.42663022232,
            "street": "ปากซอยทุ่งมังกร 7 ถ.พุทธมณฑลสาย 1 แขวงฉิมพลี เขตตลิ่งชัน กรุงเทพมหานคร",
            "zip": "10170"
        },
        "name": "รับซ่อมกล่อง ecu รถยนต์ / ecu รถติดแก๊ส ทุกยี่ห้อ ทั่วประเทศ",
        "phone": "0802341100"
    },
    {
        "about": "ซ่อมรถเบรครครัชช่วงล่างติดตั้งแก็สLPG",
        "id": "629457383828149",
        "location": {
            "city": "Bankok",
            "country": "Thailand",
            "latitude": 13.85247,
            "longitude": 100.73933,
            "street": "40/8 ถนนหทัยราษฎร์ มีนบุรี กทม",
            "zip": "10510"
        },
        "name": "อู่ฟอร์ดซ่อมรถยนต์ติดตั้งแก็ส LPG .NGV",
        "phone": "0818139749"
    },
    {
        "about": "KP 2008 Service บริการซ่อมรถยนต์ ยุโรป-ญี่ปุ่น",
        "id": "600930573371787",
        "location": {
            "city": "Bangkok",
            "country": "Thailand",
            "latitude": 13.774,
            "longitude": 100.65728,
            "street": "รามอินทรา38",
            "zip": "10240"
        },
        "name": "KP 2008 Service ซ่อมรถยนต์",
        "phone": "081-3104682"
    }
]