[
    {
        "about": "ของเดิมเป็นระบบสายแพร์มันชอบขาด...แต่เราเปลี่ยนใหม่แบบไม่ใช้สายแพร์อีกและมันก็ไม่ขาดอีก",
        "id": "166257103555856",
        "location": {
            "city": "Bangkok",
            "country": "Thailand",
            "latitude": 14.93783,
            "longitude": 102.10076,
            "street": "ต.ในเมือง จ.นครราชสีมา30000",
            "zip": "30000"
        },
        "name": "รับซ่อมสายแพร์แตรรถยนต์ทุกรุ่น",
        "phone": "0934895414"
    },
    {
        "about": "บริการเคาะพ่นสีรถยนต์ทุกประเภท \nซ่อมรถตามใบเคลมประกันภัย พ่นกันสนิม \nติดต่อโทร 081-8174404 02-8748054",
        "id": "739717082719196",
        "location": {
            "city": "Bangkok",
            "country": "Thailand",
            "latitude": 13.657420237096,
            "longitude": 100.48532037163,
            "street": "เลขที่ 2 ซ.พุทธบูชา39แยก5 ถ.พุทธบูชา แขวงบางมด  เขตทุ่งครุ",
            "zip": "10140"
        },
        "name": "อู่เส็ง39 พ่นสี เคาะปะผุ ดามคัสซี ซ่อมตัวถังรถยนต์ทุกยี่ห้อ",
        "phone": "081-8174404 "
    },
    {
        "about": "บริการล้างแอร์รถยนต์500บาท-ซ่อมแอร์รถยนต์ทุกรุ่นทุกยี่ห้อติดตั้งแอร์ตู้หลังทุกรุ่น",
        "emails": [
            "alohana94@gmail.com"
        ],
        "id": "210764289100504",
        "location": {
            "city": "Bangkok",
            "country": "Thailand",
            "latitude": 13.7093801,
            "longitude": 100.6293411,
            "street": "อ่อนนุช44(พี่งมี 50/35)",
            "zip": "10250"
        },
        "name": "ล้างแอร์รถยนต์ไม่ต้องถอดตู้แอร์500บาท-ซ่อมแอร์รถยนต์ทุกรุ่น",
        "phone": "0928866621"
    },
    {
        "id": "1426162810930273",
        "location": {
            "city": "Nakhon Ratchasima",
            "country": "Thailand",
            "street": "สามชัยการไฟฟ้า 367/1 ม.1 อ.พระทองคำ",
            "zip": "30220"
        },
        "name": "ล้างแอร์รถยนต์ ถอดตู้ล้าง ซ่อมแอร์  โคราช",
        "phone": "0848698532"
    },
    {
        "about": "บริการซ่อมเครื่องยนต์ช่วงล่าง ช่วงบน เปลี่ยนถ่ายน้ำมันเครื่อง เคาะ พ่นสี ",
        "emails": [
            "mee_1971@hotmail.com"
        ],
        "id": "1683588205201915",
        "location": {
            "city": "Thalang",
            "country": "Thailand",
            "latitude": 8.0011196966667,
            "longitude": 98.31199454,
            "street": "13/96 ม.4 ซ.ป่าสัก4 ต.เชิงทะเล อ.ถลาง จ.ภูเก็ต",
            "zip": "83110"
        },
        "name": "อู่คิวออโต้ บริการซ่อมรถยนต์ เคาะ พ่นสี",
        "phone": "0898750045"
    },
    {
        "about": "รับซ่อมกล่องควบคุมรถยนต์ แผงควบคุมแอร์รถยนต์ ทุกรุ่น ",
        "id": "824988524285943",
        "location": {
            "city": "Nakhon Nayok",
            "country": "Thailand",
            "street": "นครนายก",
            "zip": "26130"
        },
        "name": "รับซ่อมกล่องควบคุมรถยนต์ทุกรุ่น แผงควบคุมแอร์รถยนต์ทุกรุ่น"
    },
    {
        "about": "ทุกปัญหาเรื่องรถ เรามีคำตอบ 086-546-5452 ช่างยุ้ย ครับ",
        "description": "อู่บริการเปลี่ยนถ่ายน้ำมันเครื่อง เกียร์ เบรค ครัช ช่วงล่าง เครื่องยนต์ แรคพวงมาลัย โช๊ค สายพาย หัวเทียน แปลงระบบเบรค อัพเกรด โมดิฟลาย ฯลฯ พร้อมติดตามทำประวัติการซ่อมเพื่อการวินิจฉัยที่ถูกต้อง แม่นยำ จากประสบการณ์ทำอู่แท๊กซี่กว่า40ปี ",
        "id": "313423158806973",
        "location": {
            "city": "Bankok",
            "country": "Thailand",
            "latitude": 13.54714,
            "longitude": 100.27434,
            "street": "ซอยวินา พุทธมลฑลสาย5 ต.อ้อมน้อย อ.กระทุ่มแบน",
            "zip": "74310"
        },
        "name": "ยนต์นำชัยซ่อมแท๊กซี่และรถยนต์ทั่วไป",
        "phone": "0865465452"
    },
    {
        "about": "ศูนย์บริการซ่อมกระจกรถยนต์มาตรฐาน น้ำยาแท้ มีประกัน บริการถึงบ้านคุณ โทร.089-9592006",
        "id": "170433673296043",
        "location": {
            "city": "Bangkok",
            "country": "Thailand",
            "latitude": 13.8030796,
            "longitude": 100.8133087,
            "street": "456",
            "zip": "10250"
        },
        "name": "บริการซ่อมกระจกรถยนต์ถึงบ้านคุณ Mr.MassGlass Delivery",
        "phone": "0899592006"
    },
    {
        "about": "ซ่อมรถยนต์นอกสถานที่24ชม.ชลบุรีกทมทั่วไทย",
        "id": "1663814330498849",
        "name": "Car Helper/ซ่อมรถยนต์นอกสถานที่ 24 ชม."
    },
    {
        "about": "รับซ่อมเทอร์โบ ไดสตาร์ท รถยนต์",
        "id": "453851621446152",
        "location": {
            "city": "Bangkok",
            "country": "Thailand",
            "latitude": 13.8054895,
            "longitude": 100.8110199,
            "street": "กรุงเทพมหานคร"
        },
        "name": "รับซ่อมเทอร์โบ ไดสตาร์ท รถยนต์",
        "phone": "0834763279"
    },
    {
        "about": "รวมข้อมูล เกี่ยวกับรถยนต์ รถมอไซค์ เครื่องเสียง ซื้อ ขาย เช่า แต่งรถ ดูแล ซ่อม ในระยอง",
        "description": "เน้นเรื่องรถ! โดยเฉพาะ ติดตามข้อมูลกด like ไว้นะคะ ขอบคุณคะ #เป็นการรวมกลุ่มธุรกิจของไทยระยองที่ให้บริการซ่อม ดูแล รถ แต่งรถ คะ https://www.facebook.com/Car.Rayong",
        "id": "1451524561830067",
        "name": "รถยนต์ รถมอไซค์ เครื่องเสียง ซื้อ ขาย เช่า แต่งรถ ดูแล ซ่อม ระยอง"
    },
    {
        "id": "114699685339565",
        "location": {
            "city": "Samut Sakhon",
            "country": "Thailand",
            "latitude": 13.6241999,
            "longitude": 100.3136368,
            "street": "39/1 หมู่ 6 ต.คลองมะเดื่อ",
            "zip": "74110"
        },
        "name": "K.P.N. Service Car(อู่ซ่อมรถยนต์)",
        "phone": "034-448067"
    },
    {
        "about": "ซ่อมกล่องecu ทุกยี่ห้อรถยนต์ .เดินสายไฟ และแก้ปัญหาแก็สรถยนต์ทุกชนิด",
        "id": "156031741255504",
        "location": {
            "city": "Bangkok",
            "country": "Thailand",
            "street": "56/92 ถนน กรุงเทพรีฑา แขวง สะพานสูง เขตสะพานสูง",
            "zip": "10250"
        },
        "name": "รับซ่อมกล่องecu และเดินสายไฟรถยนต์",
        "phone": "085-9979059"
    },
    {
        "about": "ศูนย์บริการซ่อมรถยนต์ครบวงจร ด้วยระบบสีแห้งช้า 2K จากเยอรมัน โดยช่างผู้ชำนาญงาน",
        "description": "บริษัท ช.โชคชัย กรุ๊บ จำกัด ศูนย์บริการซ่อมรถยนต์ครบวงจร ด้วยระบบสีแห้งช้า 2K จากเยอรมัน โดยช่างผู้ชำนาญงาน งานหนัก งานเบา เราซ่อมได้ คุณภาพเหนือชั้น",
        "id": "863178003736381",
        "location": {
            "city": "เมือง",
            "street": "6 ถ.นวเขตใต้ ต.พระประโทน",
            "zip": "73000"
        },
        "name": "ช.โชคชัย กรุ๊บ จำกัด ศูนย์ซ่อมรถยนต์",
        "phone": "คุณต่าย  086-7766611 คุณอาร์ท  091-4147575 คุณอ้น  087-7222266"
    },
    {
        "about": "0866843625  นครชัยศรี  นครปฐม",
        "id": "359492024193983",
        "location": {
            "city": "Amphoe Nakhon Chai Si",
            "country": "Thailand",
            "street": "44/67  หมู่ 4  ตำบล ท่าตำหนัก",
            "zip": "73120"
        },
        "name": "ชัชชัยไฟฟ้ารถยนต์ซ่อมใดนาโมเดินระบบไฟฟ้ากล่องคลื่องยนต์"
    },
    {
        "id": "1490260531207518",
        "name": "รับซ่อมเครื่ิองยนต์เบนซิน ขายอะไหล่รถยนต์มือสองราคาถูก"
    },
    {
        "about": "อู่สมศักดิ์",
        "description": "บริการ \n- ทำสีระบบแห้งช้า 2K เต็มระบบ ห้องพ่น-อบ สีพร้อมทั้งระบบควบคุมอากาศมาตรฐาน\n1.\tเคลือบแล็คเกอร์ เงาพิเศษ\n2.\tขัดเคลือบสีรถยนต์ทุกชนิด ลบรอยขีดข่วน,รอยขนแมว\n3.\tพ่นสีกันสนิม\n- ซ่อมเคาะ ปะ ผุ ตัวถังรถยนต์ทุกชนิด\n1.\tแปลงโฉมรถยนต์\n2.\tตีโป่งซุ้มล้อ\n3.\tติดตั้งหลังคาซันรูฟ(Sunroof)รถญี่ปุ่น-ยุโรปทุกรุ่น\n4.\tPre Order อะไหล่แท้ อะไหล่เก่า รถยนต์ทุกรุ่น\n5.\tรับติดตั้งอุปกรณ์ตกแต่งทุกชนิด\n- ซ่อมเครื่องรถยนต์ทุกชนิด\n\nรับซ่อมรถยนต์ของทุกบริษัทประกันภัย\nและเป็นอู่คู่สัญญาในเครือของ \nบมจ.ไทยเศรษฐกิจประกันภัย\nบมจ.ฟินิกซ์ประกันภัย(ประเทศไทย)\nบจก.เอเชียประกันภัย 1950\n\nบริการงานคุณภาพ-รับประกันงานสี \nด้วยทีมช่างชำนาญงาน มีประสบการณ์\nยินดีให้คำปรึกษา-ประเมินราคาก่อนเข้ารับบริการ\n",
        "emails": [
            "somsakgarage@gmail.com"
        ],
        "id": "162239000591213",
        "location": {
            "city": "Bangkok",
            "country": "Thailand",
            "latitude": 13.35643873625,
            "longitude": 101.01579838103,
            "zip": "10210"
        },
        "name": "อู่สมศักดิ์ บริการ ทำสี ซ่อมเคาะ ปะ ผุ ตัวถังรถยนต์ทุกชนิด",
        "phone": "02-5038669,084-024-7282"
    },
    {
        "id": "1509271829287059",
        "name": "รับซ่อม-ขายไฟหน้าและกระจกมองข้างรถยนต์"
    },
    {
        "emails": [
            "papsi_cream@hotmail.com"
        ],
        "id": "695030633949352",
        "location": {
            "city": "Bangkok",
            "country": "Thailand",
            "latitude": 13.89633,
            "longitude": 100.63934,
            "street": "339/22  Rd. สายไหม ซ.33/1 เขตสายไหม  กทม.",
            "zip": "10220"
        },
        "name": "บริการซ่อมกระจกรถยนต์แตก โดนหิน ขัดคราบน้ำ ขัดไฟหน้ารถมัว",
        "phone": "0814339165"
    },
    {
        "about": "รับซ่อมเรือนไมล์รถยนต์ทุกชนิด ทุกยี่ห้อ",
        "id": "265000817000092",
        "location": {
            "city": "Bangkok",
            "country": "Thailand",
            "latitude": 13.85247,
            "longitude": 100.73933,
            "street": "บ้านเลขที่ 72/168 ม.ประภาวรรณโฮม1 กรุงเทพฯ เขตมีนบุรี แขวงแสนแสบ",
            "zip": "10510"
        },
        "name": "รับซ่อมเรือนไมล์รถยนต์ ทุกชนิด",
        "phone": "0858203355"
    },
    {
        "id": "398879526964904",
        "location": {
            "city": "Bangkok",
            "country": "Thailand",
            "latitude": 13.7522,
            "longitude": 100.494,
            "street": "ซอยรามคำแหง51 ถนนรามคำแหง แขวงหัวหมาก เขตบางกะปิ กทม",
            "zip": "10240"
        },
        "name": "บริการซ่อม ล้าง จำหน่ายอะไหล่แอร์รถยนต์ทุกยี่ห้อ",
        "phone": "0928683614"
    },
    {
        "about": "ซ่อมรถยนต์ ซ่อมเครื่องยนต์ ซ่อมวาล์ว และติดตั้งแก๊สรถยนต์ LPG / CNG ซ่อมรถติดแก๊ส ตรวจเช็คระยะ",
        "description": "Bullbuck.Co.th\nให้บริการติดตั้งแก๊สรถยนต์ ซ่อมรถยนต์ ซ่อมเครื่องยนต์ ตรวจเช็คระบบการทำงานของแก๊ส เช็คแก๊สรั่ว แก้ไขเปลี่ยนอุปกรณ์แก๊ส เช่น กรองเปียก กรองแห้ง หัวฉีดแก๊ส เปลี่ยนหม้อลดแรงดันแก๊ส และอื่นๆ\n\nตรวจสภาพการใช้งานแก๊สทั้ง LPG และ CNG  ปรัปจูนแก๊ส  ถอด และติดตั้งชุดแก๊ส\n\nซ่อมรถยนต์ เครื่องยนต์ ช่วงล่าง เบรก ครัชท์ โช้ค เปลี่ยนถ่ายน้ำมันเครื่อง น้ำมันเกียร์  น้ำมันเบรก เปลี่ยนถ่ายน้ำมันเฟืองท้ายและ เปลี่ยนถ่ายน้ำมันครัชท์  น้ำมันพาวเวอร์  ตรวจเช็คการทำงาน ของเครื่องยนต์ในระบบน้ำมัน\n\nเปลี่ยนถ่ายน้ำมันเครื่อง / กรองน้ำมันเครื่อง /กรองอากาศ   ตรวจเช็คระยะฟรี 17 รายการ ตรวจเช็ค ซ่อมช่วงล่าง เบรค ครัชท์  ซ่อมเครื่องยนต์ ครวจเช็ค ปรับตั้ง ระยะวาวล์  รับวางเครื่องยนต์\n\nเวลาทำงาน จันทร์ - เสาร์   08.30น - 17.30น\n\nหยุดวันอาทิตย์\nIG:bullbuck_autogas",
        "emails": [
            "ongreen@ongreen.co.th"
        ],
        "id": "405139852882656",
        "location": {
            "city": "Bangkok",
            "country": "Thailand",
            "latitude": 13.798914815,
            "longitude": 100.713708595,
            "zip": "10510"
        },
        "name": "ศูนย์บริการรถยนต์ บูลบัค ซ่อมเครื่องยนต์ วาล์ว และติดตั้งแก๊สรถยนต์",
        "phone": "081-910-8212, 094-978-0555, 02-518-2764-5, IG:bullbuck_autogas, Line:bullbuck"
    },
    {
        "id": "311720638893301",
        "location": {
            "city": "Lampang",
            "country": "Thailand",
            "latitude": 18.219724,
            "longitude": 99.424262
        },
        "name": "@ เกาะคา มาซ้อมรถยนต์"
    },
    {
        "about": "ศูนย์ซ่อมตัวถังรถยนต์ พร้อมบริการ เคาะ และ พ่นสี",
        "description": "ศูนย์ซ่อมตัวถังรถยนต์ -พ่นสี 2 K \nบริการ เคาะ พ่นสีรถยนต์ \nโดยช่างผู้ชำนาญ และ อุปกรณ์ที่ทันสมัย\nจึงทำให้มีบริการที่รวดเร็ว\nอีกทั้งได้รับบความไว้วางใจ \nโดยการเป็นอู่หลัก \nจากบริษัทประกันภัยกว่า 4 แห่ง ได้แก่\n\n-ทิพย์ประกันภัย(มีบริการเปิดเคลมฟรีที่อู่ และ รถใช้ระหว่างซ่อม)\n-นำสินประกันภัย\n-ไทยศรีประกันภัย\n-แอลเอมจีประกันภัย\n\nสนใจติดต่อได้ที่ \nTel :02-318-6310 , 02-719-4275\nLine ID: pongchai2015\nFB: อู่พงษ์ชัยเซอร์วิส ศูนย์บริการ ซ่อมเคาะ-พ่นสี ตัวถังรถยนต์ สาขารามคำแหง\n\nพร้อมให้บริการตั้งแต่\nจัน - เสา   เวลา 08.00 - 18.00 \n",
        "emails": [
            "pongchai_service@hotmail.com"
        ],
        "id": "880760985322397",
        "location": {
            "city": "Bangkok",
            "country": "Thailand",
            "latitude": 13.744637635872,
            "longitude": 100.60699939728,
            "street": "เลขที่ 27 ซ. รามคำแหง 4 ถ.รามคำแหง แขวนสวนหลวง เขตสวนหลวง",
            "zip": "10250"
        },
        "name": "อู่พงษ์ชัยเซอร์วิส ศูนย์บริการ ซ่อมเคาะ-พ่นสี ตัวถังรถยนต์ สาขารามคำแหง",
        "phone": "023186310 Line ID: pongchai2015"
    },
    {
        "id": "1451140698534294",
        "location": {
            "city": "Bangkok",
            "country": "Thailand",
            "latitude": 13.7522,
            "longitude": 100.494,
            "street": "306 ซ.ลาดพร้าววังหิน 22 ถนนลาดพร้าววังหิน แขวงลาดพร้าว เขตลาดพร้าว"
        },
        "name": "สยามคี ซ่อมกลอนประตูรถยนต์",
        "phone": "029316967"
    }
]