[
    {
        "about": "รับติดตั้ง ซ่อม ล้าง ระบบแอร์รถยนต์",
        "id": "1596459877290244",
        "location": {
            "city": "Si Sa Ket",
            "country": "Thailand",
            "latitude": 15.1109028,
            "longitude": 104.3341858,
            "street": "1575/2",
            "zip": "33000"
        },
        "name": "ราเชนทร์ ติดตั้ง ซ่อม ล้าง ระบบแอร์รถยนต์",
        "phone": "0850977197"
    },
    {
        "about": "รับ แก้ ปัญหา เลขไมล์  ปรับ แต่ง เลขไมล์ ดิจิตอล เชียงใหม่ ",
        "id": "1620464348225548",
        "location": {
            "city": "Chiang Mai",
            "country": "Thailand",
            "latitude": 18.7788715,
            "longitude": 98.9850922,
            "street": "ซ.3 วัวลาย",
            "zip": "50100"
        },
        "name": "แก้ ปัญหา เลขไมล์ ดิจิตอล ซ่อมไมล์ รถยนต์ เชียงใหม่",
        "phone": "0817166862"
    },
    {
        "about": "ซ่อมแอร์รถยนต์ ไดนาโม ระบบไฟรถยนต์ ตรวจเช็ค เปลี่ยนถ่ายน้ำมันเครื่อง เกียร์ เฟืองท้าย ",
        "description": "ซ่อมแอร์รถยนต์ ไดนาโม ระบบไฟรถยนต์งานซ่อม อิเล็คทรอนิกส์ ตู้เย็น เครื่องซักผ้า ตรวจเช็ค เปลี่ยนถ่ายน้ำมันเครื่อง เกียร์ เฟืองท้าย จำหน่ายอะไหล่แอร์รถยนต์ ไดนาโม ปลีกส่ง มีบริการจัดส่งทั่วประเทศ",
        "id": "620102448067919",
        "location": {
            "city": "สูงเนิน",
            "street": "นครราชสีมา",
            "zip": "30380"
        },
        "name": "ซ่อมแอร์รถยนต์ ล้างแอร์ โคราช",
        "phone": "0869959229"
    },
    {
        "about": "เคาะพ่นสีรถยนต์ ดามคัสซี ครบวงจรงานสีและตัวถังรถยนต์",
        "id": "466171943551976",
        "location": {
            "city": "Mae Hong Son",
            "country": "Thailand",
            "street": "ุุุุ66ม.8ต.ปางหมู อ.เมืองแม่ฮ่องสอน",
            "zip": "58000"
        },
        "name": "อู่ช่างแซม แม่ฮ่องสอน บริการซ่อมสีและตัวถังรถยนต์",
        "phone": "0848094168"
    },
    {
        "id": "1119406698087071",
        "location": {
            "city": "Rayong",
            "country": "Thailand"
        },
        "name": "อู่ซ่อมรถยนต์ช่วงล่างซ่อมลูกหมากโช๊คอับ"
    },
    {
        "about": "รับซอมไฟฟ้าในรถยนต์ไดชาร์จไดสตาร์ทและเครื่องใช้ไฟฟ้าทุกชนิด",
        "id": "924657810903957",
        "name": "ร้านรับทรัพย์ไดนาโม รับซ่อมระบบไฟฟ้าในรถยนต์และอะไหล่ไดชาร์จไดสตาร์ททุกรุ่น",
        "phone": "0882488299"
    },
    {
        "id": "489641347866426",
        "location": {
            "city": "Pathum Thani",
            "country": "Thailand",
            "latitude": 13.9658298,
            "longitude": 100.5340881,
            "street": "58/6 ม.3 หมู่บ้านทรัพย์กานดา อ.เมือง จ.ปทุมธานี",
            "zip": "12000"
        },
        "name": "นามเเอร์ บริการซ่อมเเอร์รถยนต์ทุกรุ่น",
        "phone": "0832853415"
    },
    {
        "about": "ร้านเครื่องเสียงประดับยนต์ในจังหวัดชัยภูมิ รับซ่อมกระจกรอยแตกร้าว สนใจติดต่อสอบถามได้",
        "description": "ร้านเครื่องเสียง ประดับยนต์ มีบริการซ่อมกระจกรอยแตกร้าว ฟิล์มติดรถยนต์ ",
        "id": "630236387050464",
        "location": {
            "city": "Chaiyapoom",
            "country": "Thailand",
            "latitude": 15.95068,
            "longitude": 102.00325,
            "street": "428 หมู่ 8 ต.หนองนาแซง อ.เมือง",
            "zip": "36000"
        },
        "name": "ร้านภูออดิโอ รับซ่อมรอยแตกร้าวกระจกรถยนต์",
        "phone": "044-051787 หรือ 0803342769"
    },
    {
        "id": "1529216207368781",
        "name": "ช่างซ่อมรถยนต์ เครื่องยนต์ เกียร์ ออโต้ ญี่ปุ่น ยุโรป"
    },
    {
        "id": "1494899934166065",
        "location": {
            "city": "Kathu",
            "country": "Thailand",
            "latitude": 7.91667,
            "longitude": 98.3333
        },
        "name": "อนุภาษ ศูนย์ซ่อมรถยนต์"
    },
    {
        "about": "รับซ่อมรอยแตกกระจกรถยนต์  vs รับนอกสถานที่",
        "id": "1464920877109425",
        "location": {
            "city": "Bankhen",
            "country": "Thailand",
            "latitude": 13.93149,
            "longitude": 100.39004,
            "street": "ถนน 345 บางบัวทอง",
            "zip": "11110"
        },
        "name": "ซ่อมรอยแตกกระจกรถยนต์ vs เซอร์วิช",
        "phone": "0823679959"
    },
    {
        "id": "422865387909246",
        "name": "เจ้าของอู่ซ่อมรถยนต์ยุโรป"
    },
    {
        "id": "370505909808361",
        "name": "Sc เฟอร์นิเจอร์ รับสั่งทำและซ่อมเฟอร์นิเจอร์ ซ่ิอมเบาะรถยนต์ รถเครื่อง ฯลฯ"
    },
    {
        "id": "791201140977142",
        "name": "เครื่องมือช่าง และอุปกรณ์ซ่อมบำรุงรถยนต์ ครบวงจร"
    },
    {
        "about": "วงจรไฟฟ้ารถยนต์",
        "id": "389303194562457",
        "name": "คู่มือการซ่อมรถยนต์"
    },
    {
        "about": "รับซ่อมแก๊สรถยนต์ ทุกรุ่น แก้ปัญหา ดูแลรักษาอุปกรณ์ต่างๆ",
        "id": "114913452188344",
        "location": {
            "city": "Nonthaburi",
            "country": "Thailand",
            "latitude": 13.8700933,
            "longitude": 100.5095749,
            "street": "ถ.รัตนาธิบเศร์",
            "zip": "11000"
        },
        "name": "รับตรวจเช็คตั้งวาวล์ แก้ไขอาการวาวล์ยัน ติดตั้งปรับจูนซ่อมแก๊สรถยนต์ทุกรุ่น",
        "phone": "0929124915"
    },
    {
        "id": "448172555349897",
        "name": "รับซ่อมถุงลมนิรภัย รับซ่อมฝาถุงลมนิรภัย และจำหน่ายอะไหล่รถยนต์ทุกชนิด"
    },
    {
        "id": "702514493195704",
        "name": "ซ่อมรอยบุบ รอยลักยิ้ม บนตัวถังรถยนต์ โดยไม่ต้องทำสี"
    },
    {
        "about": "บริการซ่อม เครื่องยนต์ ",
        "description": "ช่วงล่าง คลัทช์ เบรก แอร์ รถยนต์ เปลี่ยนถ่ายน้ำมันเครื่อง ... ศูนย์บริการ รถยนต์ ครบวงจร บริการตรวจเช็ค ซ่อม ช่วงล่าง จำหน่าย เปลี่ยนยาง อะไหล่ ",
        "id": "163506830402830",
        "name": "Carly  ศูนย์ซ่อมรถยนต์"
    },
    {
        "id": "524883730859305",
        "location": {
            "city": "Chonburi",
            "country": "Thailand",
            "street": "อัคนิวาต",
            "zip": "20000"
        },
        "name": "เจ้าของกิจการอู่ซ่อมรถยนต์ ฤทธิ์เซอร์วิส",
        "phone": "089-7529075"
    },
    {
        "id": "454262537938266",
        "name": "ซ่อมเครื่องยนต์ พ่นสีรถยนต์"
    },
    {
        "id": "1447176578929076",
        "name": "ซ่อมเซ็นทรัลล๊อค - ประตูรถยนต์ \u0026 ขัดไฟหน้ารถ Crv2002"
    },
    {
        "id": "247842091913177",
        "name": "เจ้าของอู่ซ่อมรถยนต์"
    },
    {
        "about": "By มิสเตอร์แมสกลาส ซ่อมกระจกรถยนต์มาตรฐาน น้ำยาแท้ มีประกัน บริการถึงบ้านคุณ",
        "id": "120876004933280",
        "location": {
            "city": "Bangkok",
            "country": "Thailand",
            "latitude": 13.8030796,
            "longitude": 100.8133087,
            "street": "456",
            "zip": "10250"
        },
        "name": "ซ่อมกระจกรถยนต์Delivery-Mr.MassGlass Delivery",
        "phone": "0899592006"
    },
    {
        "about": "บริการซ่อมรถยนต์นอกสถานที่ กรุงเทพและปริมณฑล",
        "id": "346749378820613",
        "name": "บริการซ่อมรถยนต์ถึงบ้าน/Mobile Car Services - กรุงเทพ-ปริมณฑล"
    }
]