[
    {
        "id": "1597559473811572",
        "location": {
            "city": "Bangkok",
            "country": "Thailand",
            "latitude": 13.8357083,
            "longitude": 100.49817
        },
        "name": "ห้องซ่อมประกอบคอมฯ 2301 การแข่งขันการติดตั้งโปรแกรมควบคุมเครื่องคอมพิวเตอร์"
    },
    {
        "id": "1596837613936087",
        "location": {
            "city": "Min Buri",
            "country": "Thailand",
            "latitude": 13.811824885957,
            "longitude": 100.72317492217
        },
        "name": "ร้านศูนย์คอมพิวเตอร์มีนบุรี ร้านซ่อมคอม ที่มีช่างหน้าตาดีสุด ในย่านมีนบุรี"
    },
    {
        "id": "1506175879624255",
        "location": {
            "city": "Hat Yai",
            "country": "Thailand",
            "latitude": 6.9898238,
            "longitude": 100.4814015
        },
        "name": "ร้าน Ncs Namcomservice Shop บริการซ่อมมือถือ ซ่อมคอมพิวเตอร์"
    },
    {
        "id": "1855552181337036",
        "location": {
            "city": "Bangkok",
            "country": "Thailand",
            "latitude": 13.872675180416,
            "longitude": 100.52120155446
        },
        "name": "ร้านซ่อมคอมพิวเตอร์ ซอยทานสัมฤทธิ์",
        "phone": "0838544312"
    },
    {
        "about": "ให้บริการซ่อมคอมพิวเตอร์และอื่นๆที่เกี่ยวกับคอมพิวเตอร์",
        "id": "1653793851557858",
        "location": {
            "city": "Maha Sarakham",
            "country": "Thailand",
            "latitude": 16.1833,
            "longitude": 103.3,
            "street": "โรงเรียนท่าขอนยางพิทยาคม",
            "zip": "44150"
        },
        "name": "ซ่อมคอมพิวเตอร์และอื่นๆ",
        "phone": "0932132813"
    },
    {
        "about": "ซ่อม-จำหน่าย คอมพิวเตอร์  Wifi Hotspot  CCTV อ.เอราวัณ",
        "description": "ซ่อม-จำหน่าย คอมพิวเตอร์ โน๊ตบุค มือหนึ่ง มือสอง และอุปกรณ์ต่อพ่วง ออกแบบวางระบบเครือข่าย Wifi Hotspot กล้องวงจรปิด CCTV",
        "emails": [
            "erawan.itservice@gmail.com"
        ],
        "general_info": "ซ่อม-จำหน่าย คอมพิวเตอร์ โน๊ตบุค มือหนึ่ง มือสอง และอุปกรณ์ต่อพ่วง ออกแบบวางระบบเครือข่าย Wifi Hotspot กล้องวงจรปิด CCTV ",
        "id": "1635563646660898",
        "location": {
            "city": "Loey",
            "country": "Thailand",
            "latitude": 17.4833,
            "longitude": 101.717,
            "street": "ตรงข้ามตลาดสดเอราวัณ อ.เอราวัณ",
            "zip": "42220"
        },
        "name": "ซ่อมคอมพิวเตอร์ อ.เอราวัณ",
        "phone": "0868899836"
    },
    {
        "id": "1502112773369461",
        "location": {
            "latitude": 18.1618199,
            "longitude": 97.9225132
        },
        "name": "ร้านlucky รับซ่อมคอมพิวเตอร์"
    },
    {
        "id": "1631816267030653",
        "location": {
            "city": "Hat Yai",
            "country": "Thailand",
            "latitude": 7.0279854,
            "longitude": 100.4748791
        },
        "name": "หลังวัดเกาะเสือ ตรงข้ามโรงกลึงช่างหมี ข้างๆ ร้านซ่อมคอมพิวเตอร์และร้านส้มตำ"
    },
    {
        "description": "ร้าน King Shop\nรับซ่อม โทรศัพท์มือถือ แท็บเล็ต\nคอมพิวเตอร์ โน๊ตบุ๊ค ทุกรุ่น ยี่ห้อ ทุกอาการ\nรับติดตั้ง / แก้ไข / จัดสเป็ค ระบบร้านเน็ตเกม และ ระบบเน็ตเวิร์คองค์กรต่างๆ\nพร้อมทั้งรับซ่อม เครื่องขยายเสียงกลางแจ้ง และ อุปกรณ์อิเล็กทรอนิกส์\nในราคาเป็นกันเอง ครับ",
        "id": "1630216537245569",
        "location": {
            "city": "Chaiyaphun",
            "country": "Thailand",
            "latitude": 16.085114538355,
            "longitude": 102.26898193359,
            "street": "อ.แก้งคร้อ",
            "zip": "36150"
        },
        "name": "ซ่อมมือถือ คอมพิวเตอร์",
        "phone": "062-1509903"
    },
    {
        "id": "1619811504916495",
        "location": {
            "city": "Nakhon Ratchasima",
            "country": "Thailand",
            "latitude": 14.98878965,
            "longitude": 102.11231475
        },
        "name": "ร้านบีคอมพิวเตอร์ รับซ่อมโน๊ตบุค",
        "phone": "0844723235"
    },
    {
        "id": "1619300738329789",
        "location": {
            "city": "Rasi Salai",
            "country": "Thailand",
            "latitude": 15.34196158,
            "longitude": 104.15196535,
            "street": "257/7-8 borihan road",
            "zip": "33160"
        },
        "name": "ร้านปัญญาสเตชั่น-ขายซ่อมสมาร์ทโฟน คอมพิวเตอร์ ปริ๊นเตอร์"
    },
    {
        "id": "1004289896266721",
        "location": {
            "latitude": 8.7733486,
            "longitude": 99.3144495
        },
        "name": "บีบีซีเอสเซอร์วิส จำหน่ายซ่อมคอมพิวเตอร์ ถ่ายภาพเวดดิ้งและvdoภาพมุมสูงโดรน"
    },
    {
        "id": "1374742066168925",
        "location": {
            "city": "Muang Lopburi",
            "country": "Thailand",
            "latitude": 14.79772505127,
            "longitude": 100.62847215682
        },
        "name": "Com-Easy ร้านซ่อมคอมพิวเตอร์",
        "phone": "0802748904"
    },
    {
        "id": "936622989690924",
        "location": {
            "city": "Chom Thong",
            "country": "Thailand",
            "latitude": 18.425416666667,
            "longitude": 98.67578
        },
        "name": "ร้านซ่อมคอมพิวเตอร์ข้างหอประชุม หมู่ 6 ข่วงเปา จ๋อมตอง"
    },
    {
        "id": "917583434927538",
        "location": {
            "city": "Nakhon Si Thammarat",
            "country": "Thailand",
            "latitude": 8.4328964330282,
            "longitude": 99.962613499038
        },
        "name": "ร้านซ่อมคอมพิวเตอร์ สี่แยกตลาดแขก"
    },
    {
        "id": "957386947656287",
        "location": {
            "city": "Mukdahan",
            "country": "Thailand",
            "street": "231/3  บ้านโนนตูม   ต.ผึ่งแดด",
            "zip": "49000"
        },
        "name": "ซ่อมคอมพิวเตอร์  ปริ้นเตอร์  ติดตั้งระบบทุกชนิด",
        "phone": "0940619083"
    },
    {
        "id": "1048911191793805",
        "location": {
            "city": "Maha Sarakham",
            "country": "Thailand",
            "latitude": 16.1833,
            "longitude": 103.3,
            "street": "โรงเรียนท่าขอนยางพิทยาคม",
            "zip": "44000"
        },
        "name": "ซ่อมคอมพิวเตอร์น้ะแ",
        "phone": "0930712366"
    },
    {
        "id": "1411142285803973",
        "location": {
            "city": "Surat Thani",
            "country": "Thailand",
            "latitude": 9.0781143848197,
            "longitude": 99.350896318784
        },
        "name": "A.S.It ซ่อม-จำหน่ายคอมพิวเตอร์"
    },
    {
        "id": "1394863520775239",
        "location": {
            "city": "Wichian Buri",
            "country": "Thailand",
            "latitude": 15.65659,
            "longitude": 101.10614,
            "street": "หน้าตลาดพุเตย อ.วิเชียรบุรี จ.เพชรบูรณ์"
        },
        "name": "หมูหมูit (จำหน่าย-บริการซ่อมมือถือ,คอมพิวเตอร์",
        "phone": "0912598789"
    },
    {
        "id": "1379633085645027",
        "location": {
            "city": "Si Racha",
            "country": "Thailand",
            "latitude": 13.17479,
            "longitude": 100.93091,
            "street": "ร้านซ่อมคอมพิวเตอร์"
        },
        "name": "ร้าน Ic Notebook"
    },
    {
        "id": "1119216284771663",
        "location": {
            "city": "Nakhon Chai Si",
            "country": "Thailand",
            "latitude": 13.802701737745,
            "longitude": 100.18392015258
        },
        "name": "Ic-คอมพิวเตอร์ เซอร์วิส ซ่อม-จำหน่ายคอมพิวเตอร์ ปริ้นเตอร์ และอุปกรณ์."
    },
    {
        "id": "1107364555945620",
        "location": {
            "city": "Changwat Rayong",
            "country": "Thailand",
            "latitude": 12.685446739197,
            "longitude": 101.26990509033
        },
        "name": "Pkcom บริการซ่อมคอมพิวเตอร์"
    },
    {
        "id": "1416760668554067",
        "location": {
            "city": "Nakhon Si Thammarat",
            "country": "Thailand",
            "latitude": 8.4522668398095,
            "longitude": 99.961226339232,
            "zip": "80000"
        },
        "name": "ศูนย์ซ่อมคอมพิวเตอร์ วิทยาลัยเทคนิคนครศรีธรรมราช"
    },
    {
        "id": "999633280051133",
        "location": {
            "city": "Bangkok",
            "country": "Thailand",
            "latitude": 13.747574231318,
            "longitude": 100.46711951494
        },
        "name": "ร้านน้ำขิงรับซ่อมคอมพิวเตอร์"
    },
    {
        "description": "รับซ่อมคอมพิวเตอร์ทุกอาการเสีย สนใจติดต่อ Tel. 090-149-4139",
        "id": "998276803520114",
        "location": {
            "latitude": 18.091736,
            "longitude": 101.124467
        },
        "name": "Math Computer ร้านซ่อมคอมพิวเตอร์ บ้านม่วงเจ็ดต้น"
    }
]