[
    {
        "id": "1033663026645680",
        "location": {
            "city": "Si Sa Ket",
            "country": "Thailand",
            "latitude": 15.1195698,
            "longitude": 104.3275299,
            "street": "14/5 หมู่ 3 ตำบลสิ อำเภอขุนหาญ",
            "zip": "33150"
        },
        "name": "จิงกะปูไอที อู่ซ่อมโน๊ตบุ๊ค คอมพิวเตอร์ ปริ้นเตอร์ มือถือ",
        "phone": "0856566624"
    },
    {
        "about": "เพจนี้ตั้งขึ้นเพื่่อซื้อขายอุปกรณ์ it computer มือ 1 และ มือ 2 ",
        "id": "476444232510207",
        "location": {
            "city": "Chiang Mai",
            "country": "Thailand",
            "latitude": 18.74274125,
            "longitude": 98.982798655,
            "street": "Chiang Mai",
            "zip": "50000"
        },
        "name": "It \u0026 Com By Markito รับซ่อมและจัดจำหน่าย คอมพิวเตอร์และสินค้าไอที",
        "phone": "0804939718"
    },
    {
        "about": "จำหน่าย ซ่อม ประกอบ อัพเกรด บริการเป็นกันเอง",
        "id": "307641672734512",
        "location": {
            "city": "Bangkok",
            "country": "Thailand",
            "latitude": 13.6183,
            "longitude": 100.61105,
            "street": "อิมพีเรียลเวิลด์สำโรง B007 ต.สำโรงเหนือ อ.เมือง จ.สมุทรปราการ",
            "zip": "10270"
        },
        "name": "โป่ง คอมพิวเตอร์ จำหน่ายอุปกรณ์คอมฯลฯ อัพเกรด ซ่อม 095-8408858",
        "phone": "0845375488"
    },
    {
        "id": "140179532852000",
        "name": "พันธ์ทิพย์คอมพิวเตอร์ ศูนย์ซ่อมโน๊ตบุ๊คคนอุบล"
    },
    {
        "about": "เอกอิเล็คทรอนิคส์และคอมพิวเตอร์ รับซ่อมเครื่องใช้ไฟฟ้า เครื่องใช้สำนักงาน\nโทร.02-920-3285, 081-550-1368",
        "description": "รับซ่อม /เหมาซ่อม เครื่องใช้ไฟฟ้า เครื่องใช้สำนักงาน ซ่อมคอมพิวเตอร์ ทุกปัญหา \nทุกอาการ รับแก้ปัญหาทั้ง Hardware และ Software\nMonitor,LCD TV,Plasma,Mainboard,Notebook,Printer,Microwave,FAX,DVD\nอะไหล่แท้จากบริษัท ราคามิตรภาพ รับประกันทุกชิ้นงาน .โดย.ทีมช่างจากบริษัทนำเข้า ประสบการณ์มากกว่า 15 ปี\nมาร่วมกันลดขยะมลพิษ ลดการสิ้นเปลืองทรัพยากรธรรมชาติ ที่ทำให้เกิดภาวะโลกร้อน ด้วยการนำกลับมาใช้ไหม่",
        "id": "167688103289775",
        "location": {
            "city": "อ.บางบัวทอง จ.นนทบุรี",
            "street": "127/145 ถ.บางกรวย-ไทรน้อย ซ.ถนนเทศบาล7 ต.โสนลอย",
            "zip": "11110"
        },
        "name": "รับซ่อมทีวี จอLCD คอมพิวเตอร์ แฟกซ์ ปริ้นเตอร์ นนทบุรี",
        "phone": "029203285,  0815501368"
    },
    {
        "about": "ซ่อมคอมพิวเตอร์ และโทรศัพท์",
        "id": "479000032253640",
        "name": "รับซ่อมคอมพิวเตอร์ แก้ไอคราวไอโฟนอัพเครื่องลงโปรแกรม"
    },
    {
        "description": "รับติดตั้งระบบเนตเวิร์ค, กล้องวง\nจรปิด, รับซ่อมคอมพิวเตอร์ และอัพเกรดเครื่อง โดยช่างผู้ชำนาญการ รับประกันความพึงพอใจ ในราคาเป็นกันเอง\nID Line: oaaamd \ne-mail: oa_1888@hotmail.com",
        "emails": [
            "oa_1888@hotmail.com"
        ],
        "general_info": "รับติดตั้งระบบเนตเวิร์ค, \nกล้องวงจรปิด, รับซ่อมคอมพิวเตอร์ และอัพเกรดเครื่อง โดยช่างผู้ชำนาญการ รับประกันความพึงพอใจ ในราคาเป็นกันเอง\nID Line: oaaamd",
        "id": "1598540270411151",
        "location": {
            "city": "Amphoe Thap Put",
            "country": "Thailand",
            "latitude": 8.51667,
            "longitude": 98.6333,
            "street": "30/11 ตำบลทับปุด",
            "zip": "82180"
        },
        "name": "โฮม คอมพิวเตอร์ ติดตั้งระบบ network กล้องวงจรปิด รับซ่อมคอม พังงา",
        "phone": "0866841577"
    },
    {
        "about": "ซ่อมคอมพิวเตอร์\nเปลี่ยนแบตไอโฟน ทุกรุ่น",
        "emails": [
            "donnapich@gmail.com"
        ],
        "id": "497117113776791",
        "name": "บริการรับซ่อมประกอบคอมพิวเตอร์และเปลี่ยนแบตไอโฟน",
        "phone": "083-4191441"
    },
    {
        "about": "ซ่อมและขายอุปกรณ์เครื่องใช้สำนักงานทุกชนิด",
        "description": "จำหน่ายเครื่องถ่ายเอกสารยี่ห้อ SHARP ทุกรุ่นราคาพิเศษพร้อมบริการหลังการขายฟรี\nซ่อมและขายเครื่องถ่ายเอกสาร , คอมพิวเตอร์ ,เครื่องแฟกซ์ ,เครื่องปริ้นเตอร์ , ระบบกล้องวงจรปิด\nระบบตู้สาขาโทรศัพท์ , เครื่องคิดเลข , นาฬิกาตอกบัตร , ผ้าหมึกปริ้นเตอร์ , ผ้าหมึกพิมพ์ดีด , ผงหมึกเครื่องถ่ายเอกสาร\nเทปลบพิมพ์ดี\nทุกรุ่น ทุกยี่ห้อ ในราคาพิเศษทั้งเงินสดและผ่อน บริการซ่อมด่วนถึงสถานที่ และหากจำเป็นต้องนำเครื่องเข้าซ่อมที่บริษัท\nมีเครื่องสำรองให้ใช้แทน ",
        "id": "340576699436985",
        "location": {
            "city": "นนทบุรี",
            "street": "95/6 ถ.รัตนาธิเบศร์ บางรักน้อย",
            "zip": "11000"
        },
        "name": "ศรีภัณฑ์ โอเอ รับซ่อมและขายเครื่องถ่ายเอกสาร,คอมพิวเตอร์,แฟกซ์,ปริ้นเตอร์",
        "phone": "029440020-1"
    },
    {
        "about": "ศูนย์บริการซ่อม \nเปิดทำการ วันจันทร์ - วันเสาร์\nเวลาทำการ 8:00น. - 18:00น.",
        "id": "345988192255636",
        "location": {
            "city": "เมืองตาก",
            "street": "6/33-34 ต.ระแหง ถ.พหลโยธิน",
            "zip": "63000"
        },
        "name": "ศูนย์บริการซ่อม ร้านตากคอมพิวเตอร์"
    },
    {
        "about": "บริการซ่อม Computer ถึงบ้าน\nLine: machigan",
        "id": "735133376571833",
        "name": "Machigan Computer Services ซ่อมคอมพิวเตอร์ถึงบ้าน 24 ชั่วโมง"
    },
    {
        "about": "เพจเกี่ยวกับการเรียนเรื่องการศึกษาวงจรและซ่อมบำรุงไมโครคอมพิวเตอร์",
        "id": "336545769822958",
        "location": {
            "city": "สกลนคร",
            "zip": "47220"
        },
        "name": "การศึกษาวงจรและซ่อมบำรุงไมโครคอมพิวเตอร์",
        "phone": "\u003c\u003cnot-applicable\u003e\u003e"
    },
    {
        "about": "รับซ่อมคอมพิวเตอร์ รับซ่อมปริ้นเตอร์ และอุปกรณ์ต่อพ่วงต่างๆ ",
        "id": "717608761609661",
        "location": {
            "city": "Mae Hong Son",
            "country": "Thailand",
            "latitude": 19.2667,
            "longitude": 97.9333,
            "zip": "58000"
        },
        "name": "รับซ่อมคอมพิวเตอร์ และอุปกรณ์ต่อพ่วงต่างๆ นอกสถานที่ ราคากันเอง",
        "phone": "0882368733"
    },
    {
        "id": "1619969111549981",
        "location": {
            "city": "Surat Thani",
            "country": "Thailand",
            "latitude": 9.09542,
            "longitude": 99.3073,
            "street": "สุราษ",
            "zip": "84000"
        },
        "name": "รับซ่อมคอมพิวเตอร์ ในตัวเมืองสุราษ บริการถึงที่ ค่าบริการถูก",
        "phone": "0903198050 line id gobzasderza12"
    },
    {
        "id": "1440114866290189",
        "location": {
            "city": "Amphoe Chom Phra",
            "country": "Thailand",
            "latitude": 15.1147,
            "longitude": 103.614,
            "street": "356 ม.4  ตำบลจอมพระ อำเภอจอมพระ จังหวัดสุรินทร์ 32180",
            "zip": "32180"
        },
        "name": "ร้านชัยรัตน์โมบาย จำหน่ายและซ้อม อุปกรณ์โทรศัพท์ อุปกรณ์คอมพิวเตอร์",
        "phone": "0818796373"
    },
    {
        "id": "181290838548596",
        "name": "ช่างซ่อมบำรุงคอมพิวเตอร์"
    },
    {
        "about": "ติดต่องานบริการ \nTel.09-9004-5574 ช่างพัท\nทุกวันทำการ",
        "description": "รับบริการซ่อมถึงบ้านราคากันเอง รับซ่อมคอมพิวเตอร์ ปริ้นเตอร์ทุกชนิด ซ่อมหรือติดตั้งระบบwifi ระบบnetwork ระบบCCTVกล้องวงจรปิด และระบบไฟฟ้าในบ้านในอาคารสำนักงาน ระบบน้ำและปั้มน้ำและอื่นๆ",
        "id": "1554341428152563",
        "name": "รับซ่อมคอมพิวเตอร์ถึงบ้าน ระบบไฟฟ้าทุกชนิด ในเขตหัวหิน"
    },
    {
        "about": "จำหน่าย คอมพิวเตอร์ มือสอง ",
        "description": "ร้านตั้งอยู่ 1/2 ถ.ราษฎร์อุทิศ อ.อรัญประเทศ จ.สระแก้ว โทร.089-6797968 เยื้องโรงเจอรัญ",
        "id": "573616656038640",
        "name": "MP.Computer aran  ศูนย์ซ่อม จำหน่าย คอมพิวเตอร์ทุกชนิด"
    },
    {
        "about": "บริการซ่อมคอมพิวเตอร์และโน๊ตบุค ",
        "emails": [
            "servicemoi@hotmail.com"
        ],
        "id": "552522068220229",
        "location": {
            "city": "อ.เมือง  จ.สงขลา",
            "street": "20/2  ถนนชลเจริญ ต.บ่อยาง",
            "zip": "90000"
        },
        "name": "รับซ่อมติดตั้งและลงโปแกรมคอมพิวเตอร์และโน๊ตบุค",
        "phone": "0894974929"
    },
    {
        "id": "894255200659978",
        "location": {
            "city": "Samut Prakan",
            "country": "Thailand",
            "latitude": 13.6,
            "longitude": 100.6,
            "street": "คลองด่าน",
            "zip": "10550"
        },
        "name": "รับ  ปรึกษา คอมพิวเตอร์    ซ่อมคอม พิวเตอร์ ลงโปรแกรม",
        "phone": "0851346880"
    },
    {
        "about": "รับซ่อมคอมพิวเตอร์นอกสถานที่ ปราจีนบุรี\nซ่อมคอมที่บ้าน ปราจีน",
        "id": "324464304375785",
        "location": {
            "city": "Prachin",
            "country": "Thailand",
            "street": "35/1",
            "zip": "25000"
        },
        "name": "รับซ่อมคอมพิวเตอร์นอกสถานที่ ปราจีนบุรี",
        "phone": "0874818494"
    },
    {
        "about": "รับลงวินโดว์ หนองคาย รับซ่อมคอมพิวเตอร์ทุกอาการ",
        "description": "รับลงวินโดว์ หนองคาย รับซ่อมคอมพิวเตอร์ทุกอาการ ลง Windows XP , 7 , 8 ,8.1 , 10 และรับลงโปรแกรมต่างๆ และเกมส์ต่างๆ ราคาถูก ภายในจังหวัดหนองคาย บริการลงวินโดว์นอกสถานที่ภายในจังหวัดหนองคาย อ.เมือง",
        "id": "723998141053365",
        "name": "รับลงวินโดว์ หนองคาย รับซ่อมคอมพิวเตอร์ทุกอาการ"
    },
    {
        "about": "บริการรับซ่อมคอมพิวเตอร์ โน๊ตบุ๊ค ลงโปรแกรมต่างๆ มีบริการซ่อมถึงที่",
        "id": "1565622497012758",
        "location": {
            "city": "ชัยภูมิ",
            "zip": "36000"
        },
        "name": "บริการปรึกษาปัญหาคอมพิวเตอร์ฟรี รับซ่อมคอมพิวเตอร์ ในเมืองชัยภูมิ",
        "phone": "0864707890"
    },
    {
        "about": "รับซ่อม คอมพิวเตอร์ ลงโปรแกรม ถึงที่ ในเขตชลบุรี บางแสน\nสนใจติดต่อ 083-5857787",
        "id": "1511428709133690",
        "location": {
            "city": "Chonburi",
            "country": "Thailand",
            "latitude": 13.36899,
            "longitude": 100.9957,
            "street": "99/37 ม 5 ต.บ้านสวน อ.เมือง",
            "zip": "20000"
        },
        "name": "K P Computer รับซ่อมคอมพิวเตอร์ ปริ๊นเตอร์",
        "phone": "0835857787"
    },
    {
        "id": "1462446300696000",
        "name": "วุฒิ service บางปู รับซ่อมคอมพิวเตอร์ ในและนอกสถานที่ โทรศัพย์0900254665"
    }
]