[
    {
        "id": "558408254236770",
        "location": {
            "city": "Mae Suai",
            "country": "Thailand",
            "latitude": 19.7212,
            "longitude": 99.45284,
            "street": "122/1 หมู่ 5 ต.แม่สรวย",
            "zip": "57180"
        },
        "name": "MK2U ซ่อมคอมพิวเตอร์ ปริ้นเตอร์ นำเข้ามือถือจากจีน สั่งของ By Oder อื่นฯ",
        "phone": "0811634141"
    },
    {
        "about": "รับซ่อมคอมพิวเตอร์ ทั้ง PC CP ลงโปรแกรมต่างๆ ลงเกมส์ ออนไลน์ ออฟไลน์  ",
        "id": "843320692352018",
        "name": "ซ่อมคอมพิวเตอร์"
    },
    {
        "about": "รับซ่อมคอม สั่งประกอบคอม แก้ปัญหาต่างๆ",
        "id": "1418892465050748",
        "location": {
            "city": "Chachoengsao",
            "country": "Thailand",
            "latitude": 13.74257,
            "longitude": 101.02953,
            "street": "4/182 ต.บางขวัญ อ.เมือง จ.ฉะเชิงเทรา",
            "zip": "24000"
        },
        "name": "รับซ่อมคอม รับสั่งประกอบคอมพิวเตอร์",
        "phone": "088-843-1187 แป๊ะ 088-183-8100 แม็ก"
    },
    {
        "about": "รับ ซ่อมคอมพิวเตอร์ และโน๊ตบุ๊ค สอบถาม ปัญหา คอมพิวเตอร์",
        "id": "873495909338318",
        "location": {
            "street": "104 หมู่5 ต.ห้วยกรดพัฒนา อ.สรรคบุรี จ.ชัยนาท",
            "zip": "17140"
        },
        "name": "รับซ่อม คอมพิวเตอร์ โน๊ตบุ๊ค",
        "phone": "0826638574-0999752587 อุ้ม"
    },
    {
        "about": "สนใจติดต่อ0959862483",
        "id": "303503176330669",
        "name": "บริการซ่อมคอมพิวเตอร์ นอก-ใน พื้นที่ บริการเริ่มต้น300บาท"
    },
    {
        "about": "รับซ่อมคอมพิวเตอร์  โดยช่างแบงค์",
        "id": "663267893765707",
        "name": "รับซ่อมคอมพิวเตอร์โดยช่างวุฒิศักดิ์-แบงค์",
        "phone": "0828097713"
    },
    {
        "about": "คอมพิวเตอร์",
        "id": "678067008976867",
        "location": {
            "city": "Nakhon Sawan",
            "country": "Thailand",
            "latitude": 15.7052069,
            "longitude": 100.1289444,
            "street": "นครสวรรค์",
            "zip": "6000"
        },
        "name": "ศูนย์บริการซ่อมคอมพิวเตอร์และปริ้นเตอร์",
        "phone": " 056-334070"
    },
    {
        "id": "437843329713858",
        "name": "Newรับซ่อมคอมพิวเตอร์\u0026ลงโปรแกรม.ซ่อมเครื่องใช้ไฟฟ้า"
    },
    {
        "id": "1019447041410071",
        "name": "รับบริการซ่อม ลงเกมส์ ลงโปรแกรมคอมพิวเตอร์ ผ่านทางออนไลน์"
    },
    {
        "id": "217715458336748",
        "name": "จะซื้อหรือซ่อมต้องไบออสคอมพิวเตอร์ 075-631815 ต่อ101-104  และ.08-17374277"
    },
    {
        "about": "บริการซ่อมคอมพิวเตอร์",
        "id": "716465301715407",
        "name": "Computer Service บริการซ่อมคอมพิวเตอร์ นอกสถานที่"
    },
    {
        "about": "ร้านซ่อมคอมพิวเตอร์ที่ดีที่สุดในอำเภอ แม่วาง จังหวัดเชียงใหม่",
        "emails": [
            "jedicomputer266@gmail.com"
        ],
        "id": "714490858582578",
        "location": {
            "city": "Chiang Mai",
            "country": "Thailand",
            "street": "266 ม.5  ต.บ้านกาด",
            "zip": "50360"
        },
        "name": "ร้านซ่อมคอมพิวเตอร์ ซ่อมแท็บเล็ต สมาท์โฟน จำหน่ายอะไหล่ทุกชนิด",
        "phone": "0835158657"
    },
    {
        "about": "รับซ่อมคอมพิวเตอร์ PC/Notebook อัพเกรด จัดสเปค ประกอบคอม โทร 086-3614900",
        "description": "รับซ่อมคอมพิวเตอร์ PC/Notebook อัพเกรด จัดสเปค ประกอบคอมมือ1มือ2 \nล้างเครื่อง กำจัดไวรัส ลงวินโด้ \nติดตั้งโปรแกรม โทร 086-3614900",
        "id": "802684836419462",
        "name": "54inter JP รับซ่อมคอมพิวเตอร์"
    },
    {
        "about": "ไอ.ซี.คอมเซอร์วิส บริการซ่อมคอมพิวเตอร์ ปริ้นเตอร์  ปริ้นงาน ถ่ายเอกสาร",
        "emails": [
            "soodlaunong@gmail.com"
        ],
        "id": "309992842542014",
        "location": {
            "city": "พะเยา",
            "street": "91/6 หอพักจันทร์ทิมา (ซอยข้างโลตัสหน้าม.พะเยา)",
            "zip": "56000"
        },
        "name": "ไอ.ซี.คอมเซอร์วิส บริการซ่อมคอมพิวเตอร์ ปริ้นเตอร์ ปริ้นงาน ถ่ายเอกสาร",
        "phone": "085-7175377"
    },
    {
        "about": "ซ่อมคอมพิวเตอร์",
        "id": "146791012173427",
        "location": {
            "city": "Ban Sawaeng Ha",
            "country": "Thailand",
            "latitude": 14.74999870309,
            "longitude": 100.333,
            "street": "35 หมู่ 1",
            "zip": "14150"
        },
        "name": "ร้าน ปาร์ค-คอม ซ่อมคอมพิวเตอร์ อำเภอแสวงหา",
        "phone": "085-048-5990"
    },
    {
        "about": "เอ็นเอคอมฯรับซ่อมคอมพิวเตอร์ นอกสถานที่บริการซ่อมถึงบ้าน ใน นครสวรรค์\n",
        "description": "รับซ่อมคอมพิวเตอร์ \u0026 โน๊ตบุ๊ค\nลงโปรแกรม (ราคาเริ่มต้นที่ 99 บาท)\nอัพเกรดคอมพิวเตอร์\nรับสั่งประกอบคอมพิวเตอร์ (ตามงบประมาณที่ต้องการ)\nแก้ไขอาการ เครื่องอืด, ช้า, เปิดไม่ติด, เครื่องติดไวรัส บู๊ตไม่ขึ้น\nรับวางระบบ LAN  หอพัก,บ้าน ฯลฯ\n****มีประกันหลังการซ่อมทุกอาการ****\nบริการซ่อมนอกสถานที่ โทร 083-4120935\n",
        "emails": [
            "n.a.com_service@hotmail.com"
        ],
        "id": "393512117451309",
        "location": {
            "city": "Nakhon Sawan",
            "country": "Thailand",
            "latitude": 15.7133,
            "longitude": 100.135,
            "zip": "60000"
        },
        "name": "เอ็นเอคอมฯรับซ่อมคอมพิวเตอร์ นอกสถานที่บริการซ่อมถึงบ้าน ใน นครสวรรค์",
        "phone": "0834120935"
    },
    {
        "about": "รับซ่อมคอมพิวเตอร์ PC , Notebook , โทรศัพท์มือถือ และ แท็บเลต \n- ลง Windows โปรแกรมต่างๆ\n- อัพเกรด เพิ่ม RAM",
        "description": "- รับซ่อมคอมพิวเตอร์ PC ,Notebook ทุกรุ่น\n- อัพเดรด RAM , ลง windows โปรแกรมต่างๆ\n- ต่อประกัน Notebook Dell\n- รับซ่อมโทรศัพท์มือถือและแท็บเลต\nตอนนี้ยังไม่มีหน้าร้านนะครับ สนใจติดต่อได้ที่\nหลุยส์ 087-7252574 / เอ 087-5666059\nในเมืองเชียงใหม่ ยินดีรับเครื่อง-ส่งเครื่อง ฟรีครับ ไม่มีบวกค่าเดินทางเพิ่ม....รับประกันหลังส่งซ่อมทุกเครื่อง",
        "id": "1487994544852535",
        "location": {
            "city": "Chiang Mai",
            "country": "Thailand"
        },
        "name": "รับซ่อมคอมพิวเตอร์และมือถือทุกรุ่น",
        "phone": "08-7725-2574 (หลุยส์) / 08-7566-6059 (เอ)"
    },
    {
        "id": "158933134267870",
        "location": {
            "city": "Lahan Sai",
            "country": "Thailand",
            "latitude": 14.34451,
            "longitude": 102.89304,
            "street": "290 หมู่ 11 บ้านผไทรวมพล ต.หนองแวง",
            "zip": "31170"
        },
        "name": "รับซ่อมคอมพิวเตอร์ ปริ๊นเตอร์ ระบบ Network  ติดตั้งกล้องวงจรปิด จานดาวเทียม",
        "phone": "0808068067"
    },
    {
        "about": "แอดไวซ์อ่าวนาง  ศูนย์จำหน่าย ซ่อม คอมพิวเตอร์ เท็บเล็ตสมาร์สโฟน",
        "emails": [
            "info@computer2care.com"
        ],
        "id": "262032057331210",
        "location": {
            "city": "Amphoe Muang Krabi",
            "country": "Thailand",
            "latitude": 8.0396768722504,
            "longitude": 98.835286909771,
            "street": "238 M002, Ao Nang krabi",
            "zip": "81000"
        },
        "name": "ศูนย์จำหน่าย ซ่อม คอมพิวเตอร์ เท็บเล็ตสมาร์สโฟน โดยวิศวกรมืออาชีพ",
        "phone": "075810262"
    },
    {
        "id": "240201382747903",
        "name": "ซ่อมคอมพิวเตอร์ PC Notebook  CCTV DRV"
    },
    {
        "about": "รับงานนอกสถานที่ ราคาถูก",
        "id": "876729925732333",
        "location": {
            "city": "Phetchabun",
            "country": "Thailand",
            "latitude": 16.4252701,
            "longitude": 101.1285172,
            "street": "เพชรบูรณ์",
            "zip": "67300"
        },
        "name": "รับซ่อมคอมพิวเตอร์ ปริ้นเตอร์ เครื่องใช้ไฟฟ้า",
        "phone": "093-0399-350"
    },
    {
        "about": "ซ่อมคอมพิวเตอร์  สร้างเว็บไซต์ ซ่อมและติดตั้งแอร์",
        "id": "1177793615580549",
        "location": {
            "city": "Kanthararom",
            "country": "Thailand",
            "latitude": 15.1,
            "longitude": 104.583,
            "street": "บ้านละทาย",
            "zip": "33130"
        },
        "name": "บริการซ่อมคอมพิวเตอร์ทั้งในและนอกสถานที่",
        "phone": "0616921631"
    },
    {
        "about": "รับซ่อมคอมพิวเตอร์ ลงโปรแกรม ประกอบคอมฯ",
        "description": "รับซ่อมคอมพิวเตอร์ ลงโปรแกรม MacBook iMac ประกอบคอมฯตามสเปกที่คุณต้องการ คุณภาพระดับร้านคอม บริการถูกใจ ราคาถูกจิง",
        "id": "138284463009138",
        "location": {
            "city": "Surat Thani",
            "country": "Thailand",
            "street": "200/48 ซอยครูวิรัช ถนนหน้าตลาด ต.ตลาด อ.เมือง จ.สุราษฎร์ธานี",
            "zip": "84000"
        },
        "name": "ซ่อมประกอบคอมพิวเตอร์",
        "phone": "082-2821640"
    },
    {
        "about": "รับซ่อมคอม สฎ.",
        "id": "298704503648648",
        "location": {
            "city": "สุราษฎร์ธานี",
            "street": "บ้านดอน",
            "zip": "84000"
        },
        "name": "รับซ่อมคอมพิวเตอร์ในจังหวัดสุราษฏร์ธานี",
        "phone": "0873575977"
    },
    {
        "about": "สร้างเพจนี้ขึ้นมาเพื่อนความสุข ของคนเล่นเครื่องคอมพิวเตอร์\n\n",
        "id": "1447149838927329",
        "location": {
            "city": "กำเเพงเพชร",
            "street": "วิทยาลัยเกษตรกำเเพงเพชร",
            "zip": "62170"
        },
        "name": "รับซ่อมคอมพิวเตอร์ทั่วอาณาจักรกำเเพงเพชร",
        "phone": "0881715262"
    }
]