[
    {
        "description": "รับซ่อมคอม โน๊ตบุ๊ค แก้ไขปัญหาคอมพิวเตอร์ ทุกอาการ เช่น\n- เครื่องคอม แฮงค์ ค้าง , มี Error ขึ้น , การทำงานช้าผิดปกติ\n- เครื่อง computer เสีย , เปิด-ปิดเครื่องไม่ได้ ไม่ติด\n- เครื่องคอมฯ Restart เอง ,ปัญหาคอมติดไวรัส\n- โปรแกรมไม่สมบูรณ์ มีปัญหา ค้างบ่อย\n- จอคอมฯ ไม่ขึ้นภาพ\n- คอมต่ออินเตอร์เน็ตไม่ได้ , ต่อได้ แต่ Internet หลุดบ่อยๆ\n- ซ่อมประกอบคอมพิวเตอร์ PC รับประกอบเครื่องคอมพิวเตอร์ จัดสเปคคอมพิวเตอร์\n- บริการติดตั้ง ซ่อม แก้ไข ตรวจเช็ค ระบบเน็ตเวริ์ค แลน อินเตอร์เน็ท\nเครือข่ายแลนแบบไร้สาย (Wireless Lan,wifi) windows server และอื่นๆ\n- บริการ รับ ดูแลระบบคอมพิวเตอร์รายเดือน ดูแลระบบคอมพิวเตอร์รายปี\n- รับ เขียน โปรแกรม ออกแบบ เว็บไซด์ของบริษัทฯ\n- บริการด้านไอทีอื่นๆ\n\nติดต่อ บริการซ่อมคอม ถึงบ้าน\nกรุณาแจ้งอาการเสียของคอมพิวเตอร์เบื้องต้น เพื่อความสะดวก รวดเร็ว ในการรับ บริการ ซ่อมเครื่องคอมพิวเตอร์\n\nบริการวางระบบเน็ตเวิร์ค\n\nตามบ้าน\nบริษัท\nรับทำ เน็ต หอพัก\n\nระบบเน็ตเวิร์ค คือ หัวใจสำคัญของการเพิ่มประสิทธิภาพงานขององค์กร\n\n บริการวางระบบและแก้ปัญหาในระบบเน็ตเวิร์ค ทุกรูปแบบ ทุกอาการ ด้วยช่างผู้มีประสบการณ์และชำนาญงานด้านการวางระบบเน็ตเวิร์คโดยเฉพาะ\n\n    เดินสายแลน\n    Setup ระบบ และเชื่อมต่อเครือข่ายเน็ตเวิร์ค\n    Setup ระบบไร้สาย (wireless)\n    แชร์ไฟล์ แชร์ปริ๊นเตอร์\n    ติดตั้งเครื่อง Server \n    Windows, Linux ,VMWare\nพร้อมทีมที่ปรึกษาทางโทรศัพท์ และบริการแก้ปัญหาออนไลน์ผ่านโปรแกรม Remote Assistant หลังการให้บริการ ฟรี!\n\nรับประกันงานวางระบบเน็ตเวิร์ค เป็นเวลา 3 เดือน\nบริการการบำรุงดูแล และ/หรือ การรักษาซ่อมแซม พีซี และ/หรือ พริ้นเตอร์\nสัญญา รายเดือน รายปี",
        "emails": [
            "fantagreen7@gmail.com"
        ],
        "id": "349587801743772",
        "location": {
            "city": "Samutpraken, Thailand",
            "street": "199",
            "zip": "10130"
        },
        "name": "ซ่อมคอมพิวเตอร์",
        "phone": "087227282"
    },
    {
        "about": "ซ่อม ประกอบ ขาย คอมพิวเตอร์ และอุปกรณ์\nรับวางระบบ network server\nรับดูแลระบบคอมพิวเตอร์รายเดือน",
        "description": "ซ่อมคอมพิวเตอร์ ประกอบ อัพเกรด ระบบเน็ตเวิร์ค โทรหาเราได้เลยครับ\nโทร.085-976-0991 คุณบัญชา",
        "emails": [
            "bancha.bk2555@gmail.com"
        ],
        "id": "373545289386415",
        "location": {
            "city": "Bangkok",
            "country": "Thailand",
            "latitude": 13.692415767825,
            "longitude": 100.50985801914,
            "street": "864/115ซ.เจริญราษฎร์10 ถ.เจริญราษฎร์ แขวงบางโคล่ เขตบางคอแหลม กรุงเทพฯ 10120",
            "zip": "10120"
        },
        "name": "ซ่อมคอมพิวเตอร์ Bk It Solution",
        "phone": "ซ่อมคอมพิวเตอร์ ประกอบ อัพเกรด ระบบเน็ตเวิร์ค โทรหาเรา 085-976-0991 ได้เลยครับ"
    },
    {
        "about": "รับซ่อมคอมพิวเตอร์ บางมด ระแวกใกล้เคียง เจ้าของร้านทำงานประจำนะครับ ",
        "description": "รับติดตั้งกล้องวงจรปิด ในสำนักงาน นอกสำนักงาน และอื่นๆ ทั่ว กทม",
        "emails": [
            "xjapanzil@gmail.com"
        ],
        "id": "249473931862494",
        "location": {
            "city": "Bangkok",
            "country": "Thailand",
            "latitude": 13.655574920497,
            "longitude": 100.50814060593,
            "street": "ถ. ประชาอุทิศ 33",
            "zip": "10140"
        },
        "name": "ซ่อมคอมพิวเตอร์",
        "phone": "0996737549"
    },
    {
        "about": "บริการซ่อม คอมพิวเตอร์  PC โน๊ตบุ๊ค  ปริ้นเตอร์  อุปกรณ์ต้อพวงคอมฯพิวเตอร์ ทุกรุ่นทุกยี่ห้อ",
        "id": "472624459472331",
        "location": {
            "city": "Muang Buriram",
            "country": "Thailand",
            "latitude": 15.277586252978,
            "longitude": 103.00048279342,
            "street": "อ.เมือง จ.บุรีรัมย์",
            "zip": "31000"
        },
        "name": "ซ่อมคอมพิวเตอร์บุรีรัมย์",
        "phone": "0813908187"
    },
    {
        "about": "beer computer",
        "description": "รับซ่อมคอมพิวเตอร์ ทุกปัญหา ทุกอาการ \n( Hardware \u0026 Software )\n\n• เปิดเครื่องไม่ติด\n\n• เครื่องรีสตาร์ทเอง\n\n• เล่นไปสักพักเครื่องดับเอง\n\n• เครื่องคอม แฮ๊ง น๊อค อาการ จอฟ้า\n\n• เล่นเน็ทไม่ได้ เล่นเกมส์ไม่ได้ ลงโปรแกรมไม่ได้\n\n• กำจัดไวลัส ระบบคอมพิวเตอร์รวน อัพโปรแกรม pC \u0026 Notebook \u0026 NETBOOK\n\nบริการเป็นกันเอง ราคาเริ่มต้น 200 ตามอาการเสีย\n\n\nราคาค่าบริการ\n• ค่าบริการ ตรวจเช็ค แก้ไขปัญหาเบื้องต้น 200 - 300 \n• ค่าบริการ Hardware \u0026 Software 400-800 \n\n\n\nเวลาการให้บริการ\n\n-*- วันจันทร์ - อาทิตย์ 09.00 - 22.00น\n\n\nมีปัญหาอาการเดิม 1 อาทิตย์ แก้ไขฟรี\n\n\n-- ราคาดังกล่าวไม่รวมค่าอะไหล่ หากอะไหล่ภายในเสีย ถ้าอะไหล่ตัวไหนเสียจะโทรแจ้งให้ลูกค้าทราบก่อนที่จะเปลี่ยน --\n\nรายละเอียดเพิ่มเติมโทร\n\nติดต่อ : ช่าง beer\nTEL : 0894529798\nที่อยู่ : เจริญนคร เขต.คลองสาน กทม ",
        "emails": [
            "\u003c\u003cnot-applicable\u003e\u003e"
        ],
        "general_info": "รับซ่อมคอมพิวเตอร์ ทุกปัญหา ทุกอาการ ( Hardware \u0026 Software ) ",
        "id": "264018077006331",
        "location": {
            "city": "Bangkok",
            "country": "Thailand",
            "latitude": 13.7154999,
            "longitude": 100.5062485,
            "street": "Charoen nakhon23",
            "zip": "10600"
        },
        "name": "ซ่อมคอมพิวเตอร์ \u0026 IT_News",
        "phone": "0894529798 "
    },
    {
        "about": "ซ่อมคอมพิวเตอร์ วางระบบต่างๆ เป็นองกรณ์ มหาวิทยาลัย โรงเรียน และชุมชน ทั่วจังหวัด",
        "id": "350970731699591",
        "location": {
            "city": "Bangkok",
            "country": "Thailand",
            "latitude": 13.752222,
            "located_in": "153890271298444",
            "longitude": 100.493889,
            "zip": "10540"
        },
        "name": "ซ่อมคอมพิวเตอร์",
        "phone": "0804560600"
    },
    {
        "about": "บริการซ่อมคอมพิวเตอร์ นอกสถานที่",
        "emails": [
            "sjdata@sjd.co.th"
        ],
        "id": "401344123355135",
        "location": {
            "city": "Amphoe Bang Bua Thong",
            "country": "Thailand",
            "street": "91/106 ม.2 หมู่บ้าน พฤกษา14บี ต.บางคูรัด",
            "zip": "11110"
        },
        "name": "ซ่อมคอมพิวเตอร์",
        "phone": "0813986384"
    },
    {
        "id": "726766094022838",
        "location": {
            "city": "Bangkok",
            "country": "Thailand",
            "latitude": 13.60599,
            "longitude": 100.41691,
            "street": "เอกชัยคอนโดฯ2  ซ.เอกชัย32 บางขุนเทียน",
            "zip": "10150"
        },
        "name": "ซ่อมคอมพิวเตอร์ เอกชัย32",
        "phone": "0942657989,0813626861,Line Id: waipojki"
    },
    {
        "about": "บริการซ่อมคอมพิวเตอร์นอกสถานที่ ประกอบคอม อัพเกรด วางระบบ 24 ชั่วโมง",
        "description": "Larnluang computer service \u0026 distribute\nหลานหลวง คอมพิวเตอร์เซอร์วิส แอนด์ ดิสตริบบิว\nด้วยความสามารถ และ ประสบการณ์มากกว่า 6 ปี นี้คือ เป็นสิ่งที่รับประกันคุณภาพด้านการ ซ่อมคอมพิวเตอร์ และ การบริการที่คุณวางใจใช้บริการกับเรา พร้อมทั้ง ทีม งานช่างคอมมากด้วยความสามารถด้าน คอมพิวเตอร์ และ ความรู้สู่การพัฒนาคอมพิวเตอร์\nวิสัยทัศ\nเป็นผู้บริการด้านคอมพิวเตอร์ ไม่ว่าจะ ซ่อมคอมพิวเตอร์ ประกอบคอมพิวเตอร์ อัพเกรดคอมพิวเตอร์ วางระบบ\nแลน และ งานบริการที่ดีที่สุดในสายตาลูกค้า จากการยอม อย่างกว้างขวางของลูกค้าที่ใช้บริการจากเรา เช่น กทม. (กรุงเทพมหานคร , นนทบุรี)\n( โทร : 084-344-0100 ตลอด 24 ชม. )\nEmail : supachai@larnluang.com\n",
        "emails": [
            "supachai@larnluang.com"
        ],
        "id": "272205902831383",
        "location": {
            "city": "Bangkok",
            "country": "Thailand",
            "latitude": 13.7522,
            "longitude": 100.494,
            "zip": "10100"
        },
        "name": "ซ่อมคอมพิวเตอร์นอกสถานที่",
        "phone": "0843440100 (ID Line : larnluang)"
    },
    {
        "id": "822605507837071",
        "location": {
            "city": "Bangkok",
            "country": "Thailand",
            "latitude": 13.79772,
            "longitude": 100.7448273,
            "street": "บิ๊กซี ร้มเกล้า",
            "zip": "10510"
        },
        "name": "Iร้านซ่อมคอมพิวเตอร์",
        "phone": " 029194984  -0841409918"
    },
    {
        "about": " บริการซ่อมคอมพิวเตอร์ รับซื้อ/ขาย คอมพิวเตอร์  แก้ปัญหาซอฟท์แวร์/ฮาร์ดแวร์ ให้ใช้งานได้\n",
        "id": "766973690011908",
        "location": {
            "city": "Bangkok",
            "country": "Thailand",
            "latitude": 13.97531,
            "longitude": 100.65421,
            "street": "หมู่บ้านซื่่อตรง คลองสาม รังสิต-นครนายก",
            "zip": "12130"
        },
        "name": "ซ่อมคอมพิวเตอร์",
        "phone": "099-1969637"
    },
    {
        "id": "201891236613824",
        "location": {
            "city": "Bangkok",
            "country": "Thailand",
            "latitude": 13.78234,
            "longitude": 100.6687469,
            "street": "SERI THAI 41"
        },
        "name": "ร้านซ่อมคอมพิวเตอร์ เสรีไทย 41"
    },
    {
        "id": "1411275802527758",
        "location": {
            "city": "Amphoe Kantharawichai",
            "country": "Thailand",
            "latitude": 16.24614,
            "longitude": 103.2503471,
            "street": "มหาวิทยาลัยมหาสารคาม",
            "zip": "44150"
        },
        "name": "ซ่อมบำรุงคอมพิวเตอร์ มมส.",
        "phone": "2415"
    },
    {
        "about": "สนใจดูข้อมูลที่ (คลิก)",
        "id": "191793100969339",
        "location": {
            "city": "Roi-ed",
            "country": "Thailand",
            "latitude": 16.05,
            "longitude": 103.667,
            "zip": "45280"
        },
        "name": "ซ่อมคอมพิวเตอร์ โน๊ตบุ๊ค ทุกอาการ"
    },
    {
        "about": "บริการอินเตอร์เน็ต ซ่อมคอมพิวเตอร์ ปริ้นเตอร์ ขายอุปกรณ์ต่อพ่วง",
        "id": "696371870475407",
        "location": {
            "city": "Narathiwat",
            "country": "Thailand",
            "latitude": 6.4294,
            "longitude": 101.81285,
            "street": "234 มะนังตายอ",
            "zip": "96000"
        },
        "name": "ซ่อมคอมพิวเตอร์Ammar.com",
        "phone": "0840515810"
    },
    {
        "about": "รับประกันงานซ่อม ประกันอะไหล่ ราคากันเอง สอบถามราคาก่อนตัดสินใจได้ครับ 02-314-1731 ,084-978-7034",
        "description": "ซ่อมเมนบอร์ดโน๊ตบุ๊ค พีซี ปริ้นเตอร์ จอคอมพิวเตอร์ เครื่องสำรองไฟ อุปกรณ์ต่อพ่วงทุกชนิด ทุกอาการเสีย รับสั่งอะไหล่โน๊ตบุ๊คจากต่างประเทศ จำหน่ายจอโน๊ตบุ๊ค อแดปเตอร์ KEYBOARD ราคากันเอง ไม่เสียค่าเปิดเครื่อง ตรวจเช็คฟรี ประกันงานซ่อม ประกันอะไหล่ สอบถามราคาก่อนส่งซ่อมหรือเช็คราคาอะไหล่ได้ครับ\u003cงานซ่อมจะช้าหรือเร็วตามอาการที่ส่งซ่อม\u003e\n\nในเครือ note book 9 guru",
        "emails": [
            "repair99notebook@gmail.com"
        ],
        "id": "220653791370378",
        "location": {
            "city": "Bangkok",
            "country": "Thailand",
            "latitude": 13.70283,
            "longitude": 100.67317,
            "street": "850 พระราม 9 ตัดใหม่ เเขวง/เขตสวนหลวง กรุงเทพ",
            "zip": "10250"
        },
        "name": "ซ่อม คอมพิวเตอร์โน๊ตบุ๊ค จอคอมพิวเตอร์ ปริ้นเตอร์ ทุกอาการเสีย",
        "phone": "มือถือ 084-978-7034  หรือ 02-314-1731"
    },
    {
        "about": "Computer Repair Service\nSukhothai - Ban Dan Lan Hoi",
        "emails": [
            "crs_info@aol.com"
        ],
        "id": "257235271105573",
        "location": {
            "city": "Ban Dan Lan Hoi",
            "country": "Thailand"
        },
        "name": "บริการ ซ่อม คอมพิวเตอร์ Sukhothai",
        "phone": "083-953-3532"
    },
    {
        "about": "รับซ่อมคอมพิวเตอร์ นอกสถานที่ ลาดพร้าว รัชดา รามคำแหง รามอินทรา พระราม9 พัฒนาการ สุขุมวิท",
        "description": "รับซ่อมคอมพิวเตอร์ นอกสถานที่ รับซ่อมคอม ถึงบ้าน บริการซ่อมคอม รับแก้ปัญหาคอมพิวเตอร์  081-374-2808 ถึงที่บ้าน บริษัท สำนักงาน ร้าน โดย ช่างซ่อมคอม  มืออาชีพ ประสบการณ์ ซ่อมคอม มากกว่า 15 ปี\nช่างซ่อมคอมพิวเตอร์.com",
        "id": "161398914046201",
        "location": {
            "city": "Bangkok",
            "country": "Thailand",
            "latitude": 13.8030796,
            "longitude": 100.8133087,
            "street": "ร้านบริการ รับซ่อมคอมพิวเตอร์ นอกสถานที่ (Com71)",
            "zip": "10230"
        },
        "name": "รับซ่อมคอมพิวเตอร์นอกสถานที่ ลาดพร้าว รัชดา รามคำแหง พระราม9 สุขุมวิท",
        "phone": "081-374-2808"
    },
    {
        "about": "ซ่อมคอมพิวเตอร์นอกสถานที่ กระบี่",
        "emails": [
            "chelsea_rif@hotmail.com"
        ],
        "id": "609435289096158",
        "location": {
            "city": "Krabi",
            "country": "Thailand",
            "latitude": 8.0594779554472,
            "longitude": 98.913208970924,
            "street": "Bannob aoluk",
            "zip": "81110"
        },
        "name": "ซ่อมคอมพิวเตอร์ กระบี่",
        "phone": "0857893236"
    },
    {
        "about": "รับซ่ิอมคอมพิวเตอร์ ถึงบ้าน ติดตั้งกล้องวงจรปิด  แก้ไขปัญหาเทคนิคต่าง",
        "id": "1669380816682188",
        "location": {
            "city": "Thung Song",
            "country": "Thailand",
            "latitude": 8.4037142,
            "longitude": 99.9668121,
            "street": "215/1 ถ.เปรมประชา",
            "zip": "80110"
        },
        "name": "ซ่อมคอมพิวเตอร์.กล้องวงจรปิด.เซอร์วิสถึงบ้าน",
        "phone": "0624699815"
    },
    {
        "about": "รับซ่อมคอมพิวเตอร์   รับกู้ข้อมูล  HD F/D SD CARD ",
        "id": "125042827839689",
        "location": {
            "city": "Bangkok",
            "country": "Thailand",
            "latitude": 13.92377,
            "longitude": 100.6014175,
            "street": "อาคารหน้าหมู่บ้านศรีกาญจน์ ถนนสรงประภา13 เขตดอนเมือง   กรุงเทพมหานคร"
        },
        "name": "รับซ่อมคอมพิวเตอร์ ดอนเมือง",
        "phone": "0863801663"
    },
    {
        "about": "รับซ่อมคอมพิวเตอร์ ซื้อ-ขาย ทุกชนิด ราคาเป็นกันเอง",
        "id": "1472256769695455",
        "name": "ร้านซ่อมคอมพิวเตอร์"
    },
    {
        "about": "รับซ่อมคอมพิวเตอร์ ลงวินโดว์ราคากันเอง  ในเขตกรุงเทพและปริมณฑล",
        "description": "จริงใจให้บริการครับ",
        "id": "375796189231832",
        "location": {
            "city": "Bangkok",
            "country": "Thailand",
            "zip": "10900"
        },
        "name": "ซ่อมคอมพิวเตอร์ ลงวินโดว์ นอกสถานที่",
        "phone": "097-424-1965"
    },
    {
        "about": "รับซ่อมคอมพิมเตอร์  PC, NB  อัพเกรด จำหน่อยอุปกรณ์คอมพิมเตอร์      ",
        "id": "589733927743838",
        "location": {
            "city": "จ.นครปฐม",
            "street": "91/28 ม.7 ต.สามพราน อ.สามพราน",
            "zip": "73110"
        },
        "name": "ศูนย์ซ่อมคอมพิวเตอร์ - สาขาสามพราน",
        "phone": "034 - 100467"
    },
    {
        "about": "รับซ่อมคอมพิวเตอร์ จำหน่ายคอมพิวเตอร์ ในจังหวัด ภูเก็ต",
        "id": "288792114511540",
        "name": "ซ่อมคอมพิวเตอร์นอกสถานที่ ในจังหวัดภูเก็ต 089-4695424"
    }
]