[
    {
        "about": "ซ่อมคอมพิวเตอร์ Pc/Notebook\n\n",
        "description": "•*´¨`*•.¸ซ่อมคอมพิวเตอร์ Pc/Notebook ¸.•*´¨`*•.¸\n\nจำหน่ายอุปกรณ์คอมพิวเตอร์ใหม่-มือสอง\n\nรับวางระบบ Network , Lan\n\nรับประกอบ-อัพเกรดคอมพิวเตอร์ตามสเป็ค\n\nตรวจเช็คอาการก่อนซ่อม..( ฟรี )\n\n░ บริการซ่อมนอกสถานที่ ░ ",
        "emails": [
            "humbaa007@hotmail.com"
        ],
        "id": "665612690189039",
        "location": {
            "city": "Samut Sakhon",
            "country": "Thailand",
            "latitude": 13.70035,
            "longitude": 100.30529,
            "street": "97 หมู่6 ต.อ้อมน้อย อ.กระทุ่มเเบน จ.สมุทรสาคร",
            "zip": "74130"
        },
        "name": "ร้านซ่อมคอมพิวเตอร์ Basiccom",
        "phone": "0914286557"
    },
    {
        "about": "ซ่อมคอมพิวเตอร์ ปริ้นเตอร์ ติดตั้งกล้องวงจรปิด จำหน่ายสินค้าไอที ราคากันเอง",
        "description": "ซ่อมคอมพิวเตอร์ ปริ้นเตอร์ โน๊ตบุ๊ค ติดตั้งกล้องวงจรปิด จำหน่ายสินค้าไอที ราคากันเอง ",
        "emails": [
            "hj.computech2014@gmail.com"
        ],
        "id": "1384983675074119",
        "location": {
            "city": "Bangkok",
            "country": "Thailand",
            "latitude": 16.10452,
            "longitude": 103.3107,
            "street": "มหาสารคาม",
            "zip": "44000"
        },
        "name": "เค.ซี.เซอร์วิส ซ่อมคอมพิวเตอร์",
        "phone": "0880680478"
    },
    {
        "id": "1486066601680524",
        "name": "ซ่อมคอมพิวเตอร์"
    },
    {
        "about": "บริการ ซ่อมคอมพิวเตอร์ และอุปกรณ์ต่อพวง สมาร์ทโฟนและแท็บเล็ต",
        "emails": [
            "thaiadvertisingmedia@gmail.com"
        ],
        "id": "1582251112042339",
        "name": "รับซ่อมคอมพิวเตอร์"
    },
    {
        "about": "เกมส์ PC อะไหร่คอมพิวเตอร์ Notebook หนัง อื่นๆอีกมากมาย",
        "description": "K\u0026J comservice \n\nรับซ่อมอัพเกรตคอมพิวเตอร์ Notebook Pc ทุกรุ่น ทุกยี่ห้อ\n\nรับซื้อขาย อะไหร่่ มือหนึ่ง มือสอง\n\nรับติดตั้ง เดินสายระบบ เซิร์ฟเวอร์ อาคาร ต่างๆ\n\nรับออกแบบกราฟฟิค 3D 2D\n\nรับพิมพ์งานทุกประเภท\n\n***บริการ รับซ่อมนอกสถานที่ ***\n\nร้านอยู่ที่ไป ศวพ (โรงแรมอมรินรากูล) ครับ\n\nสนใจโทร 0899607766 0925237771 0612073024",
        "id": "575849279180512",
        "location": {
            "city": "Bangkok",
            "country": "Thailand",
            "latitude": 16.83441,
            "longitude": 100.31658,
            "street": "73/111 ถ.พระองค์ขาว ต.ในเมือง อ.เมือง จ.พิษณุโลก",
            "zip": "65000"
        },
        "name": "รับซ่อมคอม พิษณุโลก อะไหร่คอมพิวเตอร์ Notebook PC เครื่องใช้ไฟฟ้า",
        "phone": "094-2083686"
    },
    {
        "about": "แจ้งปัญหาการใช้งาน โทรศัพท์ 1912 และ IPHONE 3918 Computer Notebok Network Lan -WiFi Iphone Services By Rmutsv",
        "description": "แจ้งปัญหาการใช้งาน โทรศัพท์ 1912 และ IPHONE 3918",
        "id": "332133786872680",
        "name": "งานซ่อมคอมพิวเตอร์ มทร.ศรีวิชัย",
        "phone": "1912 IPHONE 3918"
    },
    {
        "about": "รับซ่อมคอมพิวเตอร์นอกสถานที่",
        "description": "รับซ่อมคอมพิวเตอร์นอกสถานที่ รัชโยธิน รัชดา ปิ่นเกล้า บางพลัด จรัญสนิทวงศ์ สามเสน งามวงศ์วาน แคราย แจ้งวัฒนะ ประชาชื่น นนทบุรี บางกรวย รัตนาธิเบศธ์ ปากเกร็ด บางซื่อ สะพานควาย จตุจักร ฯลฯ ค่าบริการ 300-500 บาท (ไม่รวมค่าอะไหล่)",
        "emails": [
            "wasin.r23@gmail.com"
        ],
        "id": "1619456221621116",
        "location": {
            "city": "Bangkok",
            "country": "Thailand",
            "street": "บางซื่อ",
            "zip": "10800"
        },
        "name": "รับซ่อมคอมพิวเตอร์นอกสถานที่  บางซื่อ บางพลัด แจ้งวัฒนะ ประชาชื่น ฯลฯ",
        "phone": "088-000-8588"
    },
    {
        "about": "บริการลูกค้าเราบริการด้วยใจเป็นกันเองยินดีบริการทุกท่าน",
        "description": "ลูกค้าที่ใช้บริการเราทางเราขอบคุณที่มาซ่อมกับ บริการด้วยใจ บริการถึงที่",
        "id": "512055555597237",
        "name": "รับซ่อมคอมพิวเตอร์ โน๊ตบู๊ค ปริ้นเตอร์ อุปกรณ์ต่อพ่วงทุกชนิด"
    },
    {
        "about": "อาคารศูนย์การค้าเซียร์รังสิตชั้น 4 ถ.พหลโยธิน ต.คูคต อ.ลำลูกกา จ.ปทุมธานี 12130",
        "id": "663839110299297",
        "name": "Repairing Centerบริการซ่อมคอมพิวเตอร์ จำหน่ายอะไหล่โน๊ตบุค"
    },
    {
        "about": "รับซ่อมคอมพิวเตอร์นอกสถานที่ ภูเก็ต",
        "description": "รับซ่อมคอมพิวเตอร์นอกสถานที่ ภูเก็ต\nรับซ่อมคอมพิวเตอร์ บริการ ลงโปรแกรมต่างๆ เก็บข้อมูลก่อน ล้างเครื่องใหม่ ซ่อมคอมพิวเตอร์ pc และ notebook รับจัดสเป็คคอมในราคาถูก ซ่อมจอมอนิเตอร์ LCD CRT รับเปลี่ยน จอ notebook ราคาพิเศษ ซ่อมnotebookเปลี่ยนชิบ(เปิดไม่ติด)\nรับติดตั้งระบบ Network และ อัพเกรดอุปกรณ์คอมพิวเตอร์ต่างๆ โดยช่างมืออาชีพ มีบริการซ่อม และรับ-ส่งถึงบ้าน รับดูแลระบบคอมพิวเตอร์รายเดือน\nร้านอินเตอร์เน็ต และห้างร้านทั่วไป รับกู้ข้อมูลซ่อมปริ้นเตอร์ และรับปรึกษาปัญหาคอมพิวเตอร์ โทร 086-742-0673\nโดยช่างที่มีประสปการณ์กว่า 10 ปี (รับซื้อคอมพิวเตอร์มือสอง ทั้งพีซี และ โน๊ตบุ๊ค) รับซ่อมคอม พิวเตอร์ นอกสถานที่ ถึงบ้าน ภูเก็ต\n",
        "emails": [
            "bonder_3@hotmail.com"
        ],
        "general_info": "ทีมงานเราเน้นการบริการนอกสถานที่โดยไปหาลูกค้าถึงบ้าน หรือท่านสะดวกนำเครื่องเข้ามาออฟฟฟิต ถนนบายพาส,กุ๊กกู,สามกอง โทร086-7420673",
        "id": "260609500630403",
        "location": {
            "city": "Amphoe Moeang Thalang",
            "country": "Thailand",
            "street": "ภูเก็ต",
            "zip": "83000"
        },
        "name": "รับซ่อมคอมพิวเตอร์นอกสถานที่ ภูเก็ต",
        "phone": "0867420673"
    },
    {
        "id": "309161789172283",
        "location": {
            "city": "Bangkok",
            "country": "Thailand",
            "latitude": 13.7663202,
            "longitude": 100.4812622,
            "street": "อรุณอัมรินทร์",
            "zip": "10700"
        },
        "name": "ร้านซ่อมคอมพิวเตอร์นอกสถานที่ กรุงเทพ  สมุทรปราการครับ โทร 0811340230",
        "phone": "0811340230"
    },
    {
        "id": "691474464222121",
        "location": {
            "city": "Ubon Ratchathani",
            "country": "Thailand",
            "latitude": 15.36575,
            "longitude": 104.89258,
            "street": "ubon",
            "zip": "34000"
        },
        "name": "ซ่อมคอมพิวเตอร์ อุบลราชธานี",
        "phone": "088-0814941"
    },
    {
        "about": "การซ่อมบำรุง คอมพิวเตอร์และเครือข่าย อินเทอร์เน็ตเพื่อการศึกษา",
        "id": "699947440026488",
        "name": "ศูนย์ซ่อมคอมพิวเตอร์ สพป.นม.1"
    },
    {
        "about": "บริการรับซ่อมคอมพิวเตอร์ทั้งในและนอกสถานที่",
        "id": "254072688099871",
        "location": {
            "city": "Bangkok",
            "country": "Thailand",
            "latitude": 13.816515,
            "longitude": 100.5701599,
            "street": "ลาดพร้าว71",
            "zip": "10230"
        },
        "name": "รับซ่อมคอมพิวเตอร์นอกสถานที่ ลาดพร้าว รามคำแหง รัชดา รัชโยธิน เกษตรนวมินทร์",
        "phone": "0902515629"
    },
    {
        "id": "525986054084491",
        "location": {
            "city": "Phuket",
            "country": "Thailand",
            "latitude": 7.882915,
            "longitude": 98.39087,
            "street": "สามกอง",
            "zip": "83000"
        },
        "name": "ร้าน ซ่อมคอมพิวเตอร์ ภูเก็ต",
        "phone": "0867420673"
    },
    {
        "about": "รับซ่อมคอมพิวเตอร์ โน๊ตบุ๊ค ทุกรุ่น ทุกอาการ เกมส์ทุกชนิด",
        "id": "448610175279920",
        "location": {
            "city": "Amphoe Phra Nakhon Si Ayutthaya",
            "country": "Thailand",
            "latitude": 14.3605196,
            "longitude": 100.5659167,
            "street": "อยุธยา",
            "zip": "13000"
        },
        "name": "ร้านเทคนิคคอมพิวเตอร์ - ซ่อม ขาย จังหวัดอยุธยา",
        "phone": "089-501-1669"
    },
    {
        "about": "Tel.087-6539598 K.Kittiphumi\nLine ID:conzaro\nซ.เอกชัย 108 ถ.เอกชัย\nเขตบางบอน กทม.",
        "description": "บริการซ่อม อัพเกรด ประกอบเครื่องคอมพิวเตอร์\nบริการทั้งใน และนอกสถานที่\nบริการซ่อมทั้งเครื่องพีซี และโน็ตบุค\nรับติดตั้งระบบแลน ติดตั้งระบบเซิร์ฟเวอร์\nซ่อม และแก้ไขปัญหาไมโครซอฟต์เซิร์ฟเวอร์",
        "id": "1045765792118956",
        "name": "ซ่อมคอมพิวเตอร์ PC และ Notebơk"
    },
    {
        "about": "บริการซ่อมคอมนอกสถานที่ ซ่อมคอมถึงบ้าน บริษัท สำนักงาน\n(กรุงเทพ)",
        "id": "363698680419250",
        "name": "A.Service รับซ่อมคอมพิวเตอร์"
    },
    {
        "about": "รับซ่อม คอมพิวเตอร์ โน๊คบุ๊ค ปริ้นเตอร์ ทุกอาการ\nรับจัดสเปคคอมพิวเตอร์ โน๊ตบุ๊ค",
        "id": "1609668052619187",
        "location": {
            "city": "Sakhon Nakhon",
            "country": "Thailand",
            "latitude": 17.1667,
            "longitude": 104.15,
            "street": "1276/1 ถ.สุขเกษม อ.เมือง",
            "zip": "47000"
        },
        "name": "รับซ่อมคอมพิวเตอร์ โน๊ตบุ๊ค ปริ้นเตอร์ จัดสเปคคอม",
        "phone": "087-7711128"
    },
    {
        "about": "ร้านซ่อมคอมพิเตอร์  PC / Notebook / Mac  จำหน่ายอุปกรณ์คอมพิวเตอร์",
        "description": "รับซ่อม และจำหน่ายอุปกรณ์คอมพิวเตอร์ทุกชนิด  ซ่อมปริ้นเตอร์ รับติดตั้งแทงค์ จำหน่ายหมึกเติม  รับติดตั้งกล้องวงจร  รับกู้ข้อมูล  ตรวจเช็คอาการฟรี ",
        "emails": [
            "sp.comp_indy@hotmail.com"
        ],
        "id": "775590012466411",
        "location": {
            "city": "Non Buri",
            "country": "Thailand",
            "latitude": 13.838462252778,
            "longitude": 100.47514331329,
            "street": "bangsrimuang",
            "zip": "11000"
        },
        "name": "Sp.computer ร้านซ่อมคอมพิวเตอร์-บางศรีเมือง",
        "phone": "02-8829216 /083-5042260"
    },
    {
        "id": "732741140174787",
        "location": {
            "city": "Phra Nakhon",
            "country": "Thailand",
            "latitude": 13.7572603,
            "longitude": 100.5110016,
            "street": "หลานหลวง",
            "zip": "10100"
        },
        "name": "ลงวินโดว์ รับลงโปรแกรม ซ่อมคอมพิวเตอร์ Pc Notebook นอกสถานที่ โน้ตบุค",
        "phone": "0843440100"
    },
    {
        "about": "บริการ ขาย-ซ่อม ถึงบ้าน และรับปรึกษาปัญหาคอมพิวเตอร์",
        "id": "414503612088428",
        "location": {
            "city": "Nakhon Si Thammarat",
            "country": "Thailand",
            "latitude": 8.4364,
            "longitude": 99.9631,
            "street": "อ.ปากพนัง อ.เชียรใหญ่ อ.หัวไทร อ.ระโนด",
            "zip": "80140"
        },
        "name": "ขาย-ซ่อม ถึงบ้าน และปรึกษาปัญหาคอมพิวเตอร์",
        "phone": "0835232325"
    },
    {
        "description": "ซ่อมคอม สุทธิสาร , สะพานควาย อินทามระ , พญาไท \nรับบริการดูแล รักษา ซ่อม ประกอบ ติตตั้ง ปรับปรุง อุปกรณ์คอมพิวเตอร์ทุกชนิด รับวางระบบต่างๆ\u0003INTERNET ภายในบ้าน สำนักงาน สถานศึกษา หน่วยงานราชการ\u0003LAN SERVER\u0003WIRELESS NETWORK ภายในและภายนอกอาคาร\u0003LOAD BALANCE\u0003  รับติดตั้งกล้องวงจรปิด\nทั้งภายในและภายนอกอาคาร สำหรับบ้าน สำนักงาน สถานศึกษา หน่วยงานราชการ พร้อมทั้งแนะนำการใช้งาน และดูแลให้คำปรึกษา\u0003 ให้บริการเครื่องเช่า\u0003เครื่องที่ใช้สำหรับงานประจำหรืองานชั่วคราว\u0003พร้อมการบำรุงรักษาตลอดสัญญาและสามารถปรึกษาปัญหาเกี่ยวกับการใช้งานได้นะครับ สุทธิสาร , สะพานควาย อินทามระ , พญาไท \n\n ",
        "id": "1530220153901505",
        "location": {
            "city": "Thai Chang",
            "country": "Thailand",
            "latitude": 13.82676,
            "longitude": 100.56398,
            "street": "อินทามระ29",
            "zip": "10900"
        },
        "name": "29IT  บริการซ่อมคอมพิวเตอร์สะพานควาย อินทามระ29 สุทธิสาร",
        "phone": "095-9900818"
    },
    {
        "about": "AS Engineering Consultant เป็นผู้ให้บริการด้าน Hardware, Software และ Network พร้อมกับ Maintenance Service ที่มีประสิทธภาพ",
        "description": "บริการ Maintenance คอมพิวเตอร์และระบบ network นอสถานที่\nติดตั้งอุปกรณ์ IT วางระบบ network ต่างๆ\nจัดจำหน่ายอุปกรณ์ computer, printer และ accessories ต่างๆ\nPreventive Maintenance ตู้ ATM และป้ายไฟ LED ควบคุมด้วยระบบคอมพิวเตอร์\nOnsite Service และ Outsource IT Services\nให้คำปรึกษาด้านระบบ IT",
        "emails": [
            "as-comservice@hotmail.com"
        ],
        "id": "241010622705542",
        "location": {
            "city": "Bangkok",
            "country": "Thailand",
            "latitude": 13.804714047579,
            "longitude": 100.57600176151
        },
        "name": "รับซ่อมคอมพิวเตอร์นอกสถานที่ ติดต่อ 084-698-5500 บริการด้วยความเต็มใจ",
        "phone": " 084-698-5500"
    },
    {
        "about": "www.allnet0.webiz.co.th",
        "description": "คุณเคยเจอปัญหาเหล่านี้มั้ย\n•\tเอาคอมพิวเตอร์ไปซ่อม พอเอากลับมาถึงบ้านแล้วเปิดไม่ติด\n•\tโดนช่างเปลี่ยนอะไหล่ในเครื่องคอมพิวเตอร์\n•\tต้องกลับมาติดตั้งไดรเวอร์ Printer , Scanner , Internet เอง\n•\tเสียค่าใช้จ่ายมากในการนำคอมพิวเตอร์ไปซ่อมที่ร้าน ไหนจะต้องเจอ\nปัญหารถติด, หาที่จอดรถยาก, ยกไปที่ร้านหนักก็หนัก ฯลฯ\n•\tอยู่ที่ร้าน Test แล้วใช้ได้ แต่พอกลับมาใช้ไม่ได้เหมือนเดิม\n•\tซ่อมคอมพิวเตอร์เสร็จพนำกลับมาติดตั้ง เสียบสายไม่ถูก แล้วจะโดนไฟดูดมั้ยเนี่ย!!\n•\tนำเครื่องไปทิ้งไว้ที่ร้านหลายวัน ไม่มีคอมใช้\n•\tถูกขโมยข้อมูลในเครื่อง",
        "id": "153257918106693",
        "location": {
            "city": "Songkhla",
            "country": "Thailand",
            "zip": "90110"
        },
        "name": "ศูนย์ซ่อมคอมพิวเตอร์ ออร์เน็ต หาดใหญ่",
        "phone": "0836337993"
    }
]