[
    {
        "id": "778517262237263",
        "location": {
            "city": "Pathum Thani",
            "country": "Thailand",
            "latitude": 13.965939300357,
            "longitude": 100.53564814431,
            "street": "พฤกษา 20",
            "zip": "12130"
        },
        "name": "ซ่อมคอมพิวเตอร์ บ้านพฤกษา20 คลอง 2",
        "phone": "0896933224"
    },
    {
        "about": "ซ่อมคอมพิวเตอร์ ทุกอาการ บริการถึงบ้าน",
        "id": "768098796576642",
        "location": {
            "city": "Nakhon Si Thammarat",
            "country": "Thailand",
            "latitude": 8.42515,
            "longitude": 99.96453,
            "street": "ไชยมนตรี  face:APIRAK KARAIPOOM",
            "zip": "80000"
        },
        "name": "ซ่อมคอมพิวเตอร์ ทุกอาการ บริการถึงบ้าน",
        "phone": "0873856200"
    },
    {
        "id": "570674889640524",
        "location": {
            "city": "Song Phi Nong",
            "country": "Thailand",
            "latitude": 14.176920041259,
            "longitude": 99.934936639788
        },
        "name": "อ๊อดคอมพิวเตอร์ จำหน่าย ซ่อม ประกอบ",
        "phone": "0858028585"
    },
    {
        "id": "555156577855040",
        "location": {
            "city": "Satuk",
            "country": "Thailand",
            "latitude": 15.25642,
            "longitude": 103.26592,
            "street": "401/14 ม.1 ต.นิคม อ.สตึก จ.บุรีรัมย์ 31150",
            "zip": "31150"
        },
        "name": "สตึกโฟนช็อป ซื้อขายจำนำซ่อมด่วน ไอโฟนไอแพดแท็ปเล็ตโน๊ตบุ็คคอมพิวเตอร์",
        "phone": "0853005678"
    },
    {
        "id": "552173894875135",
        "location": {
            "city": "Chiang Mai",
            "country": "Thailand",
            "latitude": 18.792428146148,
            "longitude": 99.027792301657,
            "street": "111/36"
        },
        "name": "78 Service ศูนย์ซ่อมมือถือ คอมพิวเตอร์ เครื่องใช้ไฟฟ้า",
        "phone": "0869188991"
    },
    {
        "id": "542122562467497",
        "location": {
            "city": "Sathing Phra",
            "country": "Thailand",
            "latitude": 7.4795996110482,
            "longitude": 100.43744065527
        },
        "name": "ร้านจ๊อบ ไอที - ขายและซ่อมคอมพิวเตอร์0879963128"
    },
    {
        "id": "540874436004263",
        "location": {
            "city": "Phitsanulok",
            "country": "Thailand",
            "latitude": 16.82472,
            "longitude": 100.25951,
            "street": "ตรงข้ามล็อบบี้หมูกระทะ เต็งหนาม"
        },
        "name": "ร้านซ่อมเครื่องใช้ไฟฟ้าและคอมพิวเตอร์mac - Mos,aueng,champ"
    },
    {
        "id": "540113766127440",
        "location": {
            "city": "Amnat Charoen",
            "country": "Thailand",
            "latitude": 15.861150515,
            "longitude": 104.6421980425,
            "street": "อำนาจเจริญ",
            "zip": "37000"
        },
        "name": "ร้านpt.รับซ่อมคอมพิวเตอร์ทุกรุ่น บายพาสอำนาจเจริญ"
    },
    {
        "about": "บริการซ่อมคอมทุกอาการ บริการซ่อมถึงสถานที่",
        "id": "596505650458831",
        "location": {
            "city": "Samut Prakan",
            "country": "Thailand",
            "latitude": 13.59946,
            "longitude": 100.59695,
            "street": "127/12 ม.1 ต.ในคลองบางปลากด อ.พระสมุทรเจดีย์ จ.สมุทรปราการ",
            "zip": "10190"
        },
        "name": "ซ่อมคอมพิวเตอร์ จำหน่ายอุปกรณ์คอมพิวเตอร์",
        "phone": "0868741850"
    },
    {
        "id": "583026965085450",
        "location": {
            "city": "Bangkok",
            "country": "Thailand",
            "latitude": 13.671798706055,
            "longitude": 100.68318486214
        },
        "name": "ร้านซ่อมคอมพิวเตอร์"
    },
    {
        "id": "578355798868614",
        "location": {
            "city": "Bangkok",
            "country": "Thailand",
            "latitude": 13.64821,
            "longitude": 100.4965,
            "street": "356",
            "zip": "10140"
        },
        "name": "ซ่อมคอมพิวเตอร์",
        "phone": "0889754336"
    },
    {
        "id": "1520968871503690",
        "location": {
            "city": "ตำบล ป่างิ้ว อำเภอ เวียงป่าเป้า จังหวัด เชียงราย ",
            "latitude": 19.218422882531,
            "longitude": 99.501015314815,
            "street": "ร้านคอมพิวเตอร์ในปั้มคอสโม่ป่างิ้ว"
        },
        "name": "ร้านซ่อมคอม Mcomputer"
    },
    {
        "about": "รับซ่อมคอมพิวเตอร์ อุปกรณ์ไฟฟ้า ล้างแอร์",
        "id": "1545090282402618",
        "location": {
            "city": "Amphoe Nakhon Chai Si",
            "country": "Thailand",
            "latitude": 13.792,
            "longitude": 100.197725,
            "street": "17 /3",
            "zip": "73120"
        },
        "name": "Mint ซ่อมคอมพิวเตอร์และเครื่องใช้ไฟฟ้า",
        "phone": "0898885002"
    },
    {
        "emails": [
            "th_suwan@hotmail.com"
        ],
        "id": "1544200942511870",
        "location": {
            "city": "Phuket",
            "country": "Thailand",
            "latitude": 7.8753099,
            "longitude": 98.3937988,
            "street": "ภูเก็ต",
            "zip": "83000"
        },
        "name": "รับซ่อมคอมพิวเตอร์ ในและนอกสถานที่",
        "phone": "0819035836"
    },
    {
        "id": "1535707590033717",
        "location": {
            "city": "Sansai",
            "country": "Thailand",
            "latitude": 18.78966,
            "longitude": 98.9844,
            "street": "111/36 ม. 1 ต. หนองป่าครั่ง อ. เมือง จ. เชียงใหม่"
        },
        "name": "78serviceสารพัดซ่อม รับซ่อม ไอโฟนคอมพิวเตอร์ เครื่องใช้ไฟฟ้า",
        "phone": "0869188991"
    },
    {
        "id": "1533062933606690",
        "location": {
            "city": "Khonkean",
            "country": "Thailand",
            "latitude": 16.4552848,
            "longitude": 102.8429583,
            "street": "บ้านดอนหญ้านาง@ขอนแก่น"
        },
        "name": "ร้านโอเว่น ซ่อมและขายอุปกรณ์คอมพิวเตอร์"
    },
    {
        "id": "1521416448111005",
        "location": {
            "city": "Bangsabhan",
            "country": "Thailand",
            "latitude": 11.34897012,
            "longitude": 99.56378929
        },
        "name": "ร้านธานินทร์อิเล็กทรอนิกส์ ซ่อมเครื่องใช้ไฟฟ้า ซ่อมประกอบคอมพิวเตอร์"
    },
    {
        "id": "1555323038063690",
        "location": {
            "city": "Bang Saen",
            "country": "Thailand",
            "latitude": 13.36211,
            "longitude": 100.98371,
            "street": "36/15 ถนน เนตรดี ต. แสนสุข อ. เมือง จ. ชลบุรี 20130"
        },
        "name": "ร้าน นัน ไอที ศูนย์รับซ่อม คอมพิวเตอร์ โน๊ตบุ๊ค มือถือ ฯ",
        "phone": "0814299091"
    },
    {
        "id": "1519988811573106",
        "location": {
            "city": "Bangkok",
            "country": "Thailand",
            "latitude": 13.8096779,
            "longitude": 100.4791885
        },
        "name": "ศูนย์ซ่อมคอมพิวเตอร์ Loxin Computer"
    },
    {
        "id": "911718638874536",
        "location": {
            "city": "Amphoe Thung Song",
            "country": "Thailand",
            "latitude": 8.1719253681593,
            "longitude": 99.623107306556
        },
        "name": "ศูนย์ซ่อมคอมพิวเตอร์และศูนย์ข้อมูลวิทยาลัยเทคนิคทุ่งสง"
    },
    {
        "about": "รับซ่อม คอมพิวเตอร์ Notebook \u0026 Destop",
        "id": "904344752991024",
        "location": {
            "city": "Bangkok",
            "country": "Thailand",
            "latitude": 13.863135,
            "longitude": 100.629675,
            "street": "ตะวันนา บางกะปิ",
            "zip": "10240"
        },
        "name": "ร้านซ่อม คอมพิวเตอร์",
        "phone": "0871059695"
    },
    {
        "id": "900063956695506",
        "location": {
            "city": "Phuket",
            "country": "Thailand",
            "latitude": 7.8794479,
            "longitude": 98.3926468,
            "street": "101/40  ต.ราไวย์ อ.เมือง",
            "zip": "83000"
        },
        "name": "ซ่อมคอมพิวเตอร์ in phuket2",
        "phone": "091-8258097"
    },
    {
        "id": "893670684042002",
        "location": {
            "city": "Phrae",
            "country": "Thailand",
            "latitude": 18.132316135,
            "longitude": 100.14948616
        },
        "name": "ศูนย์ซ่อมคอมพิวเตอร์อันดับ1ของจังหวัดแพร่ที่มีเจ้านายขี้บ่นมาก"
    },
    {
        "id": "1607756059442754",
        "location": {
            "city": "Na",
            "country": "Thailand",
            "latitude": 8.52664802,
            "longitude": 99.822310316667,
            "street": "พรหมคีรี",
            "zip": "80320"
        },
        "name": "ร้าน นครเน็ต ศูนย์ ขาย-ซ่อม-ติดตั้ง คอมพิวเตอร์ อุปกรณ์ต่อพ่วง กล้องวงจรปิด"
    },
    {
        "id": "1604320749808615",
        "location": {
            "city": "Rayong",
            "country": "Thailand",
            "latitude": 12.6742,
            "longitude": 101.279,
            "street": "92หมู่ 8 ต.คลองปูน อ.แกลง",
            "zip": "21170"
        },
        "name": "ร้านคอมโฮม ติดตั้ง Cctv ดาวเทียม ซ่อมบำร่งงานด้านคอมพิวเตอร์ระบบเครือข่าย",
        "phone": "0860577487"
    }
]