[
    {
        "emails": [
            "nokpd27@hotmail.co.th"
        ],
        "id": "380652842111937",
        "location": {
            "city": "Amphoe Bang Phli",
            "country": "Thailand",
            "latitude": 13.61248,
            "longitude": 100.74425,
            "street": "61/5",
            "zip": "10540"
        },
        "name": "คอมพิวเตอร์ มือสอง อุปกรณ์ It ซ่อมคอม บางพลี",
        "phone": "086-700-2732"
    },
    {
        "about": "บริการซ่อมคอมพิวเตอร์ เครื่องปริ้น นอกสถานที่ เช่น บ้าน สำนักงาน สถานที่ต่างๆที่ท่านสดวก",
        "id": "1034911509872048",
        "location": {
            "city": "Nakhon Nayok",
            "country": "Thailand",
            "latitude": 14.2013502,
            "longitude": 101.2138672,
            "street": "9/3หมู่2 ต. บ้านใหญ่ อ. เมือง จ.นครนายก",
            "zip": "26000"
        },
        "name": "ซ่อมคอมพิวเตอร์เครื่องปริ้นนอกสถานที่ นครนายก-ปราจีน",
        "phone": "0864491706*092-352-7131"
    },
    {
        "about": "ซ่อมคอม เชียงใหม่ ถึงบ้าน on-site ดูแลระบบ คอมพิวเตอร์ กล้องวงจรปิด wireless ไวรัส security",
        "description": "ซ่อมคอม เชียงใหม่ ถึงบ้าน on-site ดูแลระบบ คอมพิวเตอร์ กล้องวงจรปิด wireless ไวรัส security",
        "id": "120517884667345",
        "name": "ซ่อมคอม เชียงใหม่ ถึงบ้าน on-site ดูแลระบบ คอมพิวเตอร์ กล้องวงจรปิด wireless ไวรัส security",
        "phone": "082-8929299"
    },
    {
        "about": "รับ ซ่อม/ซื้อ/ขาย/ฝาก/แลกเปลี่ยน คอมพิวเตอร์ มือถือ ทุกรุ่น ให้ราคาพิเศษ แถวบางนา / ลาซาล",
        "description": "รับ ซ่อม/ซื้อ/ขาย/ฝาก/แลกเปลี่ยน คอมพิวเตอร์ มือถือ ทุกรุ่น ให้ราคาพิเศษ \n\n\nLine ID : fakdai\n\nรับพิมพ์งาน/ค้นข้อมูลทำรายงาน\nสแกนเอกสาร/แปลเอกสาร\nสรุปเนื้อหาจากวีดีโอ/\nทำแบบประเมินแบบสอบถาม\n\nแถวบางนา / ลาซาล",
        "emails": [
            "fakdaija@gmail.com"
        ],
        "id": "1429208417383909",
        "location": {
            "city": "Bangkok",
            "country": "Thailand",
            "zip": "10260"
        },
        "name": "ร้านซ่อมซื้อขายฝากแลกเปลี่ยนคอมพิวเตอร์มือถือ ทุกรุ่น โทร 0830626044 ลาซาล",
        "phone": "0830626044"
    },
    {
        "about": "ศูนย์ซ่อมปริ้นเตอร์ จอคอมพิวเตอร์ จำหน่ายปริ้นเตอร์มือ2 จำหน่ายอะไหล่ปริ้นเตอร์",
        "description": "รับซ่อมปริ้นเตอร์ dotmatrix laserjet multifungtion inkjet ทุกยี่ห้อ epson canon brother hp samsung lexmark oki\nรับซ่อมจอคอมพิวเตอร์ lcd led ทุกยี่ห้อ ทุกรุน ทุกยี่ห้อ acer samsung hp viewsonic benq lg socos \nจำหน่ายปริ้นเตอร์มือ2 epson dotmatrix\nอะไหล่ปริ้นเตอร์ epson domatrix",
        "emails": [
            "repair20101@hotmail.com"
        ],
        "id": "636514219733250",
        "location": {
            "city": "กรุงเทพฯ",
            "street": "ถ.สุขสวัสดิ์ บางประกอก ราษฏร์บูรณะ",
            "zip": "14140"
        },
        "name": "Jprint ศูนย์ซ่อมปริ้นเตอร์ จอคอมพิวเตอร์",
        "phone": "0890192219"
    },
    {
        "about": "รับติดตั้งกล้องวงจรปิด นนทบุรี รับซ่อมคอมพิวเตอร์ นนทบุรี ติดต่อ 0955271652",
        "description": "KN Service รับติดตั้งกล้องวงจรปิด และรับซ่อมคอม ทั่วเขตนนทบุรี มีบริการรับซ่อมคอมถึงบ้านท่าน ติดต่อ 0955271652 ตลอด 24 ชั่วโมง",
        "emails": [
            "misterdik8@gmail.com"
        ],
        "id": "1502950179979548",
        "location": {
            "city": "Nonthaburi",
            "country": "Thailand",
            "latitude": 13.85238,
            "longitude": 100.4887,
            "street": "87/27 หมู่ 5 ซอยพิบูลย์สงคราม 15 ตำบลสวนใหญ่ อำเภอเมืองนนทบุรี",
            "zip": "11000"
        },
        "name": "KN Service รับติดกล้องวงจรปิด รับซ่อมคอมพิวเตอร์ นนทบุรี 0955271652",
        "phone": "0955271652"
    },
    {
        "id": "709071295905863",
        "location": {
            "city": "Nonthaburi",
            "country": "Thailand",
            "latitude": 13.8700933,
            "longitude": 100.5095749,
            "street": "25/2 หมู่2 ซอยนนทบุรี21 ถนนสนามบินน้ำ ตำบลบางกระสอ",
            "zip": "11000"
        },
        "name": "Fix You PC รับซ่อมคอมพิวเตอร์",
        "phone": "0896995209"
    },
    {
        "about": "ซ่อมโน๊ตบุ๊ค ซ่อมคอมพิวเตอร์ ซ่อมแท็บเล็ต ด่วน ทุกอาการเสีย จ.เชียงใหม่",
        "description": "ซ่อมโน๊ตบุ๊ค ซ่อมคอมพิวเตอร์ ซ่อมแท็บเล็ต ทุกอาการเสีย รับประกันหลังการซ่อม 2 เดือน ซ่อมไม่ได้ไม่คิดเงิน บริการกู้ข้อมูลที่หายไป กู้ไม่ได้ไม่คิดเงิน",
        "emails": [
            "newbizcomputer@gmail.com"
        ],
        "id": "220877441387767",
        "location": {
            "city": "Chiang Mai",
            "country": "Thailand",
            "latitude": 18.796506204449,
            "longitude": 98.981363593272,
            "street": "เลขที่ 310 ห้องบี3 ร้านนิวส์บิสคอมพิวเตอร์ อาคารไอคอนเเสควร์ ต.ศรีภูมิ อ.เมือง จ.เชียงใหม่",
            "zip": "50200"
        },
        "name": "ซ่อมโน๊ตบุ๊คทุกอาการเสียด่วน เชียงใหม่ ร้านนิวส์บิสคอมพิวเตอร์",
        "phone": "053-219459"
    },
    {
        "id": "1614713408743079",
        "location": {
            "city": "Ayutthaya",
            "country": "Thailand",
            "latitude": 14.35,
            "longitude": 100.55,
            "street": "อ.บางปะอิน",
            "zip": "13160"
        },
        "name": "รับซ่อมจักรระบบคอมพิวเตอร์ทุกชนิด",
        "phone": "0930146241"
    },
    {
        "id": "437786612960163",
        "name": "X computer รับซ่อมคอมพิวเตอร์ ทุกอาการ ทั้งใน และนอก สถานที่",
        "phone": "0616516740"
    },
    {
        "about": "รับติดตั้งWindows โปรแกรม Driver   อื่น ๆ  สอบถามได้ตลอดเวลา",
        "description": "รับซ่อมคอมพิวเตอร์ เริ่มที่ 300.- ไม่รวมค่าอะไหล่ นอกสถานที่ +ค่าน้ำมัน ตามสมควร \nเปิดบริการทุกวัน ...โทร..099-9790496    ID line : ijkomsan\n\n** 300.- สำหรับ การล้างเครื่อง ลงโปรแกรมใหม่\n** 300.- สำหรับ การซ่อม อาการเสียต่างๆ ที่ไม่ต้องเปลี่ยนอะไหล่\n** อาการเสีย ที่ต้องเปลี่ยนอะไหล่ ราคา ขึ้นอยู่กับ ค่าอะไหล่ตัวนั้นๆ\n** อาการเสีย ของเมนบอร์ด Notebook ทุกอาการ ต้องส่ง ศูนย์ซ่อม\n\n* รับประกัน การซ่อมทุกงานอย่างน้อย 1 เดือน\n\n* ยินดีให้คำปรึกษา พร้อมนัดหมายเวลา ล่วงหน้า",
        "emails": [
            "mr_ponlachai777@hotmail.com"
        ],
        "id": "145729308925409",
        "location": {
            "latitude": 9.9527652,
            "longitude": 99.0688335,
            "street": "ปราณบุรี - Pranburi"
        },
        "name": "J'Service บริการซ่อมคอมพิวเตอร์",
        "phone": "099-9790496"
    },
    {
        "description": "บริษัทสตาร์โอเอ แอนด์ คอมมูนิเคชั่น \nบริการติดตั้งและซ่อม คอมพิวเตอร์ ระบบกล้องวงจรปิด CCTV , Fiber Optic ,intercom \nติดตั้งเครื่องปรับอากาศ วางระบบอินเตอร์เน็ต ระบบไฟฟ้า ทุกชนิด \nสนใจติดที่ 055-444761,088-2782075 บริการทั่วประเทศไทย",
        "id": "263021430558003",
        "location": {
            "city": "อุตรดิตถ์",
            "street": "53/1-3 ถ.อินใจมี ต.ท่าอิฐ อ.เมือง",
            "zip": "53000"
        },
        "name": "ศูนย์ซ่อมและติดตั้ง คอมพิวเตอร์ กล้อง CCTV ,Fiber Optic เครื่องปรับอากาศ",
        "phone": "055-444761"
    },
    {
        "about": "ถ่ายเอกสาร ขายและซ่อมคอมพิวเตอร์ รับ-ส่ง Fax ปริ้นสี-ขาวดำ เข้าเล่มรายงาน",
        "id": "534866236568428",
        "location": {
            "city": "Chachoengsao",
            "country": "Thailand",
            "street": "15/8 หมู่ 18 ต.ศาลาแดง อ.บางน้ำเปรี้ยว จ.ฉะเชิงเทรา",
            "zip": "24000"
        },
        "name": "ทูดี ถ่ายเอกสาร ขายและซ่อมคอมพิวเตอร์",
        "phone": "038086016"
    },
    {
        "about": "บริการซ่อมคอมพิวเตอร์นอกสถานที่ ถึงบ้าน ถึงที่ทำงาน สำนักงาน บริษัท ห้างร้าน และอื่นๆ",
        "id": "368911613238483",
        "location": {
            "city": "Chiang Mai",
            "country": "Thailand",
            "latitude": 18.863092372921,
            "longitude": 98.982528802586,
            "street": "121 หมู่ 2 ต.สันผีเสื้อ อ.เมืองเชียงใหม่",
            "zip": "50300"
        },
        "name": "ซ่อมคอมฯนอกสถานที่ เชียงใหม่ โดย ซีเอ็นคอมพิวเตอร์แอนด์เซอร์วิส",
        "phone": "+66877287495"
    },
    {
        "id": "1521715311452200",
        "location": {
            "city": "Pathum Thani",
            "country": "Thailand",
            "street": "หอปริชาต ติดปั๊ม ปตท บางพูน /ม.รังสิต /เมืองเอก",
            "zip": "12000"
        },
        "name": "K-Com รับซ่อมคอมพิวเตอร์ ม.รังสิต เมืองเอก",
        "phone": "0928154640 "
    },
    {
        "about": "รับซ่อมทีวี lcd tv มือถือ คอมพิวเตอร์ เครื่องใช้ไฟฟ้าทั่วไป ตู้เย็น",
        "description": "รับซ่อมทีวี lcd tv โทรศัพท์มือถือ  คอมพิวเตอร์ ตู้เย็น เครื่องใช้ไฟฟ้าทั่วไปฯลฯ\nรับงานไฟฟ้าทั่วไป ออกแบบวงจรควบคุมไฟฟ้า ประกอบตู้ control",
        "id": "1558124947773748",
        "location": {
            "city": "Chumphon Buri",
            "country": "Thailand",
            "latitude": 15.447188442252,
            "longitude": 103.55908271304,
            "zip": "32190"
        },
        "name": "ร้านซ่อมทีวี มือถือ คอมพิวเตอร์",
        "phone": "0865243991"
    },
    {
        "description": "ซ่อม ซื้อ ขาย ประกอบ อัพเกรด คอมพิวเตอร์พีซี โน๊ตบุ๊ค และอุปกรณ์ต่อพ่วงทุกชนิด",
        "emails": [
            "comtech_sut@hotmail.com"
        ],
        "id": "277646268935473",
        "location": {
            "city": "Nakhon Ratchasima",
            "country": "Thailand",
            "street": "105/643 MOO 6 TAMBON SURANAREE",
            "zip": "30000"
        },
        "name": "คอมเทค ร้านสีเหลือง มทส ประตู1 รับซ่อมคอมพิวเตอร์,โน๊ตบุ๊ค,ปริ้นเตอร์",
        "phone": "084-0177047"
    },
    {
        "about": "รับซ่อมคอมพิวเตอร์และจำหน่ายอุปกรณ์คอมพิวเตอร์มือสอง",
        "description": "  41/5 หมู่ 8  ต บางเสาธง  อ บางเสาธง  จ สมุทรปราการ โทร 02-707-0717  - 090-589-5693  -  091-413-3758  LINE ID:praphan.ole  ( โอเล่ )",
        "id": "384353028315382",
        "name": "รับซ่อมคอมพิวเตอร์ PC-Notebook และ จอ มอนิเตอร์"
    },
    {
        "id": "316838128519832",
        "location": {
            "city": "Bangkok",
            "country": "Thailand",
            "latitude": 14.62129,
            "longitude": 104.15586,
            "street": "76 หมู่ 5 ต.ตะเคียนราม อ.ภูสิงห์ จ.ศรีสะเกษ",
            "zip": "33140"
        },
        "name": "รับซ่อมและประกอบคอมพิวเตอร์/โน๊ตบุ๊ค",
        "phone": "0811239494"
    },
    {
        "about": "รับซ่อม ประกอบ อัพเกรด จัดสเปคคอมพิวเตอร์ (คุณบี 081-9440261)",
        "description": "- งานซ่อม ประกอบ และอัพเกรดคอมพิวเตอร์ \n- ลงโปรแกรม ฆ่าไวรัส  ซ่อมโน๊ตบุค แท็ปเลต \n- จัดสเปคคอมพิวเตอร์ได้ทุกราคาตามที่ลูกค้าต้องการ ราคาต่อรองได้ครับ\n- จำหน่ายเครื่องปริ๊นเตอร์ หมึกพิมพ์ อุปกรณ์คอมพิวเตอร์\n- ลงเกมส์หลากหลาย  ลงเพลงมือถือ \n- รับติดตั้งกล้องวงจรปิดภายใน-นอกอาคารบริษัท บ้านพัก หอพัก\n- เดินระบบสายแลนด์เน็ตเวิร์คทั้งภายในบริษัทและร้านเกมส์ ร้านอินเทอร์เน็ตทั่วไป\n\nติดต่อคุณชำนาญ (บี) เบอร์ 081-9440261 , 087-6655201\nรับสาย 24 ชม.ครับ",
        "emails": [
            "chamnan99@hotmail.com"
        ],
        "id": "348725345206380",
        "location": {
            "city": "Samut Sakhon",
            "country": "Thailand",
            "street": "146/7 หมู่9 สวนหลวง กระทุ่มแบน",
            "zip": "74110"
        },
        "name": "รับซ่อมคอมฯเดินระบบเน็ตเวิร์คครบวงจร Byชำนาญคอมพิวเตอร์เซอร์วิส",
        "phone": "081 944 0261"
    },
    {
        "about": "บริการเป็นกันเอง ราคาเบา เบา",
        "emails": [
            "sk-computer1245@hotmail.com"
        ],
        "id": "327321550654617",
        "location": {
            "city": "Amphoe Thung Song",
            "country": "Thailand",
            "street": "124/5 Chamai",
            "zip": "80110"
        },
        "name": "เอส.เค-คอมพิวเตอร์ ทุ่งสง ซ่อมคอมพิวเตอร์ วางระบบเครือข่าย ทุ่งสง",
        "phone": "872688884"
    },
    {
        "about": "ร้านบูมคอมไอทีเซอร์วิส บริการซ่อมคอมพิวเตอร์ และอุปกรณ์ไอทีทุกชนิด",
        "emails": [
            "bombcomitservice@hotmail.com"
        ],
        "id": "1549472575309297",
        "location": {
            "city": "ซอยประชาอุทิศ ถนนสรงประภาแขวงสีกัน เขตดอนเมือง",
            "street": "8/60 หมู่บ้านบุญอนันต์",
            "zip": "10210"
        },
        "name": "ร้านบูมคอมไอทีเซอร์วิส บริการซ่อมคอมพิวเตอร์ ดอนเมือง กรุงเทพฯ 029282400",
        "phone": "02-928-2400,096-565-5269,094-954-0225"
    },
    {
        "description": "บริการรับซ่อมคอมพิวเตอร์ นอกสถานที่ บริการถึงบ้านโดย ทีมงานที่มีความรู้ความชำนาญ ",
        "emails": [
            "sale@peakss.co.th"
        ],
        "id": "881276075264552",
        "location": {
            "city": "Bangkok",
            "country": "Thailand",
            "latitude": 13.81913,
            "longitude": 100.67546,
            "street": "111/2 ถ.ประเสริฐมนูกิจ 29 แยก 2",
            "zip": "10230"
        },
        "name": "รับซ่อมคอมคอมพิวเตอร์ ถึงบ้าน นอกสถานที่",
        "phone": "02-907-1854 , 091-802-0035"
    },
    {
        "emails": [
            "futureitshop@gmail.com"
        ],
        "id": "603358496359643",
        "name": "ฟิวเจอร์ไอที บริการอินเทอร์เน็ตความเร็วสูง ซ่อม - จำหน่ายคอมพิวเตอร์"
    },
    {
        "about": "บริการซ่อม-ประกอบ-ลงวินโด้-จะเสป็กคอมตามงบที่ท่าต้องการ\nโทร 0868468545 id line thepoon1234",
        "id": "1518523181757618",
        "location": {
            "city": "Amphoe Bang Phli",
            "country": "Thailand",
            "latitude": 13.54812,
            "longitude": 100.68051,
            "street": "สมุทรปราการ",
            "zip": "10280"
        },
        "name": "Pichcha - pcรับซ่อม-ประกอบคอมพิวเตอร์pc",
        "phone": "086-8468545"
    }
]