[
    {
        "about": "ซ่อมคอมพิวเตอร์ อมตะนคร ชลบุรี บริการซ่อมนอกสถานที่ ",
        "description": "บริการซ่อมคอมนอกสถานที่ อมตะนคร ชลบุรี และ พื้นที่ใกล้เคียง\nให้บริการเดินระบบ LAN และ เน็ตเวิร์ค จำหน่ายอุปกรณ์คอมพิวเตอร์\nจำหน่ายและติดตั้งกล้องวงจรปิด ทั่วพื้นที่จังหวัดชลบุรี และ พื้นที่ใกล้เคียง",
        "emails": [
            "info@brothercomputer.com"
        ],
        "id": "332001766934793",
        "location": {
            "city": "Chonburi",
            "country": "Thailand",
            "latitude": 13.36,
            "longitude": 100.98,
            "street": "http://www.brothercomputer.com",
            "zip": "20240"
        },
        "name": "บริการซ่อมคอมพิวเตอร์ อมตะนคร และพื้นที่ชลบุรี",
        "phone": "0894983010"
    },
    {
        "about": "ร้าน โปรคอมพิวเตอร์แอนด์เซอร์วิส\n(เชียงใหม่)\nเปิด 10.00-20.00 ทุกวัน",
        "description": "รับซ่อมทุกอาการ รับฝาก จำนำ คอมพิวเตอร์ PC โน๊ตบุ๊ค iphone iPAD ราคาสูง ระยะยาว\n\nสนใจติดต่อ 0869106214\nLine : prachan25\nFacebook : https://www.facebook.com/procomputerandservice\n",
        "id": "767246856624879",
        "name": "Procomputer and service รับซ่อมรับฝากจำนำคอมพิวเตอร์โน๊ตบุค เชียงใหม่"
    },
    {
        "about": ": จำหน่าย-ซ่อม คอมพิวเตอร์ ปริ้นเตอร์ ทุกรุ่น\n: รับติดตั้งกล้องวงจรปิด CCTV",
        "description": "จำหน่าย : ซ่อม  อุปกรณ์คอมพิวเตอร์ - ปริ้นเตอร์  ทุกรุ่น \n            : รับติดตั้งกล้องวงจรปิด CCTV ราคาถูก\n            : รับสั่งประกอบ - จัดสเปคคอมพิวเตอร์\n            : วางระบบเน็ตเวริ์ค\n Tel : 088-1300579, 0807992956  { ช่างอ้น }\n         (  www.facebook.com/btc.com.co.th  )",
        "emails": [
            "khaisorn1@hotmail.com"
        ],
        "id": "244604845730098",
        "location": {
            "city": "Amphoe Kantharalak",
            "country": "Thailand",
            "latitude": 14.60993,
            "longitude": 104.6977,
            "street": "608  ม.12  ถ.วีระเทพ  ต.หนองหญ้าลาด",
            "zip": "33110"
        },
        "name": "จำหน่าย-ซ่อม  คอมพิวเตอร์ ปริ้นเตอร์ รับติดตั้งกล้องวงจรปิด",
        "phone": "0881300579"
    },
    {
        "about": "รับซ่อม อิเล็กทรอนิกส์,คอมพิวเตอร์,โทรศัพท์มือถือ,เครื่องเสียง, ไมค์ลอย รับเขียนเว็บ",
        "id": "663552853705614",
        "name": "รับซ่อมไมค์ลอย รับซ่อมเครื่องเสียง รับซ่อมคอมพิวเตอร์ รับซ่อมโทรศัพท์"
    },
    {
        "about": "Line ID : 0877721335",
        "id": "1422174411379180",
        "location": {
            "city": "Samut Prakan",
            "country": "Thailand",
            "latitude": 13.774,
            "longitude": 100.65728,
            "street": "กิ่งแก้ว 26 ตำบลราชาเทวะ",
            "zip": "10540"
        },
        "name": "กิ่งแก้ว ลาดกระบัง บางนา ซ่อมคอมพิวเตอร์นอกสถานที่",
        "phone": "087-7721-335"
    },
    {
        "about": "รับซ่อม - ให้คำปรึกษา\nเกี่ยวกับ คอมพิวเตอร์ และ โทรศัพท์ (Apple)",
        "description": "รับซ่อม ให้คำปรึกษา เกี่ยวกับ ปัญหาคอมพิวเตอร์ และโทรศัพท์ หรือ อุปกรณ์ ตระกูล Apple ครับ ยินดีให้บริการด้วยความเต็มใจ\n\nหากถูกใจยินดีรับเงินบริจาคเพื่อสมทบทุนเปิดร้านต่อไปครับ ",
        "emails": [
            "non_stop30@hotmail.com"
        ],
        "id": "1767604123466648",
        "location": {
            "city": "Mae Sot",
            "country": "Thailand",
            "latitude": 16.7167,
            "longitude": 98.5667,
            "street": "1121/9 หมู่1 ต.ท่าสายลวด",
            "zip": "63110"
        },
        "name": "รับซ่อมคอมพิวเตอร์ออนไลน์ Byช่างนนท์",
        "phone": "081-5333226"
    },
    {
        "about": "รับปรึกษาปัญหาเกี่ยวกับคอมพิวเตอร์และรับซ่อมคอมพิวเตอร์ทุกอาการ",
        "id": "135876273164415",
        "name": "รับซ่อมคอมฯจัดสเป็คและอัพเกรดคอมพิวเตอร์"
    },
    {
        "about": "รับซ่อมคอมพิวเตอร์ นอกสถานที่ ",
        "id": "1536601333276572",
        "name": "Xenon PC รับซ่อมคอมพิวเตอร์"
    },
    {
        "id": "971046119589449",
        "name": "เรียนซ่อมคอมพิวเตอร์ โน๊ตบุ๊ค มือถือ ปริ้นเตอร์ สําโรง สมุทรปราการ"
    },
    {
        "id": "407492236005745",
        "location": {
            "city": "Bangkok",
            "country": "Thailand",
            "street": "ตลิ่งชัน สุพรรบุรี",
            "zip": "10170"
        },
        "name": "รับซ่อม คอมพิวเตอร์ Repair your computer",
        "phone": "0809377411"
    },
    {
        "about": "บริการซ่อมคอมพิวเตอร์ โน๊ตบุค จำหน่ายคอมพิวเตอร์ และอุปกรณ์คอมพิวเตอร์ โทร 086-8415114",
        "id": "280410112145865",
        "location": {
            "city": "Srakeo",
            "country": "Thailand",
            "latitude": 13.89203,
            "longitude": 102.3733,
            "street": "วัฒนานคร",
            "zip": "27160"
        },
        "name": "Dotcom - บริการซ่อมคอมพิวเตอร์ จำหน่ายอุปกรณ์คอมพิวเตอร์",
        "phone": "0868415114"
    },
    {
        "about": "รับซ่อมจอแตก เปลี่ยนกระจกจอ IPHONE SAMSUUG ราคาแบบเบาๆ ครับ",
        "id": "153681108089058",
        "name": "อั๋นเทเลคอม ซ่อมมือถือและคอมพิวเตอร์@เชียงใหม่"
    },
    {
        "about": "ซ่อม อัฟเกรด PC/Notebook สั่งประกอบเครื่องใหม่ตามงบประมาณหรือตามสเปกที่ต้องการ,ให้คำปรึกษาด้าน IT",
        "id": "1098576886825250",
        "location": {
            "city": "Amphoe Kathu",
            "country": "Thailand",
            "latitude": 7.9142121881293,
            "longitude": 98.332805872487,
            "street": "11/1 ม.6 ถ.วิชิตสงคราม ต.กะทู้ อ.กะทู้ จ.ภูเก็ต",
            "zip": "83120"
        },
        "name": "IT Servizi ซ่อมคอมพิวเตอร์",
        "phone": "0956317702"
    },
    {
        "description": "รับซ่อมคอมพิวเตอร์ โน๊ตบุค อัพเกรดคอมพิวเตอร์\nเขียนโปรแกรม พิมงาน L.N Computer อยู่ตรงท่าน้ำนนท์ ปากซอยศรีพรสวรรค์ 088-021-3675\nLINE : DeK-Com",
        "id": "1529699400650056",
        "location": {
            "city": "เมืองนนทบุรี",
            "street": "นนทบุรี  ท่าน้ำนนทบุรีปากซอยศรีพรสวรรค์หลังโลตัสเอ็กเพรส"
        },
        "name": "ซ่อมคอมพิวเตอร์ อัพเกรดคอมพิวเตอร์ ท่าน้ำนนทบุรี",
        "phone": "0880213675"
    },
    {
        "id": "516598908480192",
        "location": {
            "city": "Bangkok",
            "country": "Thailand",
            "latitude": 13.780635,
            "longitude": 100.71248,
            "street": "เพชรเกษม 48",
            "zip": "10160"
        },
        "name": "รับซ่อมคอมพิวเตอร์นอกสถานที่",
        "phone": "0825533543 ID Line chinjung777"
    },
    {
        "about": "ให้บริการซ่อมคอมพิวเตอร์แสกนไวรัสคอมพิวเตอร์",
        "id": "434325243422297",
        "location": {
            "city": "Maha Sarakham",
            "country": "Thailand",
            "latitude": 16.1833,
            "longitude": 103.3,
            "street": "โรงเรียนท่าขอนยางพิทยาคม",
            "zip": "44000"
        },
        "name": "ซ่อมคอมพิวเตอร์แสกนไวรัส",
        "phone": "0913416276"
    },
    {
        "emails": [
            "niknew1996@hotmail.com"
        ],
        "id": "1675078769373106",
        "location": {
            "city": "Amphoe Phra Nakhon Si Ayutthaya",
            "country": "Thailand",
            "street": "91/1 หมู่ 1 ตำบลธนู",
            "zip": "13000"
        },
        "name": "N1 ซ่อมคอมพิวเตอร์ อยุธยา",
        "phone": "092-916-2582"
    },
    {
        "about": "รับซ่อมคอมพิวเตอร์ มีนบุรี\nรับซ่อมและวางระบบคอมพิวเตอร์ มีนบุรี",
        "emails": [
            "nirutpro@hotmail.com"
        ],
        "id": "179371992264800",
        "location": {
            "city": "Bangkok",
            "country": "Thailand",
            "latitude": 13.8030796,
            "longitude": 100.8133087,
            "street": "113/118 ม.คณาทรัพย์ ซ.เจริญพัฒนา7 ถนนเจริญพัฒนา แขวงบางชัน เขตคลองสามวา",
            "zip": "10510"
        },
        "name": "รับซ่อมคอมพิวเตอร์ มีนบุรี หทัยราษฎร์ คลองสามวา นิมิตรใหม่ รามอินทรา 117",
        "phone": "0926656622"
    },
    {
        "about": "ร้านซ่อมคอมพิวเตอร์/โน๊ตบุ๊ค/และอุปกรณ์ที่เกี่ยวข้อง",
        "id": "1629681120643593",
        "location": {
            "city": "Nakhon Si Thammarat",
            "country": "Thailand",
            "latitude": 8.4167299,
            "longitude": 99.9175491,
            "street": "742/24 ซ.เทพราช หลังห้างทองแม่พวงเพ็ญ ตลาดท่าม้า ต.ในเมือง อ.เมือง",
            "zip": "80000"
        },
        "name": "Khonnet-IT\"ร้านซ่อมคอมพิวเตอร์/โน๊คบุ๊ค/อุปกรณ์ที่เกี่ยวข้อง\"",
        "phone": "084-1896860"
    },
    {
        "about": "รับซ่อมคอมพิวเตอร์PC/Notebook,ซ่อมโทรศัพท์มือถือ \nเบอร์โทร์091-8258097",
        "id": "1670140959865968",
        "location": {
            "city": "Amphoe Kathu",
            "country": "Thailand",
            "latitude": 7.86667,
            "longitude": 98.2667,
            "street": "101/40 ต.ราไวย์ อำเภอเมืองภูเก็ต จ.ภูเก็ต",
            "zip": "83000"
        },
        "name": "ซ่อมคอมพิวเตอร์ in phuket",
        "phone": "0918258097"
    },
    {
        "about": "บริการซ่อมคอมฯ นอกสถานที่ รับติดตั้ง ซ่อมแอร์แอร์บ้าน และ CCTV",
        "id": "565441383547287",
        "name": "รับซ่อม คอมพิวเตอร์ แอร์บ้าน ติดตั้งกล้องวงจรปิด",
        "phone": "0909322893"
    },
    {
        "emails": [
            "tungkuayteach@gmail.com"
        ],
        "id": "1650197628544921",
        "location": {
            "city": "Tha Khantho",
            "country": "Thailand",
            "latitude": 16.93240655,
            "longitude": 103.22890071,
            "street": "โรงเรียนท่าคันโทวิทยาคาร อำเภอท่าคันโท",
            "zip": "46190"
        },
        "name": "ศูนย์ซ่อมบำรุงไมโครคอมพิวเตอร์ โรงเรียนท่าคันโทวิทยาคาร",
        "phone": "0810500799"
    },
    {
        "id": "198142733530849",
        "name": "ช่างซ่อมคอมพิวเตอร์"
    },
    {
        "about": "ำำ",
        "emails": [
            "karupop@hotmail.com"
        ],
        "id": "405643872852397",
        "location": {
            "street": "บางแขน",
            "zip": "10220"
        },
        "name": "รับซ่อมโน็ตบุ็กคอมพิวเตอร์",
        "phone": "0851141668"
    },
    {
        "id": "536038126461105",
        "location": {
            "city": "Bangkok",
            "country": "Thailand",
            "latitude": 13.860317,
            "longitude": 100.710114
        },
        "name": "ศิริซ่อมคอมพิวเตอร์"
    }
]