[
    {
        "about": "รับซ่อมคอมพิวเตอร์ โน๊ตบุ๊ค",
        "id": "1889963394561294",
        "location": {
            "city": "มหาสารคาม",
            "zip": "44000"
        },
        "name": "8BiT Service. รับซ่อมคอมพิวเตอร์ โน๊ตบุ๊ค มหาสารคาม",
        "phone": "090-275-3535"
    },
    {
        "id": "113338225486849",
        "name": "Procom ซ่อม ประกอบ อัพเกรดคอมพิวเตอร์"
    },
    {
        "id": "576673182410329",
        "location": {
            "city": "Phitsanulok",
            "country": "Thailand",
            "latitude": 16.832859688454,
            "longitude": 100.21984004425
        },
        "name": "ศูนย์ซ่อมคอมพิวเตอร์โน๊ตบุ๊ค/แท็บแ"
    },
    {
        "about": "จำหน่าย บริการซ่อมคอมพิวเตอร์ โทรศัพ MONITOR ทุกปัญหาทุกอาการค่าบริการเริ่มที่100-500 บาท ",
        "emails": [
            "cee_chan@hotmail.com"
        ],
        "id": "597274610333769",
        "location": {
            "city": "Min Buri",
            "country": "Thailand",
            "latitude": 13.804309364092,
            "longitude": 100.7095348835,
            "street": "ชาญคอมพิวเตอร์ ซ่อมคอมแถวมีนบุรี ถนนเสรีไทย ซอยเสรีไทย 91",
            "zip": "10510"
        },
        "name": "ชาญคอมพิวเตอร์ ร้านซ่อมคอมซ่อมโทรศัพแถวมีนบุรี แฟตบางชัน สหยูเนี่ยน",
        "phone": "0837879335"
    },
    {
        "about": "ซ่อม/ประกอบ/อัพเกรด คอมพิวเตอร์/กล้องวงจรปิด/Network",
        "description": "รับ ซ่อม/ประกอบ/อัพเกรด คอมพิวเตอร์/ติดตั้งกล้องวงจรปิด CCTV/Network/LAN/กรุงเทพ/นนทบุรี/ตลิ่งชัน",
        "emails": [
            "professional_inter@hotmail.com"
        ],
        "id": "459093320786430",
        "location": {
            "city": "Taling Chan",
            "country": "Thailand",
            "street": "Bangkok Nonthabiri",
            "zip": "10170"
        },
        "name": "รับซ่อม คอมพิวเตอร์ Repair your computer",
        "phone": "0809377411"
    },
    {
        "id": "374683726043670",
        "location": {
            "city": "Sathing Phra",
            "country": "Thailand",
            "latitude": 7.49133,
            "longitude": 100.41976,
            "street": "สทิงพระ",
            "zip": "90190"
        },
        "name": "Job It จำหน่าย ซ่อม คอมพิวเตอร์",
        "phone": "0879963128"
    },
    {
        "about": "ขาย-ซ่อมโทรศัพท์มือถือ,คอมพิวเตอร์",
        "description": "ขาย-ซ่อม มือถือและอุปกรณ์คอมทุกชนิด Tel. 0912598789 หน้าตลาดพุเตย\n",
        "id": "628405697196335",
        "location": {
            "city": "Ban Phu Toei",
            "country": "Thailand",
            "latitude": 15.5757409564,
            "longitude": 101.0640088572,
            "street": "หน้าตลาดพุเตย ต.พุเตย อ.วิเชียรบุรี จ.เพชรบูรณ์",
            "zip": "67180"
        },
        "name": "หมู หมู it ขาย-ซ่อม มือถือ,คอมพิวเตอร์ ตรงข้ามหน้าตลาดพุเตย",
        "phone": "091-2598789"
    },
    {
        "about": "ตอนนี้เว็บกำลังปรับปรุงแล้วเสร็จไปประมาณ 70%แล้ว แวะเยี่ยมชมได้นะคะ www.มาสเตอร์ไอที.com",
        "description": "สอน Hardware computer และ Software computer",
        "id": "198914540131764",
        "location": {
            "city": "กรุงเทพ",
            "street": "หมู่บ้านเพชรเกษม2(ฝั่งเหนือ)",
            "zip": "10160"
        },
        "name": "สอนซ่อมประกอบคอมพิวเตอร์ : ศูนย์การสอนวิชาชีพคอมพิวเตอร์มาสเตอร์ไอที",
        "phone": "0880093364"
    },
    {
        "about": "รับซ่อมจอLCD LEDทุกอาการราคากันเอง ปรึกษาปัญหาเรื่องคอมพิวเตอร์โทรหาเราโดยช่างมืออาชีพ",
        "id": "350991691694242",
        "location": {
            "city": "Bangkok",
            "country": "Thailand",
            "latitude": 13.85238,
            "longitude": 100.4887,
            "street": "ห้างพันทธิ์งามวงวาน",
            "zip": "11000"
        },
        "name": "รับซื้อขายอะไหล่คอม รับซ่อมคอมพิวเตอร์ทุกอาการ",
        "phone": "0832571907"
    },
    {
        "about": "Augrand Smart Phone ซ่อม สมาทโฟน และ it ทุกประเภท 080-0676899 087-9986046\nLine id aekmeaw",
        "emails": [
            "aek_aek27@hotmail.com"
        ],
        "id": "338379846314737",
        "location": {
            "street": "กทม"
        },
        "name": "ร้านซ่อมมือถือสมานโฟน\u0026คอมพิวเตอร์\u0026โน๊ตบุ๊ค Augrand Smart Phone",
        "phone": "0800676899"
    },
    {
        "about": "รับซ่อมคอมถึงบ้าน ในเขตศรีราชา พัทยา บางแสน บางพระ สัตหีบ อ่าวอุดม ชลบุรี",
        "description": "รับซ่อมคอมพิวเตอร์ โน๊ตบุ๊ค วางระบบคอมต่าง ๆ นอกสถานที่ บริการถึงบ้าน และสำนักงาน ในเขตพื้นที่ ศรีราชา พัทยา บางแสน บางพระ บางละมุง อ่าวอุดม แหลมฉบัง จังหวัดชลบุรี โดยทีมงานช่างผู้ชำนาญ ประสบการณ์มากกว่า 10 ปีในงานด้านคอมพิวเตอร์ และไอที พร้อมให้คำปรึกษาทุกปัญหาคอมพิวเตอร์ ติดต่อ ช่างอ๋อง เบอร์โทร 081-259-6923 ไลน์ไอดี Ongjaa ยินดีให้บริการครับ\n ซ่อมคอมฯถึงบ้าน, Office ระบบงาน IT ทุกชนิด ที่นี่\nเรามีทีมงานผู้เชี่ยวชาญด้านงานซ่อมคอมพิวเตอร์ โน๊ตบุ๊ค และระบบเน็ตเวิร์ค งานไอทีต่าง ๆ ให้บริการด้วยทีมงานซ่อมมืออาชีพและมีประสบการณ์การทำงานด้านไอทีมากกว่า 10 ปี ในองค์กรเอกชนและรัฐวิสาหกิจ โดยให้บริการซ่อมถึงบ้าน สำนักงาน หรือสถานที่หน้างานของลูกค้า เราเน้นการให้บริการที่ถูกต้อง รวดเร็ว แก้ปัญหาตรงจุด เพิ่มความราบรื่นในการทำงานของผู้ใช้งานกับคอมพิวเตอร์\nค่าซ่อมคิดตามระยะทางของสถานที่ให้บริการ โทรสอบถามอาการ และประเมินราคากับเราก่อนได้ บริการของเราซื่อตรง จริงใจ ตรงไปตรงมา ตลอดจนคำแนะนำที่ถูกต้องทำให้ลูกค้ามั่นใจ และไว้ใจเราได้ตลอดมา ความเชี่ยวชาญอย่างแท้จริง เเละยังมีนโยบายที่ชัดเจนในการสนับสนุนงานซ่อม ด้วยการรับประกันนาน 30 วัน พื้นที่ให้บริการซ่อมคอม ศรีราชา พัทยา สัตหีบ บางพระ บางแสน หนองมน เครือสหพัฒน์ อ่าวอุดม แหลมฉบัง  และใกล้เคียง ในจังหวัดชลบุรี\nร้านซ่อมคอมพิวเตอร์ เลขที่ 345/22 ม.8 ต.สุรศักดิ์ อ.ศรีราชา จ.ชลบุรี 20110 โทร 081-2596923 ช่างอ๋อง\n",
        "emails": [
            "sriracha88@hotmail.com",
            "nnks2588@gmail.com"
        ],
        "id": "414176278780197",
        "location": {
            "city": "Chonburi",
            "country": "Thailand",
            "latitude": 13.36,
            "longitude": 100.98,
            "street": "345/22 ม.8 ต.สุรศักดิ์ อ.ศรีราชา",
            "zip": "20110"
        },
        "name": "ซ่อมคอมพิวเตอร์ ศรีราชา พัทยา บางแสน ชลบุรี",
        "phone": "081 2596923 or 082 475 8624"
    },
    {
        "emails": [
            "natthaponsricort@gmail.com"
        ],
        "id": "100406126980252",
        "location": {
            "city": "Chiang Mai",
            "country": "Thailand",
            "zip": "50200"
        },
        "name": "บริการซ่อมคอมพิวเตอร์ออนไลน์",
        "phone": "0926014773"
    },
    {
        "about": "เอสเดอะบิวคอม\u0026มอเตอร์ ซ่อมคอม NOTEBOOK \u0026 PC ซื้อขายสินค้า IT ",
        "id": "590927274281481",
        "location": {
            "city": "Chiang Mai",
            "country": "Thailand",
            "latitude": 18.807260480618,
            "longitude": 98.968299020926,
            "street": "ต.ช้างเผือก อ.เมือง",
            "zip": "50300"
        },
        "name": "Sw Computer ซ่อม และ จำหน่าย อุปกรณ์ คอมพิวเตอร์ ทุกประเภท",
        "phone": "053-225663"
    },
    {
        "id": "405506969652434",
        "name": "ซ่อมคอมพิวเตอร์ ซ่อมท่อน้ำประปาภายในบ้าน"
    },
    {
        "about": "คุณใช้เราซ่อม",
        "id": "541251399250879",
        "location": {
            "city": "Lampang",
            "country": "Thailand",
            "latitude": 18.39182,
            "longitude": 99.62182,
            "street": "181 ถนนปงสนุก ต.เวียงเหนือ อ.เมือง",
            "zip": "52000"
        },
        "name": "ร้านซ่อม ขาย อุปกรณ์คอมพิวเตอร์",
        "phone": "089-8358324"
    },
    {
        "id": "346139148841731",
        "location": {
            "city": "Chiang Mai",
            "country": "Thailand",
            "latitude": 18.78988,
            "longitude": 98.93018,
            "street": "82 ม.7 ต.สุเทพ อ.เมือง",
            "zip": "50200"
        },
        "name": "รับซ่อมคอมพิวเตอร์จัดสเปคคอมลงโปรแกรม",
        "phone": "0916286854"
    },
    {
        "about": "หากมีปัญหากวนใจเรื่องคอม ปรึกษาเราสิคะ ",
        "description": "ทางร้านมีบริการรับซ่อม อัพเกรด ประกอบคอมพิวเตอร์ตามสเปคความต้องการลูกค้า รวมทั้งจำหน่ายอุปกรณ์คอมพิวเตอร์ราคาถูก สนใจลองเข้ามาติดต่อสอบถามได้ค่ะ ^__^\nสถานที่ตั้งร้าน : ร้านเลขที่ 73.7  โซนร้านสีส้ม ใกล้กับตลาดนานาเจริญตรงข้ามปั๊มบางจาก ถ.เสมาฟ้าคราม ลำลูกกาคลอง 2 ต.คูคต จ.ปทุมธานี\nนอกจากนี้  ทางร้านยังมีบริการให้คำปรึกษาและตรวจเช็คอาการ ฟรี!! โดยช่างผู้เชี่ยวชาญประสบการณ์ 7 ปี หรือหากไม่สะดวกมาที่ร้าน สามารถโทรมาติดต่อสอบถาม หรือพูดคุยสอบถามปัญหา ปรึกษาเรื่องคอมพิวเตอร์ได้ทางเพจ  https://www.facebook.com/Comservices หรือ\nTel. 080-7848475 (ปุ่น)\nLine. xxyangyfaiyxx (ฝ้าย)\n\n----ขอบพระคุณที่ให้ความไว้วางใจเราช่วยดูแลคอมคุณค่ะ----",
        "id": "591305927577485",
        "location": {
            "city": "อ.ลำลูกกา จ.ปทุมธานี",
            "street": "ร้านรับซ่อม Computer เฟส 2 ร้านที่ 9 (2/9) ตลาดนานาเจริญ ถ. เสมา-ฟ้าคราม ต.คูคต",
            "zip": "12130"
        },
        "name": "รับซ่อมและปรึกษาปัญหาคอมพิวเตอร์",
        "phone": "080-7848475"
    },
    {
        "about": "รับซ่อมคอมพิวเตอร์\nสอบถาม โทร.095-856-3532\nLine : newsk8z",
        "description": "รับซ่อมคอมพิวเตอร์ ลงโปรแกรม อัพเกรด แก้ปัญหาเครื่องช้า จัดสเปค\n\nบริการซ่อมถึงบ้าน (ตลาดสี่มุมเมือง)\nราคาเริ่มต้น 200.-\nสอบถามโทร.095-856-3532\nLine : newsk8z\n(หรือ หลังไมค์ครับ)",
        "id": "1728400790720654",
        "location": {
            "city": "คูคต",
            "street": "ตลาดสี่มุมเมือง"
        },
        "name": "รับซ่อมคอมพิวเตอร์ By Newsk8z",
        "phone": "0958563532"
    },
    {
        "id": "168887676491757",
        "name": "ซ่อมคอมพิวเตอร์"
    },
    {
        "about": "ซ่อม อัพเกรด เริ่มต้นที่ 300 บาท\nfix repair upgrade start from 300 bth",
        "description": "รับซ่อมโน๊ตบุ๊ค คอมพิวเตอร์ / Fix, repair Notebook Computer\nให้คำปรึกษา(ฟรี) / Give some advice service (Free)\nซ่อมตามอาการ / repair by problem \nล้างเครื่อง ลงโปรแกรมใหม่(xp, win 7, win 8) / back up, format \u0026 install new windows and Program \nติดตั้งระบบเน็ตเวิร์คขนาดเล็ก / Set up home network\nระบบอินเตอร์เน็ต / Set up internet system\nราคาเริ่มต้นที่ 300 บาท (ไม่รวมค่าอะไหล่)\nall service start from 300 bth (Not including spar part)\n\nบริการนอกสถานที่คิดค่าน้ำมันตามระยะทางครับ\nOn site service charge by distance.",
        "emails": [
            "tee_kh@hotmail.com"
        ],
        "id": "493087300825016",
        "location": {
            "city": "Amphoe Muang Phuket",
            "country": "Thailand",
            "latitude": 7.9563553188039,
            "longitude": 98.371590042114,
            "street": "96/23 Habitown",
            "zip": "83000"
        },
        "name": "รับซ่อมโน๊ตบุ๊ค คอมพิวเตอร์ ภูเก็ต ,Fix repair computer Phuket",
        "phone": "0872796524"
    },
    {
        "about": "บริการซ่อมเครื่องใช้ไฟฟ้า คอมพิวเตอร์ทุกอาการ แบบ ออกแบบระบบwifi  ",
        "id": "695323360595631",
        "name": "ซ่อมเครื่องใช้ไฟฟ้า/คอมพิวเตอร์ สุโขทัย",
        "phone": "0827735476"
    },
    {
        "id": "616117778481845",
        "location": {
            "city": "Bangkok",
            "country": "Thailand",
            "latitude": 13.6183,
            "longitude": 100.61105,
            "street": "ถนน เทพารัก หมู่บ้านบางปูนคร 2",
            "zip": "10270"
        },
        "name": "รับซ่อมคอมพิวเตอร์ PC ตั้งโต๊ะ \u0026 โน๊คบุ๊ค ลงโปรแกรม Windows อื่นๆ",
        "phone": "0863611760"
    },
    {
        "about": "ซ่อมคอมพิวเตอร์ โน๊ตบุ๊ค มือถือทุกรุ่น ทุกอาการเสีย ซ่อมด่วน ซ่อมเร็ว ราคาเป็นกันเอง",
        "description": "ซ่อมคอมพิวเตอร์ โน๊ตบุ๊ค มือถือทุกรุ่น ทุกอาการเสีย ซ่อมด่วน ซ่อมเร็ว ราคาเป็นกันเอง\nTel.0855949712\nTel.0965177255\nLine:pongsit0014",
        "emails": [
            "pongsit004@gmail.com"
        ],
        "id": "955448897822054",
        "location": {
            "city": "Hat Yai",
            "country": "Thailand",
            "latitude": 7.0152,
            "longitude": 100.39974,
            "zip": "90110"
        },
        "name": "ขาย-ซ่อม มือถือ คอมพิวเตอร์ โน๊ตบุ๊ค",
        "phone": "0855949712"
    },
    {
        "about": "รับซื้อ-ขาย คอมพิวเตอร์-โน็ตบุค อะไหล่ ",
        "emails": [
            "methijaroen@gmail.com"
        ],
        "id": "1423091351299625",
        "location": {
            "city": "Chonburi",
            "country": "Thailand",
            "latitude": 13.07057,
            "longitude": 101.01935,
            "street": "ฮาเบอร์มอลล์ แหลมฉบัง",
            "zip": "20230"
        },
        "name": "รับซ่อม จำหน่าย จำนำคอมพิวเตอร์ แหลมฉบัง เคลือสหพัฒน์ อ่าวอุดม",
        "phone": "088-1839482,087-7431524"
    },
    {
        "id": "1630064550583766",
        "name": "Setupcomputer รับซ่อมคอมพิวเตอร์ โน๊ตบุ๊ค จำหน่ายอุปกรณ์คอมพิวเตอร์ทุกชนิด"
    }
]