[
    {
        "about": "รับซ่อมคอมพิวเตอร์ และกู้ข้อมูล บริการถึงสถานที่พัก",
        "description": "รับซ่อมคอมพิวเตอร์ และกู้ข้อมูล บริการถึงสถานที่พัก โดยช่างผู้มีประสบการณ์การแข่งขันทักษะคอมพิวเตอร์ระดับประเทศ",
        "id": "174799552671074",
        "location": {
            "street": "รังสิตภิรมย์"
        },
        "name": "JJ Service รับซ่อมคอมพิวเตอร์และกู้ข้อมูล",
        "phone": "66898312618"
    },
    {
        "about": "ซ่อมโน๊ตบุ๊ PC ทุกอาการ จอแตก เปลี่ยนคียบอด การดจอ",
        "id": "1564631407134250",
        "location": {
            "city": "Bangkok",
            "country": "Thailand",
            "latitude": 13.6783895,
            "longitude": 100.6176605,
            "street": "ซีคอนสแควร์ ศรีนคริทร์ ชั่นB1 ห้อง ITB 45 ทางเข้า ไปษณี เลี้ยวขวา",
            "zip": "10260"
        },
        "name": "ซ่อมคอมพิวเตอร์โน๊ตบุ๊ต Mycom Computer and Servicer",
        "phone": "0892270171"
    },
    {
        "about": "1.รับซ่อมคอมพิวเตอร์ เครื่อง PC โน๊ตบุ๊ค และเน็ตบุ๊ค ทุกอาการ\n2.รับเดินสายแลน ภายในบ้าน/อาคาร",
        "description": "1.รับซ่อมคอมพิวเตอร์ ทุกอาการ *มีบริการนอกสถานที่ ซ่อมถึงบ้าน* \nอัพเกรด โปรแกรม PC \u0026 NOTEBOOK \u0026 NETBOOK \nอัตราค่าบริการซ่อมคอมพิวเตอร์ PC 350 บาท โน๊ตบุ๊ค เน็ตบุ๊ค 500 บาท ทุกอาการ/ไม่รวมอุปกรณ์  *รับประกัน 15 วัน หลังจากรับเครื่อง*\n2.รับเดินสายแลน ภายในบ้าน/อาคาร ราคาจุดละ 150-300 บาท(ดูความยากง่ายอีกที) ราคานี้ไม่รวมอุปกรณ์",
        "general_info": "พร้อมให้คำปรึกษาปัญหา ฟรี!!!!\nส่งซ่อมแล้ว ซ่อมไม่ได้ไม่คิดเงิน ไม่คิดค่าเปิดเครื่องจร้าาาาา\nโทรนัดวันเวลา แจ้งซ่อมทุกวัน 08.00 - 20.00น.\n*พื้นที่ให้บริการ : พื้นที่จ.ปทุมธานี และพื้นที่ใกล้เคียง",
        "id": "147898148708719",
        "location": {
            "city": "Pathum Thani",
            "country": "Thailand",
            "latitude": 14.066081168143,
            "located_in": "104958786206484",
            "longitude": 100.60594378049,
            "zip": "12000"
        },
        "name": "ซ่อมคอมพิวเตอร์",
        "phone": "0893585366"
    },
    {
        "id": "181988041938929",
        "name": "ซ่อมคอมพิวเตอร์"
    },
    {
        "id": "1092621080762905",
        "location": {
            "city": "Chaiyaphum",
            "country": "Thailand",
            "street": "125  หมู่2 ต.ชีลอง",
            "zip": "36000"
        },
        "name": "รับซ่อมคอมพิวเตอร์ถึงบ้าน",
        "phone": "0813971266"
    },
    {
        "description": "รับซ่อมคอมพิวเตอร์นอกสถานที่ โทร 086-103-4776",
        "id": "154927194574026",
        "name": "ซ่อมคอมพิวเตอร์"
    },
    {
        "about": "รับซ่อมคอมพิวเตอร์โคราช บริการซ่อมถึงที่บ้านท่านในราคาไม่แพงและรวดเร็ว",
        "description": "รับซ่อมคอมพิวเตอร์ทุกชนิดถึงที่บ้าน แก้ไขทุกปัญหาที่เกี่ยวข้องกับคอมพิวเตอร์ทุกรุ่นทุกรูปแบบทุกปัญหา รับวางระบบคอมพิวเตอร์ต่างๆ ร้านเกมส์ หอพัก อาคาร ราคาไม่แพง!! ",
        "emails": [
            "saksilaamazon@gmail.com"
        ],
        "id": "158557841152829",
        "location": {
            "city": "นคราชสีมา ",
            "street": "555 หมู่ 5 หมู่บ้านหนองบง ต.สุรนารี อ.เมือง",
            "zip": "30000"
        },
        "name": "รับซ่อมคอมพิวเตอร์โคราช",
        "phone": "098-229-5493"
    },
    {
        "about": "ซ่อมคอมพิวเตอร์ออนไลน์\nซ่อมคอมพิวเตอร์บริการถึงที ราคาเริ่มต้น 200 บาท",
        "id": "1107075235975450",
        "name": "ซ่อมคอมพิวเตอร์แพร่"
    },
    {
        "id": "398069323615155",
        "location": {
            "city": "Amphoe Muang Phuket",
            "country": "Thailand",
            "street": "buypass road",
            "zip": "83000"
        },
        "name": "ซ่อมคอมพิวเตอร์ ภูเก็ต",
        "phone": "0867420673"
    },
    {
        "about": "เราโดนปิด facebook ด้วย ข้อหา fakeprofile หลังจากใช้งานมานาน มี ข้อมูลข้อความมากมาย",
        "description": "เราโดนปิด facebook ด้วย ข้อหา fackprofile หลังจากใช้งานมานาน มี ข้อมูลข้อความมากมาย แสนเสียดาย เสียความรู้สึก ถุยๆๆๆๆ  ขอสรุปตรงนี้ ว่า  facebook มันแย่มาก  พิสูจน์ตัวตน แล้ว ก็ยัง ไม่ยอมคืน  ใครที่คิดว่า  ที่แห่งนี้ เป็นบ้านของตัวเอง น่ะ คิดผิดอย่างมาก มันเพียงแค่ ให้ พวกคุณได้ สิงสถิตย์ เพียงชั่วคราว และไม่จีรังยั่งยืน",
        "id": "186096501489422",
        "location": {
            "city": "Bangkok",
            "country": "Thailand",
            "street": "19/9 หมู่16 บางระมาด ตลิ่งชัน กทม",
            "zip": "10170"
        },
        "name": "ซ่อมคอมพิวเตอร์",
        "phone": "0846697038"
    },
    {
        "about": "คอมพิวเตอร์ ฮาร์ดแวร์ ซอฟท์แวร์\n0866841626 \n0855904254\nBy ช่างสุข",
        "description": "ราคาซ่อม เท่ากันทุกชนชั้น\nโดยช่างที่มี (จรรยาบรรณ)\nเราเน้นความสำคัญของคุณลูกค้า\nด้วยความเคารพ by ช่างสุข",
        "emails": [
            "konggapan2527@hotmail.co.th"
        ],
        "id": "1261556900537903",
        "name": "บริการซ่อม คอมพิวเตอร์ พีซี-โน๊ตบุ๊ค ทุกอาการ"
    },
    {
        "about": "รับซ่อมคอมนอกสถานที่ ชุมพวง - ประทาย",
        "description": "ซ่อมคอมพิวเตอร์ โทรศัพย์มือถือ  ทุกอาการ 200 บาท รับประกัน 1 เดือน ติดต่อ คุณวิษณุ 094-5179679",
        "emails": [
            "ab_itservice@hotmail.com"
        ],
        "id": "673359166052709",
        "location": {
            "city": "นครราชสีมา",
            "street": "199 หมู่5 บ้านดอนอีลุ่ม ต.ตลาดไทร อ.ประทาย",
            "zip": "30180"
        },
        "name": "ซ่อมคอมพิวเตอร์ ชุมพวง ประทาย",
        "phone": "094-5179679"
    },
    {
        "about": "บริการซ่อมคอมนอกสถานที่ ถึงสำนักงาน ออฟฟิส คอนโด และที่พักอาศัย ราคาเริ่มต้น 400 บาท",
        "description": "อยากซ่อมคอม ไม่ต้องยกไปไหน เราไปหาถึงที่ คลิ๊กเลย บริการดีดี ค่าใช้จ่ายถูก เชื่อมั่นในการบริการของเราสิครับ ซ่อมคอมนอกสถานที่",
        "id": "1020016834705998",
        "location": {
            "city": "Bangkok",
            "country": "Thailand",
            "latitude": 13.7310495,
            "longitude": 100.6078491,
            "street": "235 ซอยพัฒนาการ 20 ถนนพัฒนาการ แขวงสวนหลวง เขตสวนหลวง",
            "zip": "10250"
        },
        "name": "บริการซ่อมคอมพิวเตอร์นอกสถานที่ โซน พระราม4 สุขุมวิท สีลม สาทร อโศก ทองหล่อ",
        "phone": "0957278083"
    },
    {
        "id": "977143665677782",
        "location": {
            "city": "Pathum Thani",
            "country": "Thailand",
            "latitude": 13.9658298,
            "longitude": 100.5340881,
            "street": "18/6-7",
            "zip": "12150"
        },
        "name": "รับซ่อมคอมพิวเตอร์ ประกอบเครื่อง  เขตลำลูกกา-รังสิต-นวมินบั",
        "phone": "0889625329"
    },
    {
        "about": "บริการซ่อมคอมพิวเตอร์ ที่บ้าน โรงเรียน รีสอร์ท บริษัท ร้านอินเตอร์เน็ต ฯลฯ โทร.084-964-5986",
        "emails": [
            "mrchalong@hotmail.com"
        ],
        "id": "680360328693013",
        "location": {
            "city": "สงขลา",
            "street": "สงขลา"
        },
        "name": "รับซ่อมคอมพิวเตอร์ถึงบ้าน จังหวัดสงขลา",
        "phone": "0849645986"
    },
    {
        "about": "ซื้อ ขาย ซ่อม คอมพิวเตอร์ นอกสถานที่\nbuy sell repair Computer onsite services",
        "id": "169807056691787",
        "name": "ซ่อม คอมพิวเตอร์ นอกสถานที่"
    },
    {
        "about": "                                                           บริการรับซ่อมคอมถึงบ้าน   \t\r\n                                                   โทร 086-655-7112",
        "id": "1427938880771629",
        "name": "รับซ่อมคอมพิวเตอร์นอกสถานที่-0866557112"
    },
    {
        "about": "ซ่อมจำหน่ายเครื่องคอมพิวเตอร์",
        "id": "676192782431091",
        "name": "ซ่อมคอมพิวเตอร์"
    },
    {
        "about": "ร่วมกันแชร์ปัญหาการใช้งานคอมพิวเตอร์เพื่อการศึกษา",
        "emails": [
            "titnon150@gmail.com"
        ],
        "id": "839319062831531",
        "name": "ซ่อมบำรุงคอมพิวเตอร์"
    },
    {
        "about": "บริการซ่อมคอมพิวเตอร์ พื้นที่ ชลบุรี TEL 089-4983010",
        "id": "575835675788965",
        "location": {
            "city": "ชลบุรี",
            "street": "นิคมอุสาหกรรม อมตะนคร ชลบุรี",
            "zip": "20000"
        },
        "name": "ซ่อมคอมพิวเตอร์ ชลบุรี",
        "phone": "089-4983010,038440588"
    },
    {
        "id": "690978447699831",
        "name": "ร้านน้องโบว์เน็ตเกมส์/รับซ่อมคอมพิวเตอร์ เบอร์โทร 085-914-8807"
    },
    {
        "about": "ซ่อมคอมพิวเตอร์รายเดือนถูกและเร็ว",
        "id": "560354860770354",
        "name": "ซ่อมคอมพิวเตอร์รายเดือนถูกถูก"
    },
    {
        "about": "รับซ่อมคอมพิวเตอร์ โน๊ตบุ๊ค",
        "id": "1539134919691375",
        "name": "รับซ่อมคอมพิวเตอร์"
    },
    {
        "about": "รับซ่อมคอมพิวเตอร์เน็ตเวอคทั้งในและนอกสถานที่  ",
        "description": "- รับซ่อมคอมพิวเตอร์ PC , Notebook\n- วางระบบเครือข่ายเดินสาย Lan\n- ทำระบบเก็บ Log File ตาม พรบ.คอมพิวเตอร์",
        "emails": [
            "nu__com@hotmail.com"
        ],
        "id": "277081072382521",
        "location": {
            "street": "เมืองนครราชสีมา",
            "zip": "30000"
        },
        "name": "ซ่อม คอมพิวเตอร์ เน็ตเวิร์ค  โคราช",
        "phone": "0833832304"
    },
    {
        "about": "SalesDD บริการซ่อมคอมพิวเตอร์ ดูแลตอมพิวเตอร์รายเดือน",
        "description": "บริการปรึกษาปัญหาคอมพิวเตอร์ รับซ่อมคอมพิวเตอร์ จัดทำเว็บไซต์ ทำ SEO เว็บไซต์",
        "id": "161565107230541",
        "location": {
            "city": "Bangkhunthien",
            "country": "Thailand",
            "latitude": 13.62588466588,
            "longitude": 100.44512271881,
            "street": "474/322 ฮาบิทาว์ เนสท์",
            "zip": "10150"
        },
        "name": "บริการซ่อมคอมพิวเตอร์ถึงออฟฟิค โรงงาน บ้าน คอนโด รับเดินระบบคอมพิวเตอร์",
        "phone": "0891679678"
    }
]