[
    {
        "id": "337469473079422",
        "name": "คอมซิ- บริการซ่อมคอมพิวเตอร์และถ่ายภาพ"
    },
    {
        "about": "ซ่อมบำรุง ปรับปรุงประสิทธิภาพเครื่องคอมพิวเตอร์",
        "id": "544521922337765",
        "location": {
            "city": "อำเภอแม่ทา จังหวัดลำพูน ",
            "street": "291 หมู่ 3 ตำบลทาสบเส้า",
            "zip": "51140"
        },
        "name": "ศูนย์ซ่อมบำรุงและรักษาคอมพิวเตอร์ โรงเรียนแม่ทาวิทยาคม ลำพูน",
        "phone": "053976296"
    },
    {
        "about": " ขายเครื่องเสียงมือสองอะไหล่คอมพิวเตอร์มือสองพร้อมบริการซ่อมครบวงจร",
        "emails": [
            "vira95418@gmail.com"
        ],
        "id": "892207427528853",
        "location": {
            "city": "Ubon Ratchathani",
            "country": "Thailand",
            "street": "อ เมืองอุบลราชธานี",
            "zip": "34000"
        },
        "name": "ขายเครื่องเสียงมือสองอะไหล่คอมพิวเตอร์มือสองพร้อมบริการซ่อมครบวงจร",
        "phone": "0885840747"
    },
    {
        "about": "รับซื้อ-ซ่อมและขายอุปกรคอมพิวเตอร์ ราคาย่อมเยาว์  ",
        "emails": [
            "motive_emotion@hotmail.com"
        ],
        "id": "1633843786850156",
        "location": {
            "city": "Chaiyaphum",
            "country": "Thailand",
            "latitude": 15.8,
            "longitude": 102.033,
            "street": "97 หมู่20 ต.หนองแวง อ.หนองบัวแดง",
            "zip": "36210"
        },
        "name": "รับซื้อซ่อมขาย คอมพิวเตอร์ หนองบัวแดง",
        "phone": "0613902120"
    },
    {
        "about": "รับทำผลิตตรายาง ต่างๆ ที่ร้านเม็งรายคอมพิวเตอร์ เม็งรายเครื่องเขียน",
        "id": "167367166805294",
        "name": "เม็งรายคอมพิวเตอร์ รับทำผลิตตรายาง ซ่อมและจำหน่ายคอมพิวเตอร์ทุกชนิด"
    },
    {
        "id": "117520768360037",
        "location": {
            "city": "Prachin",
            "country": "Thailand",
            "street": "ถนนต่ำ ต.บ้านพระ อ.เมือง จ.ปราจีนบุรี",
            "zip": "25300"
        },
        "name": "รับซ่อม ประกอบ ขาย ติดตั้งระบบ Network คอมพิวเตอร์",
        "phone": "084-7844035"
    },
    {
        "about": "รับซ่อมคอมพิวเตอร์ โน้ตบุ๊ค ปริ้นเตอร์ แท็บแล็บ ปลดล็อครหัส ลงแอป ราคาถูก",
        "id": "803932309633045",
        "location": {
            "city": "Bangkok",
            "country": "Thailand",
            "street": "82 หมู่ 8 บ้านหนองตอ ต.ดอนแรด อ.รัตนบุรี",
            "zip": "32130"
        },
        "name": "รับซ่อมคอมพิวเตอร์ ร้านน้องมิ่งเน็ตคอม",
        "phone": "0856222270"
    },
    {
        "id": "1645678455671620",
        "location": {
            "city": "Pak Phanang",
            "country": "Thailand",
            "latitude": 8.3480674537096,
            "longitude": 100.19934654236,
            "zip": "80140"
        },
        "name": "ร้านแนนปริ้นเตอร์ ซ่อมจำหน่าย ปริ้นเตอร์ คอมพิวเตอร์ โน๊ตบุ๊ค"
    },
    {
        "about": "Connex ศูนย์ซ่อม โน๊ตบุ๊ค คอมพิวเตอร์ ปริ้นเตอร์ มือถือ สมาร์ทโฟน อุปกรณ์ไอที",
        "description": "Connex ศูนย์ซ่อม โน๊ตบุ๊ค คอมพิวเตอร์ ปริ้นเตอร์ มือถือ สมาร์ทโฟน อุปกรณ์ไอที",
        "emails": [
            "connexm@hotmail.com"
        ],
        "id": "722989741120159",
        "location": {
            "city": "Chaiyapoom",
            "country": "Thailand",
            "latitude": 15.8,
            "longitude": 102.033
        },
        "name": "Connex' ศูนย์ซ่อม มือถือ โน๊ตบุ๊ค คอมพิวเตอร์"
    },
    {
        "about": "ติดต่อได้ที่ 082-778-1032\nLine: simple-it",
        "description": "หากต้องการสอบถามข้อมูลเพิ่มเติมเกี่ยวกับการบริการทางร้าน ไม่ว่าจะเป็น การซ่อมโน๊ตบุ๊ค \n ซ่อมคอมพิวเตอร์ หรือต้องการทราบรายละเอียดสินค้า\n\nติดต่อได้ที่ 082-778-1032\nLine: simple-it\nสาขาพาราไดร์ พาร์ค \nสาขาตึกคอมศรีราชา \nสาขาตึกคอมชลบุรี \n\nหรือจะมาถึงร้าน Simple it เลยก็ได้จ้า\n ขอบคุณที่อุดหนุนกันนะค่ะ",
        "id": "442741955784448",
        "location": {
            "city": "ชลบุรี  ",
            "street": "สาขาตึกคอมชลบุรี   สาขาตึกคอมศรีราชา",
            "zip": "20230"
        },
        "name": "ร้าน ซิมเปิ้ล อิท  จำหน่ายอะไหล่โน๊ตบุ๊ค-รับซ่อมโน๊ตบุ๊ต คอมพิวเตอร์",
        "phone": "082-778-1032"
    },
    {
        "about": "จำหน่าย อุปกรณ์ อะไหล่ ซ่อม คอมพิวเตอร์ ตั้งโต๊ะ Notebook ทุกยี่ห้อ",
        "description": "ช่างเอฟ 0852999418 1-2-Call 0863474603 True [Line 0852999418 F_TEE]\nจำหน่าย อุปกรณ์ อะไหล่ ซ่อม โทรศัพท์ แท็บเล็ต คอมพิวเตอร์ ตั้งโต๊ะ Notebook รับ Support งานต่างๆ ติดตั้งระบบร้านเกมส์ NO-HDD ติดตั้งกล้องวงจร IP Camera ระบบโทรศัพท์สำนักงาน รับทำโปรเจค ปวช. ปวส. ไมโครคอนโทรเลอร์",
        "emails": [
            "f.samart@gmail.com"
        ],
        "id": "447668002004539",
        "location": {
            "city": "Prachuap Khiri Khan",
            "country": "Thailand",
            "street": "นิคม กม.5",
            "zip": "77210"
        },
        "name": "จำหน่าย อุปกรณ์ อะไหล่ ซ่อม โทรศัพท์ แท็บเล็ต คอมพิวเตอร์ ตั้งโต๊ะ Notebook",
        "phone": "0852999418"
    },
    {
        "about": "STC computer ให้บริการซ่อมคอมถึงบ้าน ขายอะไหล่คอมพิวเตอร์",
        "description": "STC computer\nซ่อมคอมพิวเตอร์ Notebook \u0026 PC \u0026 Server,\nขายอุปกรณ์ อะไหล่คอมพิวเตอร์\nรับให้คำปรึกษาด้านคอมพิวเตอร์และให้บริการซ่อมนอกสถานที่",
        "emails": [
            "kittisak_sinsiriwat@yahoo.com"
        ],
        "id": "448771265261136",
        "location": {
            "city": "Bangkok",
            "country": "Thailand",
            "latitude": 13.70283,
            "longitude": 100.67317,
            "street": "5/500 ทุ่งเศรษฐี แยก41 แขวงด้อกไม้ เขตประเวศ",
            "zip": "10250"
        },
        "name": "บริการซ่อมคอมพิวเตอร์ถึงบ้าน      ซื้อ-ขายอะไหล่คอม /รามคำแหง2"
    },
    {
        "about": "up T@ you รับซ่อมคอมพิวเตอร์",
        "description": ":รับ กู้ข้อมูลซ่อมแซมเครื่อง เปลี่นยอะไหล่\n\n:รับ ติดตั้งระบบ ออฟฟิต อินเตอร์เน็ท Netcafe\n\n:รับ พิมพ์งาน แปลเอกสาร ทำภาพสไลท์โชว์\n\n:รับ แก้ไขรูป ออกแบบ ปกcd dvd\n\n:รับ ปรึกษา สอบถาม ปัญหาต่าง ๆ เกี่ยวกับคอมพิวเตอร์",
        "emails": [
            "skzkaka@hotmail.com"
        ],
        "id": "257519234262380",
        "location": {
            "city": "Bangkok",
            "country": "Thailand",
            "street": "Soi.Yenarkard,  Prarama 4",
            "zip": "10210"
        },
        "name": "up T@ you รับซ่อมคอมพิวเตอร์",
        "phone": "085-684-9909,084-696-6069"
    },
    {
        "about": "ไบกาไอที รับประกอบ-ซ่อม-จำหน่ายอะไหล่ คอมพิวเตอร์ตั้งโต๊ะ โน้ตบุ๊ค และอุปกรณ์ไอทีอื่นๆ\n",
        "description": "รับประกอบ ซ่อม จำหน่ายอะไหล่ คอมพิวเตอร์ตั้งโต๊ะ โน้ตบุ๊ค และอุปกรณ์ไอทีอื่นๆ\nที่นี่เรามีวิศวกรผู้เชี่ยวชาญ ที่พร้อมให้คำปรึกษา เรื่องไอที\nมีปัญหาเรื่องอุปกรณ์ไอที ต้องการวางระบบ ไว้วางใจให้เราดูแลคุณ ไบกาไอที @สิงหนคร",
        "emails": [
            "bicait.th@gmail.com"
        ],
        "id": "273019022889797",
        "location": {
            "city": "Changwat Songkhla",
            "country": "Thailand",
            "latitude": 7.22847,
            "longitude": 100.53318,
            "street": "สงขลา-ระโนด ต.หัวเขา อ.สิงหนคร",
            "zip": "90280"
        },
        "name": "ไบกาไอที ซ่อม ประกอบ จำหน่าย คอมพิวเตอร์ at สิงหนคร",
        "phone": "+6693 689 5650"
    },
    {
        "about": "J\u0026Tขายซ่อมคอมพิวเตอร์ กล้องวงจรปิด086 3479581 www.thairayong.com/computer",
        "description": "(เปิดร้านเฉพาะ เสาร์-อาทิตย์ วันปกติโทรสอบถามหรื่อสั่งทาง INBOX)\nhttp://thairayong.com/computer\n#สินค้า #\nอุปกรณ์คอมพิวเตอร์\nอุปกรณ์เชื่อมต่อ INTERNET\nprinter\nหมึกปริ้นเตอร์\n\n#บริการ#\nซ่อมคอมพิวเตอร์\nติดตั้งกล้องวงจรปิด",
        "id": "577561712305581",
        "location": {
            "city": "Rayong",
            "country": "Thailand",
            "latitude": 12.68172,
            "longitude": 101.25603,
            "street": "ตะพง",
            "zip": "2100"
        },
        "name": "J\u0026T Computer ตะพง ระยอง ขายซ่อม อุปกรณ์คอมพิวเตอร์ กล้องวงจรปิด",
        "phone": "086 3479581"
    },
    {
        "about": "สอนซ่อม เรียนซ่อม คอมพิวเตอร์ โน๊ตบุ๊ค แท็บเล็ต ปริ้นเตอร์ มือถือ มอนิเตอร์ เมนบอร์ด ระบบ lan",
        "description": "สอนซ่อม คอมพิวเตอร์ แท๊บเล็ต ปริ้นเตอร์ โทรศัพท์มือถือ เมนบอร์ด มอนิเตอร์\nสอนเทคนิคซ่อมคอมขั้นเทพ สายดำ ได้แนวความคิดมาจาก ประเทศจีน สหรัฐอเมริกา และ อีกหลายประเทศ รับรองเห็นผล ไม่มีเนื้อหาเรียนตามหนังสือเรียนทั่วไป เป็นวิชาการแบบใหม่ เก่งแน่นอน ไม่เหมือนที่ไหนอีกแล้ว มีที่เดียวในโคราช นครราชสีมา หลักสูตรนี้มีที่เดียว สอนซ่อม Harddisk สอนซ่อม Router Wifi สอนซ่อม เพาเวอร์ซัพพลาย และงานอิเล็กทรอนิกส์ ทุกชนิด ทุกเพศทุกัย ใครที่มีความสนใจสามารถเข้ามาสมัคร และนัดเวลาเรียนได้ เรียนตามเนื้อหาที่แสดงในหลักสูตร ไปเลื่อยๆ จนกว่าจะเข้าใจและสามารถ ทำงานได้จริง สอนปูพื้นฐานก่อนเข้าเรียน สามารถวิชา วิศวกรรมคอมพิวเตอร์ สาขาวิทยาการคอมพิวเตอร์ และ เป็นพื้นฐานในการทำงานทั่วไป\n\nสอนเขียนโปรแกรม java, htlm, php, node.js, python, Ardunio, grails, spring roo, mysql, groovy, C, C#, javascript, ่JQuery Mobile, Dreamweaver\nสอนการทำ Network ทำ Server Hotspot (สำหรับทำบัตรขาย หรือรหัสล็อกอินก่อนใช้ อินเทอร์เน็ต ตามหอพัก) Webserver, Basic Network การทำ Network พื้นฐาน\n\nรับทำโปรเจ็คจบนักศึกษา \n\nสนใน Tel : 0819551822 , 0857481492\n\n1. http://www.thai-electronic-house.org/\n2. http://facebook.com/thaiElectronichouse\n3. https://sites.google.com/site/xilekthrxniksheasnkhrrachsima\n4. https://sites.google.com/site/thaielectronichouse/home\n5. https://sites.google.com/site/korat20139/home\n6. https://sites.google.com/site/echkorat\n7. https://plus.google.com/+อิเล็กทรอนิกส์เฮ้าส์นครราชสีมาโคราช/posts\n8. https://plus.google.com/114381830488870260818/posts?hl=th\n9. http://echkorat.blog.com/\n10. https://www.facebook.com/groups/eleckorat\n11. http://www.elec-korat.hostingsiteforfree.com/",
        "emails": [
            "por2008@gmail.com"
        ],
        "id": "230243513814427",
        "location": {
            "city": "ในเมือง อ.เมือง จ. นครราชสีมา",
            "street": "387/3 ถ.สรรพสิทธิ์",
            "zip": "30000"
        },
        "name": "ชมรมรวมช่างซ่อมคอมพิวเตอร์สายพันธุ์ใหม่แห่งประเทศไทย3",
        "phone": "0819551822 , 0857481492"
    },
    {
        "about": "ซ่อม โน๊ตบุ๊ค คอมพิวเตอร์ PC ลงโปรแกรม ล้างเครื่อง ด่วน!!!\nขายอุปกรณืคอมพิวเตอร์",
        "emails": [
            "wijakmatong@gmail.com"
        ],
        "id": "936994902996145",
        "location": {
            "city": "Phisanulauk",
            "country": "Thailand",
            "latitude": 17.13503,
            "longitude": 100.10138,
            "street": "65/1",
            "zip": "65180"
        },
        "name": "ลงโปรแกรม ซ่อมคอมพิวเตอร์ service",
        "phone": "0910247287"
    },
    {
        "about": "บริการซ่อมคอมพิวเตอร์  และอัพเกรดคอม ทั้ง PC NotBOok",
        "description": "บริการลงวินโดว์ 300บาท โปรแกรมครบ สามารถเลือกได้ xp win7 \nบริการซ่อมคอมพิวเตอร์และอัพเกรดคอม ทั้ง PC NotBOok\n2 ม.3  ต.ท่าราบ  อ.เมือง ราชบุรี 70000\nโทร 080-1139643 และ   085-3242439",
        "emails": [
            "godbaby39@gmail.com"
        ],
        "general_info": "เปิดบริการ ซ่อมคอม รับลงวินโดว์ xp win7 \nรับให้คำปรึกษา อัพเกรดเครื่อง\nอุปกรณ์ คอมซื้อมีประกันทุกชิ้น \nรับบริการ ซ่อมทั้ง นอกสถานที่ \nสนใจติดต่อ 080-1139643 ",
        "id": "185908391554870",
        "location": {
            "city": "Amphoe Muang Rat Buri",
            "country": "Thailand",
            "latitude": 13.593541474756,
            "longitude": 99.811415481518,
            "street": "2 หมู่ 3 ต.ท่าราบ",
            "zip": "70000"
        },
        "name": "COM.Service บริการซ่อมคอมพิวเตอร์ อัพเกรดเครื่อง",
        "phone": "080-1139643,085-3242439"
    },
    {
        "about": "จำหน่ายอะไหล่คอม pc/nb  ซ่อมคอมพิวเตอร์ และบริการอินเตอร์เน็ต",
        "id": "795483050509577",
        "name": "อะไหล่ คอม ซ่อมคอม วางระบบคอมพิวเตอร์ บัญชี pos wifi CCTV  fiber optic",
        "phone": "0831723902"
    },
    {
        "id": "576796679110234",
        "location": {
            "city": "Ban Kata",
            "country": "Thailand",
            "latitude": 7.8302346955049,
            "longitude": 98.300911672482
        },
        "name": "ร้านซ่อมคอมพิวเตอร์ กะตะ"
    },
    {
        "id": "1668463553367388",
        "location": {
            "city": "Muang Samut Prakan",
            "country": "Thailand",
            "latitude": 13.6,
            "longitude": 100.6,
            "street": "999 ม.1 อิมพีเริลเวิล สำโรง ชั้น4 ศูนย์ITพลาซ่าห้อง R.011  เมือง สมุทรปราการ",
            "zip": "10270"
        },
        "name": "Eservice รับซ่อม ซื้อขายแลกเปลี่ยน อุปกรณ์โน็ตบ๊ค คอมพิวเตอร์",
        "phone": "027569839"
    },
    {
        "id": "1627084447520345",
        "location": {
            "city": "Bangkok",
            "country": "Thailand",
            "latitude": 13.774,
            "longitude": 100.65728,
            "street": "335/6 ลุมพินี เซ็นเตอร์ D2, ซ. แฮปปี้แลนด์ ถ. ลาดพร้าว แขวงคลองจั่น เขตบางกะปิ",
            "zip": "10240"
        },
        "name": "โปรแกรมรับซ่อม รับเคลม มือถือ คอมพิวเตอร์ และงานบริการทุกประเภท ออนไลน์",
        "phone": "093-8192868"
    },
    {
        "about": "ช่อมและจำหน่ายอะไหล่โน๊ตบุคทุกรุ่นทุกยี่ห้อ",
        "id": "497860296936261",
        "location": {
            "city": "Khonkean",
            "country": "Thailand",
            "latitude": 16.18567,
            "longitude": 102.48672,
            "street": "260ม.3ต.กุดเค้าอ.มัญจาคีรีจ.ขอนแก่น",
            "zip": "40160"
        },
        "name": "ร้านรุจไอทีคอมซ่อมโน๊ตบุ๊คคอมพิวเตอร์มัญจาคีรี",
        "phone": "0833625131"
    },
    {
        "id": "1385057921780803",
        "location": {
            "city": "Ayutthaya",
            "country": "Thailand",
            "latitude": 14.16894,
            "longitude": 100.34007,
            "street": "33/219 ม.3 ต.สามเมือง อ.ลาดบัวหลวง",
            "zip": "13230"
        },
        "name": "Procom ลาดบัวหลวงจำหน่ายอุปกรณ์ไอที บริการซ่อมคอมพิวเตอร์เครื่องปริ้น",
        "phone": "035379631"
    },
    {
        "about": "บริการ ซื้อขาย ซ่อมคอมพิวเตอร์",
        "description": "รับซ่อม,ประกอบคอมพิวเตอร์,บำรุงรักษา,รับซื้อขายคอมพิวเตอร์,รับลงโปรแกรมคอมพิวเตอร์,บริการนอกและในสถานที่, รับลงแอปพลิเคชั่น รับซื้อขาย อะไหล่คอมพิวเตอร์",
        "emails": [
            "nuyning@hotmail.com"
        ],
        "id": "237855886235388",
        "location": {
            "street": "ทวินทาว์เวอร์ แจ้งวัฒนะ 42 ถ.แจ้งวัฒนะ",
            "zip": "11110"
        },
        "name": "GN คอมพิวเตอร์ รับซื้อขาย ,ซ่อมคอมพิวเตอร์,ลงโปรแกรม",
        "phone": "0831311666 "
    }
]