[
    {
        "about": "ให้บริการซ่อมคอมพิวเตอร์และแสกนไวรัสคอมพิวเตอร์",
        "id": "627038384066469",
        "location": {
            "city": "Maha Sarakham",
            "country": "Thailand",
            "latitude": 16.1833,
            "longitude": 103.3,
            "street": "โรงเรียนท่าขอนยางพิทยาคม",
            "zip": "44000"
        },
        "name": "ซ่อมคอมพิวเตอร์",
        "phone": "0913416276"
    },
    {
        "about": "รับซ้อมและอัพเกรดคอมพิวเตอร์ทุกชนิด",
        "emails": [
            "oakung2011@hotmail.com"
        ],
        "id": "1544267569137272",
        "location": {
            "city": "Sing",
            "country": "Thailand",
            "latitude": 14.90406,
            "longitude": 100.39669,
            "street": "599/13 สิงห์บุรี",
            "zip": "16000"
        },
        "name": "รับประกอบและซ่อมคอมพิวเตอร์",
        "phone": "0835578925"
    },
    {
        "about": "หินหินหิน นำโชค",
        "description": "Shop หินนำโชค\n\nยินดีให้บริการ\nติดต่อสอบถามได้ตลอด 0944841875 PAN, 084-0073469",
        "emails": [
            "iiaampan@gmail.com",
            "nooballna@gmail.com"
        ],
        "id": "235931916455034",
        "location": {
            "street": "ิbangkok"
        },
        "name": "หินหินหิน นำโชค deever stone และสินค้าทุกชนิด รวมถึงซ่อม-ประกอบคอมพิวเตอร์",
        "phone": "0944841875"
    },
    {
        "about": "bkcservice@hotmail.co.th",
        "description": "BKC Service.Com บริการซ่อมคอมพิวเตอร์นอกสถานที่ ดูแลระบบคอมพิวเตอร์รายเดือน รายปี ,ระบบอินเตอร์เน็ต wireless , Windows Server ,ออกแบบเว็บไซด์ โปรแกรมต่างๆ ซ่อมคอม ราคา ประหยัด 087 248 9696",
        "emails": [
            "bkcservice@hotmail.co.th"
        ],
        "id": "461405733878207",
        "location": {
            "city": "Surin",
            "country": "Thailand",
            "zip": "32000"
        },
        "name": "บริการรับซ่อม เครื่องคอมพิวเตอร์ถึงบ้าน ฯลฯ",
        "phone": "0872489696"
    },
    {
        "about": "รับซ่อม ประกอบ คอมพิวเตอร์ จำหน่ายอะไหล่ อุปกรณ์ คอมพิเตอร์ อุปกรณ์ ต่อพ่วง แนะนำ ได้",
        "description": "สมาชิก กลุ่ม \nนายอนุชา  ทากันจง\nนางสาวหทัยรัตน์  อ่อนคำ\nนางสาวยุพิน  แก้วแดง\nนายนพรัตน์  จันที",
        "id": "523036664393145",
        "location": {
            "city": "Muang Phetchabun",
            "country": "Thailand",
            "zip": "67000"
        },
        "name": "ศูนย์บ่มเพาะวิสาหกิจ ซ่อมคอมพิวเตอร์",
        "phone": "0829436214"
    },
    {
        "id": "866603966764719",
        "location": {
            "city": "Samut Songkhram",
            "country": "Thailand",
            "latitude": 13.4,
            "longitude": 100,
            "street": "27/2 ม.4 ต.แหลมใหญ่",
            "zip": "75000"
        },
        "name": "คอมพิวเตอร์ปรึกษา ซ่อมอัพเกรด ประกอบใหม่เก่า อัพเดทข่าว ไอที",
        "phone": "0822530576"
    },
    {
        "id": "685080344932678",
        "name": "ร้านกล้องวงจรปิด และอุปกรณ์ cctv รับซ่อม อัพเกรด คอมพิวเตอร์ โน๊ตบุ๊ค"
    },
    {
        "about": "ประกอบ/ซ่อม/ลงโปรแกรม มีปัญหาเรื่องคอมฯ ปรึกษาเรา",
        "description": "ประกอบ/ซ่อม/ลงโปรแกรม  มีปัญหาเกี่ยวกับคอมพิวเตอร์ปรึกษาเรา  ราคาเป็นกันเอง \"เพราะเราเข้าใจคุณ\" (^_^)",
        "emails": [
            "rodjarin_butkote@outlook.com"
        ],
        "id": "316946341780943",
        "location": {
            "city": "Sakon Nakhon",
            "country": "Thailand",
            "street": "164 บ.โนนอุดม ม.16 ต.ศรีวิชัย อ.วานรนิวาส",
            "zip": "47120"
        },
        "name": "Z-net  รับประกอบ ซ่อม ลงโปรแกรมคอมพิวเตอร์",
        "phone": "083-3383090"
    },
    {
        "about": "ระบบรับงาน บริหารงาน ซ่อม เคลม ครบวงจร ",
        "description": "เกริ่นนำ :  ระบบที่ทันสมัยในการจัดการงานซ่อมและเคลม ร้านมือถือและคอมพิวเตอร์ รวมทั้งยังสามารถรองรับงานซ่อมได้ทุกชนิดสินค้า เข้าระบบได้ง่ายดายทุกๆที่ ผ่านระบบ Online เริ่มต้นเพียง 7,900 บาท ด่วน !! มีจำนวนจำกัด (ติดต่อด่วน 081-350-57-49 คุณอาร์ต) , Line ID : linehotdeal",
        "emails": [
            "artindy@gmail.com"
        ],
        "id": "589698884458669",
        "name": "ระบบรับงานซ่อมและเคลมร้านมือถือและคอมพิวเตอร์ครบวงจร okfixed"
    },
    {
        "about": "software hardware",
        "id": "478688712244690",
        "name": "รับซ่อมและจำหน่ายคอมพิวเตอร์รับส่งทางไปรษณีย์"
    },
    {
        "id": "1549610628619290",
        "location": {
            "city": "Saraburi",
            "country": "Thailand",
            "latitude": 14.70477,
            "longitude": 100.81761,
            "street": "38 ม.6 ต.หนองแกอ.พระพุทธบาท จ.สระบุรี",
            "zip": "18120"
        },
        "name": "รับติดตั้งกล้องวงจรปิดและซ่อมคอมพิวเตอร์",
        "phone": "089-0897908"
    },
    {
        "about": "ซ่อม มือถือ คอมพิวเตอร์ เครื่องปริ้น ติดตั้งระบบไฟฟ้าโรงงาน กาญจนบุรี",
        "id": "153068728226219",
        "location": {
            "city": "Amphoe Tha Maka",
            "country": "Thailand",
            "latitude": 13.895907003234,
            "longitude": 99.799444407654,
            "street": "ตำบลท่าเสา",
            "zip": "71120"
        },
        "name": "รับเหมาติดตั้ง ระบบไฟฟ้าโรงงาน ซ่อมมือถือ  คอมพิวเตอร์ ท่ามะกา กาญจนบุรี",
        "phone": "0909973494"
    },
    {
        "about": "ราคาเป็นกันเอง",
        "emails": [
            "nakato009@hotmail.com"
        ],
        "id": "297608470414753",
        "location": {
            "city": "Phrae",
            "country": "Thailand",
            "street": "187/2 หมู่ 8 ต.ร่องกาศ อ.สูงเม่น จ.แพร่",
            "zip": "54130"
        },
        "name": "รับซ่อมเครื่องใช้ไฟฟ้าคอมพิวเตอร์และติดตั้งจานดาวเทียม",
        "phone": "09-0674-8662"
    },
    {
        "id": "242701339102873",
        "location": {
            "city": "Bangkok",
            "country": "Thailand",
            "street": "74/2 ม.6",
            "zip": "54140"
        },
        "name": "ขาย+ซ่อมมือถือ รับฝากมือถือคอมพิวเตอร์",
        "phone": "0821914572"
    },
    {
        "about": "บริการซ่อมคอมพิวเตอร์ ปริ้นเตอร์ กล้องวงจรปิด วางระบบ และอุปกรณ์ต่อพ่อทุกชนิด",
        "id": "637602693019664",
        "location": {
            "city": "Cha-am",
            "country": "Thailand",
            "latitude": 12.79964,
            "longitude": 99.96694,
            "street": "1100/33",
            "zip": "ึ76120"
        },
        "name": "ไมโครคอมพิวเตอร์ บริการซ่อมและจำหน่าย",
        "phone": "032406218"
    },
    {
        "about": "เรารับซ่อมคอมพิวเตอร์ จำหน่ายอะไหล่ มือ1-2 ลงโปรแกรม เกมออนไลค์ต่างๆๆ\nติดต่อเรา 0811801031 คุนริม",
        "id": "164921023668766",
        "name": "Pupa รับซ่อมคอม จำหน่ายอะไหล่คอม ปรึกษาปัญหาคอมพิวเตอร์"
    },
    {
        "about": "รับซ่อม ลงโปรแกรม กำจัดไวรัส ดูแลระบบคอมพิวเตอร์ Network อินเทอร์เนต นอกสถานที่",
        "id": "601404759995244",
        "location": {
            "city": "Bangkok",
            "country": "Thailand",
            "latitude": 13.70283,
            "longitude": 100.67317,
            "street": "สวนหลวง ประเวศ บางกะปิ หัวหมาก บางนา พระโขนง",
            "zip": "10250"
        },
        "name": "บริการซ่อม ลงโปรแกรม แก้ไขปัญหาคอมพิวเตอร์ นอกสถานที่",
        "phone": "0971402660"
    },
    {
        "about": "คอมมีปัญหาหรืออัพเกรต/กู้ข้อมูล สนใจติดต่อ คุณอ้น 099-258-1845,061-612-9874   หรือInboxเข้ามาเลยนะครับ ",
        "description": "Computer PC / NoteBook: มีปัญหา / อัพเกรต / กู้ข้อมูล / ประกอบใหม่  ราคาเป็นกันเองสามารถต่อรองได้ครับ สนใจติดต่อ : คุณอ้น 0992581844  ,0992581845   หรือ Inboxเข้ามาเลยนะครับ และรับประกันการซ่อม 3เดือน - มีบริการซ่อมถึงบ้าน   ( มีใบรับลองจากกระทรวง ) : ขอขอบคุณครับ ",
        "emails": [
            "aonmaii1921@gmail.com"
        ],
        "id": "1522337698007466",
        "location": {
            "city": "Bangkok",
            "country": "Thailand",
            "latitude": 13.7522,
            "longitude": 100.494,
            "street": "ซ. สายหยุดอุทิศ แขวงอนุสาวรีย์ เขตบางเขน",
            "zip": "10220"
        },
        "name": "รับซ่อมและประกอบอุปกรณ์คอมพิวเตอร์ทุกชนิด - รับประกัน 3 - 6 เดือน",
        "phone": "099-258-1845,061-612-9874"
    },
    {
        "id": "1446005235637622",
        "location": {
            "city": "Chumporn",
            "country": "Thailand",
            "latitude": 10.47766,
            "longitude": 99.17175,
            "street": "71/9  ซ.เตี้ยหมอตู้  ถ.ใกล้บ่อนไก่ ต.ตากแดด  อ.เมือง  จ.ชุมพร",
            "zip": "86000"
        },
        "name": "Moomobi ซ่อมมือถือ คอมพิวเตอร์  เครื่องใช้ไฟฟ้าทุกชนิด",
        "phone": "0869443426"
    },
    {
        "about": "ร้านซ่อมคอมพิวเตอร์",
        "description": "ซ่อมคอมพิวเตอร์ ตามบ้านและมีบริการ รับ-ส่ง ราคากันเอง  \n\n                              ",
        "emails": [
            "tom_cpu@hotmail.co.th"
        ],
        "id": "254519437926540",
        "location": {
            "street": "เขตบางขุนเทียน ถนนพระราม2 กรุงเทพมหานคร"
        },
        "name": "บ้านคอมพิวเตอร์ รับซ่อมคอม พระราม2 บางขุนเทียน กรุงเทพมหานคร",
        "phone": "0853736778"
    },
    {
        "id": "1903105829913677",
        "name": "อาจารย์สอนซ่อมประกอบ ใช้งานโปรแกรมคอมพิวเตอร์"
    },
    {
        "about": "รับประมวลผลค่า spss งานวิจัย และรับซ่อมคอมพิวเตอร์",
        "emails": [
            "samancomsci@hotmail.com"
        ],
        "id": "1451314361834161",
        "location": {
            "city": "เมือง",
            "zip": "39000"
        },
        "name": "รับประมวลผลค่า spss และรับซ่อมคอมพิวเตอร์",
        "phone": "0843418751"
    },
    {
        "about": "ซ่อมขายอุปกรณ์คอมพิวเตอร์ กล้องวงจรปิด",
        "id": "224124711087044",
        "location": {
            "city": "Changwat Trat",
            "country": "Thailand",
            "latitude": 11.81744,
            "longitude": 102.85517,
            "street": "339/5 ถ.สนามบิน ต.คลองใหญ่ อ.คลองใหญ่  จ.ตราด",
            "zip": "23110"
        },
        "name": "ร้านเล็กคอม ขายซ่อมอุปกรณ์คอมพิวเตอร์ ฯลฯ",
        "phone": "0865574183"
    },
    {
        "about": "ไม่ยุ่งยาก อัพเกมส์ลงเกมส์ เครื่องเดียว",
        "description": "ซ่อมมือถือ/แท็บเล็ต สมาร์ทโฟน คอมพิวเตอร์ เปลี่ยนอะไหล่ ทัสกรีน จอ ลงรอมใหม่ อัปเดตเครื่อง ลง app ",
        "emails": [
            "game2020@hotmail.co.th"
        ],
        "id": "152889364854218",
        "location": {
            "city": "ปลายพระยา",
            "street": "194 ต.เขาต่อ",
            "zip": "81160"
        },
        "name": "ทีวายคอมพิวเตอร์ เขาต่อ  ซ่อมมือถือ/แท็บเล็ต สมาร์ทโฟน คอมพิวเตอร์",
        "phone": "084-069-0688"
    },
    {
        "id": "990669807641117",
        "name": "ร้านpk coms บางมูลนาก ศูนย์ซ่อมและจำหน่ายอุปกรณ์คอมพิวเตอร์"
    }
]