[
    {
        "about": "ซ่อมคอมพิวเตอร์นอกสถานที่ Tel: 0808079933\nhttps://www.facebook.com/Com7Service",
        "description": "หากวันนี้คอมพิวเตอร์ตัวโปรดของคุณเสียคุณจะทำอย่างไร\n\n1. ยกไปให้ร้านซ่อมใกล้บ้าน หนักก็หนัก รถก็ติด เสียเวลารอก็นาน\n2. ยกไปร้านซ่อมในห้าง -ไกลก็ไกล -หนักก็หนัก -รถก็ติด\n3. ซ่อมที่ร้านเสร็จแล้วแต่พอยกกลับมาเปิดที่บ้านทำไมไม่ติด\n4. ทิ้งเอาไว้ซ่อมที่ร้านก่อนแล้วค่อยมารับคืนกลับไปวันหลัง\n5. แล้วคุณจะรู้ได้อย่างไรว่าไม่โดนเปลื่ยนอุปกรณ์\n\nสรุป ยกไปซ่อมหนักก็หนัก รถก็ติด เสียเวลารอก็นาน เสียทั้งค่าน้ำมันและค่าซ่อมที่ราคาค่อนข้างแพง\n\nปัญหาต่างๆเหล่านี้จะหมดไปเพียงคุณโทรหาเราที่ 080-8079933 เราจะไปซ่อมให้ถึงที่ รวดเร็ว ซื่อสัตย์ ในราคาสุดประหยัด ทุกปัญหาที่เกี่ยวกับซอฟแวร์ ไม่ว่าจะเป็นการลงวินโดว์สใหม่ Windows XP, Windows 7 , Windows 8 ลงโปรแกรมอรรถประโยชน์ต่างๆเช่น ดูหนัง, ฟังเพลง, แต่งรูป, เกมส์ แก้ไขปัญหาไวรัส และปัญหาอื่นๆที่เกี่ยวกับซอฟแวร์ ทุกอาการเริ่มต้น 500 บาท รับประกันความพอใจ ให้บริการทุกวันตลอด 24 ชม.\n\nบริการหลังการซ่อม\nทุกปัญหาที่ซ่อมกับเรา เรารับประกันให้ 7 วัน หากเกิดปัญหาเดิมเราจะไปซ่อมให้ฟรี และหลังการซ่อมเรายังมีบริการตรวจสอบสภาพและซ่อมออนไลน์ให้ฟรีอีกด้วย.\n\nLine ID: mr.kittinut\n\nลูกค้าโอนเงินผ่านธนาคาร\nธนาคารกรุงเทพ 203-4-15431-6\nธนาคารกรุงไทย 568-0-13020-3\nธนาคารไทยพาณิชย์ 191-204867-9\nธนาคารกสิกรไทย 697-2-08768-6\nเบอร์โทรติดต่อ 080-8079933",
        "emails": [
            "kittinut.jun@hotmail.com"
        ],
        "id": "232994480208452",
        "location": {
            "city": "Bangkok",
            "country": "Thailand",
            "latitude": 13.7522,
            "longitude": 100.494,
            "zip": "10400"
        },
        "name": "ซ่อมคอมพิวเตอร์นอกสถานที่",
        "phone": "0808079933"
    },
    {
        "about": "รับซ่อมคอมพิวเตอร์",
        "id": "513745768643299",
        "name": "รับซ่อมคอมพิวเตอร์"
    },
    {
        "about": "รับซ่อมคอมพิวเตอร์ โน๊ตบุค เครื่องปริ้น และรับซื้อขายอุปกร it",
        "id": "338376509623898",
        "location": {
            "city": "Bangkok",
            "country": "Thailand",
            "latitude": 13.60599,
            "longitude": 100.41691,
            "street": "บางกระดี่32",
            "zip": "10150"
        },
        "name": "Confirm ซ่อมคอมพิวเตอร์",
        "phone": "0844609887"
    },
    {
        "about": "โรงเรียนฝึกวิชาชีพซ่อมคอมพิวเตอร์ นครลำปาง",
        "description": "หลักสูตรการเรียน การสอน\n- การซ่อม-ประกอบ-วิเคราะห์อาการเสีย \n- การใช้งานในOffice โดยใช้โปรแกรม Microsoft Word Excel Access \n- การออกแบบกราฟิก Photoshop Illustrator \n- Presentation (การนำเสนอผลงาน) โดยใช้โปรแกรม Powerpoint / Flash\n- E-commerce โดยใช้ PHP ASP \n- Programming โดยใช้ ภาษาซี Visual Basic ",
        "emails": [
            "admin@lcs.ac.th"
        ],
        "general_info": "อารคารสามชั้นแยกศรีชุม ใกล้โรงเรียนลำปางกัลยาณี",
        "id": "195750787106922",
        "location": {
            "city": "Lampang",
            "country": "Thailand",
            "street": "226/13 ถ.พหลโยธินต.สวนดอก อ.เมืองลำปาง",
            "zip": "52000"
        },
        "name": "โรงเรียนฝึกวิชาชีพซ่อมคอมพิวเตอร์ นครลำปาง :Lampang Computer School",
        "phone": "054314188"
    },
    {
        "id": "193152467448282",
        "name": "ซ่อม ประกอบคอมพิวเตอร์"
    },
    {
        "id": "915784175108410",
        "location": {
            "city": "Bangkok",
            "country": "Thailand",
            "latitude": 13.75395,
            "longitude": 100.50224,
            "street": "ห้วยขวาง"
        },
        "name": "ซ่อมคอมพิวเตอร์เเละปริ้นเตอร์",
        "phone": "0888394024"
    },
    {
        "id": "765389446865767",
        "name": "ซ่อม-จำหน่ายคอมพิวเตอร์"
    },
    {
        "about": "ซ่อมคอมพิวเตอร์ ปรินเตอร์ บริการถึงบ้าน เริ่มต้น 399 บาท\n\n",
        "description": "การบริการซ่อมคอมพิวเตอร์ ปรินเตอร์ /และขายอุปกรณ์คอมพิวเตอร์ ปรินเตอร์ หมึกพิมพ์\nบริการเป็นกันเอง ด้วยประสบการณ์ช่างจากเซียร์รังสิต ไม่มีพิษไม่มีภัย ปลอดภัย พื้นที่ให้บริการ\nลำลูกกา ธัญบุรี สายไหม วัชรพล  เบอร์ติดต่อ 0874344712 24 ชม. คับ",
        "emails": [
            "mandgcomputer@gmail.com"
        ],
        "id": "323649574475043",
        "location": {
            "city": "Pathum Thani",
            "country": "Thailand",
            "latitude": 13.97531,
            "longitude": 100.65421,
            "street": "95/279 ม.3 ถ.ลำลูกกา ต.คูคต อ.ลำลูกกา",
            "zip": "12130"
        },
        "name": "ซ่อมคอมพิวเตอร์ ปรินท์เตอร์ MG Computer",
        "phone": "0874344712"
    },
    {
        "id": "103336723339598",
        "location": {
            "city": "Bangkhunthien",
            "country": "Thailand",
            "latitude": 13.629638309068,
            "longitude": 100.39992213249,
            "street": "ตรงข้าม บางกระดี่ ซอย 7",
            "zip": "10150"
        },
        "name": "ซ่อมคอมพิวเตอร์บางกระดี่-ร้านกามาร์บันด์",
        "phone": "0814227687"
    },
    {
        "about": "รับซ่อมคอมพิวเตอร์นอกสถานที่",
        "description": "รับซ่อมคอมพิวเตอร์นอกสถานที่ คอมพิวเตอร์ช้าค้างบ่อย\nเราพร้อมที่จะแก้ไขปัญหาต่างๆเกี่ยวกับคอมพิวเตอร์ให้กับลูกค้า \nเราคำนึงถึงคุณภาพของการบริการเป็นสำคัญ ความพึงพอใจสูงสุดของลูกค้าคือสิ่งที่เราต้องการ",
        "emails": [
            "njf.service@gmail.com"
        ],
        "id": "685751904805362",
        "location": {
            "city": "บางขุนเทียน กรุงเทพฯ",
            "street": "622/316 ซ.6 หมู่บ้านคาซ่าซิตี้ ถ.บางขุนเทียน ชายทะเล แขวงท่าข้าม",
            "zip": "10150"
        },
        "name": "รับซ่อมคอมพิวเตอร์ www.njfservices.com",
        "phone": "02-415-6936"
    },
    {
        "about": "จำหน่าย คอมพิวเตอร์ มือสอง สภาพดี \nซ่อม ประกอบ จำหน่าย อะไหล่ มือ1และ2\n\nID ไลน์ 0830309089",
        "emails": [
            "nunnunnun124@gmail.com"
        ],
        "id": "1400730000176733",
        "location": {
            "city": "นนทบุรี",
            "street": "พระปิ่น3 บางใหญ่",
            "zip": "11140"
        },
        "name": "ซ่อมได้ ขายดี คอมพิวเตอร์",
        "phone": "0830309099"
    },
    {
        "about": "แก้ไขปัญหา computer , server , network",
        "description": "รับแก้ไขปัญหา computer , server ,network ถึงสถานที่ ตลอดเส้นทาง BTS ",
        "emails": [
            "rubsomcomp@gmail.com"
        ],
        "id": "532270936816007",
        "location": {
            "city": "Bangkok",
            "country": "Thailand",
            "latitude": 13.70929,
            "longitude": 100.57095,
            "street": "42/15 ซอย ปรีดีพนมนงค์ 6 ถนน สุขุมวิท71 พระโขนงเหนือ วัฒนา",
            "zip": "10110"
        },
        "name": "รับซ่อมคอมพิวเตอร์ถึงบ้าน",
        "phone": "0838930209"
    },
    {
        "about": "ซ่อมคอม,ขายคอม,คลองสี่,คลอง4  ",
        "description": "รับซ่อมคอมพิวเตอร์ย่าน ธัญบุรีคลอง4 และย่านใกล้เคียง รับติดตั้งกล้องวงจรปิด รับประกอบ-อัพเกรด ลงโปรแกรม ต่อพ่วงอินเตอร์เน็ต ติดตั้งระบบ LAN, Wireless LAN กู้ข้อมูล จากเมโมรี่ กล้องมือถือ และสื่อบันทึกต่างๆ แก้ปัญหาคอมพิวเตอร์ ทุกอาการ คิดค่าบริการ ครั้งละ 300-500 บาท ต่อเครื่องเท่านั้น (ซ่อมไม่ได้ ไม่คิดเงิน)",
        "general_info": "รับซ่อมคอมพิวเตอร์ย่าน ธัญบุรีคลอง4 และย่านใกล้เคียง รับประกอบ-อัพเกรด ลงโปรแกรม ต่อพ่วงอินเตอร์เน็ต ติดตั้งระบบ LAN, Wireless LAN กู้ข้อมูล จากเมโมรี่ กล้องมือถือ และสื่อบันทึกต่างๆ แก้ปัญหาคอมพิวเตอร์ ทุกอาการ คิดค่าบริการ ครั้งละ 300-500 บาท ต่อเครื่องเท่านั้น (ซ่อมไม่ได้ ไม่คิดเงิน)",
        "id": "176293579054181",
        "location": {
            "city": "Thanya Buri",
            "country": "Thailand",
            "latitude": 13.995504937,
            "located_in": "116347535197804",
            "longitude": 100.693623195,
            "zip": "12130"
        },
        "name": "รับซ่อมคอมพิวเตอร์ คลองสี่ธัญบุรี ปทุมธานี",
        "phone": "092-118-1563"
    },
    {
        "about": "บริการซ่อมคอมพิวเตอร์ นอกสถานที่ ทั่วทั้งกรุงเทพและปริมณฑล",
        "description": "ลงวินโดว์ส ล้างฮาร์ดดิสก์ ลงโปรแกรม จอมอนิเตอร์แตก เปิดไม่ติด ไฟไม่เข้า คอมพิวเตอร์ช้า.. ฆ่าไวรัส ปริ้นท์ไม่ออก รับซ่อมคอมพิวเตอร์ถึงที่บ้าน และที่ทำงาน",
        "emails": [
            "comtools.service@gmail.com"
        ],
        "id": "183410935008444",
        "location": {
            "city": "Bangkok",
            "country": "Thailand",
            "street": "4/6 Pracharadbumphen 11 HuayKhwang, HuayKhwang",
            "zip": "10310"
        },
        "name": "ComTools บริการซ่อมคอมพิวเตอร์นอกสถานที่"
    },
    {
        "about": "รับซ่อมคอมพิวเตอร์ ถึงบ้านท่าน",
        "id": "973159329395410",
        "name": "ซ่อมคอมพิวเตอร์  เดลิเวอรี่ ลพบุรี"
    },
    {
        "about": "ค้าขายอะไหล่คอมพิวเตอร์ มือ1 มือ2 ",
        "id": "1470834233194824",
        "location": {
            "city": "กรุงเทพ",
            "street": "62/261 มหาดไทยการ์เด้นคอนโด1 ลาดพร้าว 122 แยก 17",
            "zip": "10310"
        },
        "name": "Matee Bkk ซ่อมคอมพิวเตอร์ ขายอะไหล่มือสอง",
        "phone": "085 793 6742"
    },
    {
        "about": "ซ่อมคอมพิวเตอร์ PC Notebook ติดตั้ง Inktank รับวางระบบ Network",
        "description": "ซ่อมคอมพิวเตอร์ PC Notebook ติดตั้ง Ink tank\nจำหน่ายอุปกรณ์คอมพิวเตอร์มือ 1-2\nรับสั่งประกอบเครื่องใหม่ ตามงบประมาณและการใช้งาน\nรับวางระบบ Network\nบริการรับ-ส่ง (no onsite service) เครื่องคอมพิวเตอร์ถึงที่\n\nบริการด้านงานทะเบียนรถยนต์\n-พ.ร.บ. รถยนต์ online\n-ประกันภัย รถยนต์ online\n-งานทะเบียนรถยนต์ จักรยานยนต์ ทุกชนิด\n-มีบริการรับ-ส่งงานทะเบียน",
        "emails": [
            "quicksetitservice@gmail.com"
        ],
        "id": "590781607601090",
        "location": {
            "city": "Bangkok",
            "country": "Thailand",
            "latitude": 13.6455269,
            "longitude": 100.5023804,
            "street": "519/158 Prachauthit road Thungkru",
            "zip": "10140"
        },
        "name": "Quickset Itservice ซ่อมคอมพิวเตอร์ PC โน๊ตบุ๊ค",
        "phone": "0890665659"
    },
    {
        "about": "GodLike Service บริการซ่อมคอมพิวเตอร์ ติดตั้ง LAN Wireless Wifi โทร 091-332-4391",
        "description": "GodLike Service รับซ่อมคอมพิวเตอร์ บริการติดตั้ง ซ่อม แก้ไข ตรวจเช็ค ระบบเน็ตเวริ์ค แลน อินเตอร์เน็ท เครือข่ายแลนแบบไร้สาย (Wireless Lan,wifi) windows server บริการนอกสถานที่ โดยช่างประสบการณ์ตรง ในอำเภอเมืองและใกล้เคียง จ.อุบลราชธานี โทร  091-332-4391",
        "emails": [
            "komgrichgodlike@gmail.com"
        ],
        "id": "442621042521464",
        "location": {
            "city": "Ubon Ratchathani",
            "country": "Thailand",
            "latitude": 15.2281,
            "longitude": 104.859,
            "zip": "34000"
        },
        "name": "ซ่อมคอมพิวเตอร์ ติดตั้งแลน นอกสถานที่ จ.อุบล",
        "phone": " 091-332-4391"
    },
    {
        "about": "ซ่อมคอมฯ PC / Notebook",
        "description": "- รับซ่อมคอมพิวเตอร์ PC / Notebook\n- รับลง Windows / ลงโปรแกรมต่าง ๆ\n- รับประกอบคอมพิวเตอร์ PC\n- ตรวจเช็คคอมพิวเตอร์",
        "id": "1545178625754587",
        "location": {
            "city": "Songkhla",
            "country": "Thailand",
            "latitude": 7.1371881,
            "longitude": 100.6229833,
            "street": "145 ถ.เตาหลวง ซ.4 ต.บ่อยาง อ.เมือง จ.สงขลา 90000",
            "zip": "90000"
        },
        "name": "รับซ่อมคอมพิวเตอร์ อ.เมือง จ.สงขลา",
        "phone": "0887913500"
    },
    {
        "id": "712153805579517",
        "name": "ซ่อมคอมพิวเตอร์"
    },
    {
        "about": "ตัวกลมเซอร์วิส ซ่อมจริง หายชัวร์ 300 บาท ทุกอาการ",
        "description": "ตัวกลมเซอร์วิสหาดใหญ่\n บริการ...\nรับซ่อม ตรวจเช็ค คอมพิวเตอร์/โน๊ตบุ๊ต\nรับลงโปรแกรม ราคากันเอง\nรับปริ้นงาน-ถ่ายเอกสาร\nปริ้น สี เริ่มต้นที่ ราคา 3 บาท\nปริ้น ขาว-ดำ ราคา 1 บาท\nถ่ายเอกสาร แผ่นละ 1 บาท\nสั่งปริ้นออนไลน์ 24 ชั่วโมง ส่งไฟล์มา.. ปริ้นให้ทันที!!\nช่องทางการติดต่อ ...\nTel: 095-4410982\nLine: Bankksahapab\nE-mail: tuaklom88@gmail.com\nFB: https://www.facebook.com/TuaKlom88\nInbox: https://www.facebook.com/messages/TuaKlom88\n**ฝากข้อความไว้ตามช่องทางการติดต่อ ทางเราจะติดต่อกลับภายใน 24 ชั่วโมง**",
        "emails": [
            "tuaklom88@gmail.com"
        ],
        "id": "668717136588338",
        "location": {
            "latitude": 6.985746586456,
            "longitude": 100.46533584595,
            "street": "หาดใหญ่",
            "zip": "90110"
        },
        "name": "ซ่อมคอมพิวเตอร์ โน๊ตบุ๊ค หาดใหญ่ ตัวกลมเซอร์วิส",
        "phone": "0954410982"
    },
    {
        "about": "เปิดสอนซ่อมคอมพิวเตอร์เต็มหลักสูตร",
        "description": "ศูนย์บริการ ซ่อมคอมพิวเตอร์ พริ้นเตอร์ และอุปกรณ์ต่อพ่วงครบวงจร,รับปรึกษาปัญหาคอมพิวเตอร์ สอน ซ่อม ประกอบ คอมพิวเตอร์ โดย อาจารย์ที่มีประสบการณ์,WWW.mr.comp.lnwshop.com,ร้านซ่อมคอมฯคุณภาพสูง,ช่าง-อาจารย์เอ,อ.อ้วน,สายสี่ซ่อมคอม,ร้านซ่อมคอมสายสี่,สายสี่,สาย4,ร้าคอมสายสี่,ร้านคอม,ซ่อมคอม,เราเป็นศูนย์ซ่อมและประกอบคอมพิวเตอร์แบบมืออาชีพ,รับเปลี่ยนตลับปริ้นเตอร์แคนนอล(Cannon)และขายน้ำหมึกเติมแท้งค์,\nจำหน่ายอุปกรณ์ต่อพ่วงครบวงจร,รับปรึกษาปัญหาคอมพิวเตอร์ฟรี ตรวจเช็คอาการฟรี,รับประกอบเครื่องคอมตามงบประมาณที่คุณต้องการ(งบมาก-งบน้อยคุยกันได้ปรึกษาหารือกันได้จ้า),รับประกอบคอมสเปคร้านเกมราคาถูกกว่าห้างฯ,ทุกอย่างรับประกัน 2 ปีขึ้นไป,เรามีเครื่องคอมทั้งมือหนึ่ง  มือสอง ขายราคาถูกๆ,คอมใหม่,อัพเกรดคอม โทรหาเราได้เลย,(087-758-9448),ขายเม้าท์,ขายคีบอร์ด,ขายลำโพงคอม,ขายสายไฟ,สายจอสีฟ้า,\n\nรับทำเว็บ ราคาเริ่มต้นเพียง 2,xxx บาท เท่านั้น แถมดูแลฟรีอีกด้วย!!!!",
        "emails": [
            "abs_titipatt2012@hotmail.com"
        ],
        "id": "494173247300927",
        "location": {
            "city": "Bankok",
            "country": "Thailand",
            "street": "ต.อ้อมน้อน ถ.พุทธมณฑรณสาย 4",
            "zip": "74130"
        },
        "name": "ร้านซ่อมคอมพิวเตอร์  ซ.สุขาภิบาล 2 /สายสี่ / ร้านเดียว",
        "phone": "087-7589-448"
    },
    {
        "emails": [
            "kitiphop_06@hotmail.com"
        ],
        "id": "416671501842472",
        "location": {
            "city": "Khlong Luang",
            "country": "Thailand",
            "latitude": 14.06583,
            "longitude": 100.64215,
            "street": "44/70 Pruksa D Rangsit Khlongsam",
            "zip": "12120"
        },
        "name": "ซ่อมคอมพิวเตอร์ รังสิต-ปทุมธานี",
        "phone": "092-8072917 Line: banksosay0"
    },
    {
        "id": "1550216835256936",
        "location": {
            "city": "Rayong",
            "country": "Thailand",
            "latitude": 12.74147,
            "longitude": 101.13975,
            "street": "ระยอง",
            "zip": "21150"
        },
        "name": "ซ่อม เปลี่ยนจอ แบต ไอโพน ไอแพด ลงโปรแกรมคอมพิวเตอร์",
        "phone": "0959535757"
    },
    {
        "about": "คลีนิคซ่อม - จำหน่าย คอมพิวเตอร์ โน๊ตบุค ปริ้นเตอร์ สินค้า ไอที",
        "description": "ร้านแก้วฟ้าคอมพิวเตอร์ คลีนิคซ่อม - จำหน่าย คอมพิวเตอร์ โน๊ตบุค ปริ้นเตอร์ สินค้า ไอที และอุปกรณ์ต่อพ่วงทุกชนิด จำหน่าย อุปกรณ์เครื่องเขียน อุปกรณ์สำนักงาน อุปกรณ์กีฬา และเครื่องใช้สำนักงานทุกชนิด ศูนย์บริการ ปริ้นเตอร์ครบวงจร ร้านแก้วฟ้า ก็อปปี้แอนเน็ตทเวิร์ค ศูนย์ถ่ายเอกสาร เข้าเล่ม ครบวงจรราคาถูก ศูนย์ตัวแทนจำหน่ายกระดาษ DOUBLE A จำหน่าย- ซ่อมเครื่องถ่ายเอกสาร อะไหล่",
        "emails": [
            "dreamer_sn@hotmail.com"
        ],
        "id": "127621880778462",
        "location": {
            "street": "508/1 ม. 7 ถ. ทุ่งสง-นครศรีฯ ต. ถ้ำใหญ่ อ. ทุ่งสง จ. นครศรีฯ  80110"
        },
        "name": "แก้วฟ้าคอมพิวเตอร์  ศูนย์ซ่อมโน๊ตบุ๊ค คอมพิวเตอร์ ทุ่งสง นครศรีฯ",
        "phone": "085-5774707"
    }
]