[
    {
        "about": "ซ่อมมือถือ คอมพิวเตอร์ notebook",
        "emails": [
            "newz_it@hotmail.com"
        ],
        "id": "255846274614991",
        "location": {
            "city": "Hat Yai",
            "country": "Thailand",
            "latitude": 7.0111655109526,
            "longitude": 100.4735648632,
            "street": "ข้างโรงแรมกรีนวิว 85/11 ถ.แสงศรี ต.หาดใหญ่ อ.หาดใหญ่ จ.สงขลา",
            "zip": "90110"
        },
        "name": "New it ซ่อมมือถือ, คอมพิวเตอร์",
        "phone": "0973454595"
    },
    {
        "about": "ซ่อมคอมพิวเตอร์ และ โน๊ตบุ๊ค อุปกรณ์ ต่อพ่วง  หมึกเติม ",
        "description": "ซ่อมคอมพิวเตอร์ โน็คบุ๊ค อัพเกรด ฮาร์ดแวร์ ซอฟท์แวร์ ขายอุปกรณ์ต่อพ่วง อื่นๆ เช่นหมึกเติม การ์ดต่างๆ ",
        "id": "384394991632658",
        "location": {
            "city": "ลาดพร้าว",
            "street": "โลตัสวังหิน",
            "zip": "10230"
        },
        "name": "Topnet - ซ่อมคอมพิวเตอร์ และโน๊ตบุ๊ค",
        "phone": "029423839"
    },
    {
        "about": "ติดต่อได้ที่เบอร์ 0869092698 \"เบล\" ยินดีให้บริการนะครับ",
        "description": "รับซ่อมคอมถึงบ้าน , นอกสถานที่ , สำนักงานออฟฟิศ  รับดูแลระบบแบบรายเดือน-รายปี พื้นที่ให้บริการ จ.นนทบุรีทุกพื้นที่ รังสิต ดอนเมือง รามอินทรา งามวงศ์วาน ประชาชื่น ",
        "id": "151757761642190",
        "location": {
            "city": "Nonthaburi",
            "country": "Thailand",
            "latitude": 13.8700933,
            "longitude": 100.5095749,
            "street": "14/79",
            "zip": "11120"
        },
        "name": "บริการซ่อมคอมพิวเตอร์ โน็คบุค ระบบLan ในสำนักงานเเละบ้านพัก บริการถึงที่",
        "phone": "0830487362"
    },
    {
        "about": "ช่าง(Service)",
        "description": "รับซ่อมคอมพิวเตอร์ทุกอาการเสีย เช่น windowsเสีย , เครื่องติดไวรัส , หรือข้อมูลหายสามารถกู้ได้พร้อมแนะนำให้คำปรึกษาในการจัดเสป็คประกอบเครื่องใหม่ราคาดี และพร้อมให้คำปรึกษาเกี่ยวกับเรื่องกล้องวงจรปิดและรายละเอียดเกี่ยวกับกล้องวงจรปิดพร้อมรับติดตั้งกล้องวงจรปิด\nมี Host ฟรีตลอดอายุการใช้งานดูผ่านมือถือได้ทุกระบบ...\n***ยินดีพร้อมให้บริการด้านงานซ่อมคอมพิวเตอร์ในเขตพื้นที่ไกล้ๆที่ผมอยู่...(เขตบางบอน)..ส่วนงานกล้องวงจรรับทั่วกรุงเทพและปริมณฑล***\n***ส่วนเขตอื่นนั้นจะพิจารณาแล้วแต่ระยะทางและความเหมะสมนะครับ***\n....ต้องขอกราบขอโทษล่วงหน้าถ้าไม่สะดวกให้บริการครับ.....",
        "emails": [
            "jeed_wan.t@hotmail.com"
        ],
        "id": "381402175297492",
        "location": {
            "city": "Bangkok",
            "country": "Thailand",
            "latitude": 13.60599,
            "longitude": 100.41691,
            "street": "หมู่บ้านภาสกร 15/140 ถ.สุขาภิบาล1 แขวงบางบอน เขตบางบอน",
            "zip": "10150"
        },
        "name": "Jeed รับซ่อมคอมพิวเตอร์และติดตั้งกล้องวงจรปิด",
        "phone": "081-7737924"
    },
    {
        "about": "คอมพิวเตอร์แบรนด์เนม HP  DELL  ACER",
        "description": "ขาย  ซ่อม คอมพิวเตอร์แบรนด์เนมมือ 2  เคส   จอ  คีบอร์ด+เม้า",
        "emails": [
            "ppn.2007@hotmail.com"
        ],
        "id": "160446134100206",
        "location": {
            "city": "Nakhon Sawan",
            "country": "Thailand",
            "latitude": 15.7057724,
            "longitude": 100.1320648,
            "street": "ง.90/66 ถนนดาวดึงส์ ตำบลปากน้ำโพ",
            "zip": "60000"
        },
        "name": "นครสวรรค์ รับซ่อมคอมพิวเตอร์,ลงโปรแกรม PC  Notebook",
        "phone": "082-3669416"
    },
    {
        "about": "รับซ่อมคอมพิวเตอร์ และ บริการซ่อมถึงที่",
        "description": "รับซ่อมคอมพิวเตอร์ และ บริการดูแลแก้ไขปัญหาต่างๆทุกพื้นที่ สนใจติดต่อสอบถามได้ที่เบอร์ 084-3935273 Line : sittipon2555",
        "id": "1603673319879516",
        "name": "ซ่อมคอมคอมพิวเตอร์ และ Support"
    },
    {
        "id": "159952547481520",
        "name": "รับซ่อม คอมพิวเตอร์ เดินระบบ lan wifi server Firewall อื่นๆ ราคาถูกที่สุด"
    },
    {
        "about": "เพื่อใช้ในการแลกเปลี่ยนความรู้เรื่องไอที",
        "id": "169575856579272",
        "location": {
            "city": "Trang",
            "country": "Thailand",
            "latitude": 7.82334,
            "longitude": 99.64814,
            "street": "(ตรงข้ามคิวรถตู้ ห้วยยอด - ตรัง)285 ถ.เพชรเกษม ต.ห้วยยอด อ.ห้วยยอด",
            "zip": "92130"
        },
        "name": "เพชรสื่อสาร  ขาย/ซ่อม/จำนำ โทรศัพท์มือถือ แท็ปเล็ต คอมพิวเตอร์",
        "phone": "075-272199 , 084-9635777 , 085-7973219"
    },
    {
        "about": "รับซ่อมคอมพิวเตอร์ โน้ตบุค รับลงโปรแกรม แหลมฉบัง ศรีราชา บริการนอกสถานที่ ราคากันเอง",
        "id": "1469357060037520",
        "location": {
            "city": "Chon Buri",
            "country": "Thailand",
            "latitude": 13.1181002,
            "longitude": 101.0328674,
            "street": "แหลมฉบัง ศรีราชา",
            "zip": "20230"
        },
        "name": "รับซ่อมคอมพิวเตอร์ โน้ตบุค รับลงโปรแกรม แหลมฉบัง ศรีราชา",
        "phone": "087-9728304"
    },
    {
        "about": "รับซ่อมคอมพิวเตอร์สุขุมวิท71 รับซ่อมคอมพิวเตอร์เอกมัยทองหล่อโทร 0815851998\nComputer repair  Sukhumvit Ekkamai Thonglor Tel. 0815851998",
        "description": "รับซ่อมคอมพิวเตอร์สุขุมวิท71 รับซ่อมคอมพิวเตอร์ถึงบ้านหรือออฟฟิศท่าน คอมพิวเตอร์โดนไวรัส เครื่องแฮ้งค์\nลงวินโดว์ใหม่ ลงโปรแกรมต่างๆ\nรับซ่อมคอมพิวเตอร์โทร 0815851998\nComputer Repair around Sukhumvit71 Ekkamai Thonglor call 0815851998",
        "emails": [
            "dejchatphuangket@yahoo.com"
        ],
        "id": "1541177599489231",
        "location": {
            "city": "Bangkok",
            "country": "Thailand",
            "latitude": 13.722914134218,
            "longitude": 100.59595740257,
            "street": "สุขุมวิท71",
            "zip": "10110"
        },
        "name": "รับซ่อมคอมพิวเตอร์สุขุมวิท71 computer service bangkok tel. 0815851998",
        "phone": "0815851998"
    },
    {
        "about": "สอบถามโทร 0970739899",
        "description": "ผู้ใช้คอมพิวเตอร์ทั่วไป อย่างน้อยต้องเคยมีปัญหากับคอมพิวเตอร์ของคุณ เช่น ไวรัสทำลายระบบ เครื่องติดๆดับๆ อยู่ๆคอมพิวเตอร์รีสตาร์ทเอง ใช้ไปแล้วเครื่องก็ช้าลงไปเรื่อยๆ เครื่องอืดเป็นเรือเกลือ บางครั้ง ท่านยกไป ก็จะเสียค่ารถเสียเวลา ยกกลับมาอาจจะต่อไม่ถูก ต่อไม่ติดสายไหนเป็นสายไหน เราจึงมีบริการ ซ่อมคอมพิวเตอร์ถึงที่บ้าน ของท่าน เพื่อขจัดปัญหาเหล่านี้ โดยทีมช่างที่ชำนาญงาน",
        "id": "133274946835561",
        "location": {
            "city": "ไทย",
            "street": "19 แกแล็คซี ถ.พระรามสี่ แขวงสี่พระยา เขตบางรัก กรุงเทพๆ",
            "zip": "10500"
        },
        "name": "รับซ่อมคอมพิวเตอร์ทั่ว กทม ถึงบ้าน",
        "phone": "0806160980"
    },
    {
        "about": "ส.ศรีเทพ ให้บริการรับ-ซ่อมประกอบคอมพิวเตอร์ รับ-ส่งตรงถึงบ้านท่าน",
        "description": "1.ซ่อมประกอบคอมพิวเตอร์\n2.จำหน่าย Notebook ใหม่\n3.รับอัพเกรดคอมพิวเตอร์เก่าให้แรงดั่งใจ\n4.อะไหล่อุปกรณ์คอมพิวเตอร์ทุกชนิด\n5.ให้คำปรึกษาทำประกันภัยรถยนต์ทุกประเภท สด-ผ่อนได้ 4 เดือน ไม่มีดอกเบี้ย",
        "id": "149851778376706",
        "location": {
            "city": "Surat Thani",
            "country": "Thailand",
            "street": "27/1 ม.9 ซอยพิเศษ ต.ขุนทะเล อ.เมือง",
            "zip": "84100"
        },
        "name": "ส.ศรีเทพ_รับซ่อม-ประกอบคอมพิวเตอร์",
        "phone": "0875423117"
    },
    {
        "about": "รับบริการซ่อมคอมพิวเตอร์ notebook นอกสถานที่",
        "id": "355092277936996",
        "location": {
            "city": "Bangkok",
            "country": "Thailand",
            "latitude": 13.7246237,
            "longitude": 100.5647125,
            "street": "สุขุมวิท",
            "zip": "10250"
        },
        "name": "รับซ่อมคอมพิวเตอร์นอกสถานที่",
        "phone": "0914506356"
    },
    {
        "about": "ขาย-ซ่อม คอมพิวเตอร์ อ.นาทวี\nบริการ ซ่อมคอมถึงที่ ในเขต อ.นาทวี โทร 089-4667077",
        "description": ":ซ่อมคอม, ลงโปรแกรม, ล้างไวรัส ขายอุปกรณ์คอม\n\n: รับพิมพ์งาน, ทำรายงาน, หาข้อมูลทางเน็ต, ถ่ายเอกสาร\n\n: บริการเติมเงินมือถือ ขายบัตรเกมส์",
        "emails": [
            "karuna9981@hotmail.com"
        ],
        "id": "134941536698997",
        "location": {
            "city": "Ban Natawi",
            "country": "Thailand",
            "latitude": 6.7389725007809,
            "longitude": 100.69317647231,
            "street": "8/11 ม.1 ถ.เนตรวถี ต.นาทวี อ.นาทวี จ.สงขลา",
            "zip": "90160"
        },
        "name": "ซ่อมด่วน ซ่อมคอม นาทวี By การูน่า คอมพิวเตอร์",
        "phone": "66894667077"
    },
    {
        "about": "รับซ่อมคอมพิวเตอร์แบบรายเดือน",
        "id": "450273465151580",
        "name": "รับซ่อมคอมพิวเตอร์แบบรายเดือน"
    },
    {
        "about": "รับซ่อมคอมพิวเตอร์",
        "id": "807400689297205",
        "location": {
            "city": "Ban Tak",
            "country": "Thailand",
            "latitude": 17.0406,
            "longitude": 99.0631,
            "street": "153 ม.5ต.ไม้งาม อ.เมืองตาก",
            "zip": "63000"
        },
        "name": "รับซ่อมคอมพิวเตอร์ ลงโปรแกรม. กำจัดไวรัส",
        "phone": "0858413341"
    },
    {
        "about": "ซ่อมคอมพิวเตอร์-ปริ้นเตอร์ หน่วยงานรัฐ-เอกชน",
        "description": "ซ่อม-ประกอบคอมพิวเตอร์-ปริ้นเตอร์ วางระบบอินเทอร์เน็ต\nทั้งหน่วยงานรัฐ-เอกชน ประชาชนทั่วไป \nมีปัญหาปรึกษาเราได้ที่ 085-9292688,085-0244568",
        "emails": [
            "yelly-narak@hotmail.com"
        ],
        "id": "508303619199351",
        "location": {
            "city": "อุบลราชธานี",
            "street": "123 หมู่3 ต.ค้อน้อย อ.สำโรง",
            "zip": "34360"
        },
        "name": "ซ่อมคอมพิวเตอร์,ปริ้นเตอร์,อ.สำโรง        จ.อุบลราชธานี ติดต่อ 085-9292688",
        "phone": "085-9292688,085-0244568"
    },
    {
        "about": "บริการซ่อม อัพเกรด ขายคอมพิวเตอร์ทุกรุ่น\nรับจัดวางระบบร้านอินเตอร์เน็ต ระบบแลน ฯลฯ",
        "description": "เราไม่มีหน้าร้านนะครับ พวกเราอยู่ราชภัฏยะลาครับผม",
        "id": "474014059332843",
        "name": "รับซ่อมโน๊ตบุ๊คและคอมพิวเตอร์ PC ในยะลา"
    },
    {
        "about": "รับซ่อมคอมพิวเตอร์ปริ้นเตอร์และอุปกรณ์พกพาต่างๆ",
        "description": "รับให้คำปรึกษาเกี่ยวกับคอมพิวเตอร์ เครื่องปริ้นและอุปกรณ์พกพาต่างๆ รับซ่อมเครื่องนอกสถานที่ และรับส่งเครื่องถึงบ้าน ราคาเป็นกันเอง บริการดี ใว้ใจได้ จากทีมงาน PTS-Computer และทีมงานแอดมินผู้ดูแลระบบ",
        "emails": [
            "ssherachat@hotmail.co.th"
        ],
        "id": "258440984266462",
        "location": {
            "city": "พุทไธสง",
            "street": "บ้านสวน ต.พุทไธสง อ.พุทไธสง จ.บุรีรัมย์",
            "zip": "31120"
        },
        "name": "บ้านสวนOnline รับซ่อมคอมพิวเตอร์ ปริ้นเตอร์และอุปกรณ์พกพา",
        "phone": "0833864988"
    },
    {
        "about": "ซ่อมคอมพิวเตอร์ ปรึกษา และวิธีแก้ไขคอมพิวเตอร์ทุกชนิด\n ติดต่อที่นี่เลยครับ",
        "id": "690167967678263",
        "location": {
            "city": "Maha Sarakham",
            "country": "Thailand",
            "zip": "44000"
        },
        "name": "ซ่อมคอมพิวเตอร์ ปรึกษา และวิธีแก้ไขคอมพิวเตอร์ทุกชนิด"
    },
    {
        "about": "ซ่อมและจำหน่ายคอมพิวเตอร์",
        "id": "508968445885773",
        "location": {
            "city": "Bangkok",
            "country": "Thailand",
            "latitude": 9.09412,
            "longitude": 99.40221,
            "street": "101",
            "zip": "84290"
        },
        "name": "ซ่อมคอมพิวเตอร์",
        "phone": "0872637925"
    },
    {
        "id": "443198579120296",
        "name": "Advance notebook แหลมทองบางแสน ชลบุรี รับซ่อมคอมพิวเตอร์โน๊ตบุ้ค ทุกรุ่น"
    },
    {
        "about": "รับซ่อมคอมพิวเตอร์",
        "id": "1594807254124253",
        "location": {
            "city": "Ubon Ratchathani",
            "country": "Thailand",
            "latitude": 15.2281,
            "longitude": 104.859,
            "street": "179 ม.1 ต.ไพบูลย์ อ.น้ำขุ่น จ.อุบล",
            "zip": "34260"
        },
        "name": "รับซ่อมคอมพิวเตอร์ และอื่นๆ",
        "phone": "0854184341"
    },
    {
        "about": "นายณัฐวุฒิ ภุมมะโสภณ\n125 ม.10 ต.ทุ่งควายกิน อ.แกลง จ.ระยอง 21110",
        "description": "ช่างหลุยส์ ไอที โฟน\nรับซ่อม คอมพิวเตอร์ โน๊ตบุ๊ค โทรศัพท์มือถือ แท็บเล็ต\nลงApps ลงเกมส์   ล้างเครื่อง   ปลดล็อค\nโทร.089-2480257, 082-2189087",
        "id": "187301501480318",
        "name": "ช่างหลุยส์ ไอที โฟน รับซ่อม คอมพิวเตอร์ โน๊ตบุ๊ค โทรศัพท์มือถือ แท็บเล็ต"
    },
    {
        "about": "ชุมนุมซ่อมบำรุงเครื่องไมโครคอมพิวเตอร์ คณะเทคโนโลยีสารสนเทศ มหาวิทยาลัยราชภัฏเทพสตรี",
        "id": "592254040820631",
        "location": {
            "city": "ลพบุรี",
            "street": "เมือง",
            "zip": "15000"
        },
        "name": "ชุมนุมซ่อมบำรุงคอมพิวเตอร์",
        "phone": "036427494"
    }
]