[
    {
        "description": "บริการ ซ่อม คอมพิวเตอร์ ทั้งในและนอกสถานที่ \n400 บาท \nบริการ ซ่อม คอมพิวเตอร์ \nปรึกษาเรื่องคอมพิวเตอร์ \nซ่อมคอมถึงบ้าน ราคาย่อมเยาว์ \nรายละเอียดการซ่อม \nCOMPUTER และบริการต่างๆ \n1. ซ่อมคอมพิวเตอร์ทุกอาการ เริ่มต้นเพียง 400 บาท \n2. รับวางและแก้ไขระบบเครือข่าย แลน, ไวเลส \n3. ประกอบคอมพิวเตอร์ใหม่ \n4. รับเพิ่มความเร็วคอมพิวเตอร์(Ram) และจำหน่ายอุปกรณ์คอมทุกชนิด \n5. กล้องวงจรปิด \n6. ดูแลคอมพิวเตอร์รายเดือน \n7. ลงโปรแกรม \n\nที่ตั้งปฏิบัติงาน: ซอย จรัญสนิทวงศ์ 85 แขวงบางอ้อ เขตบางพลัด กรุงเทพฯ 10700 \nติดต่อ : 089-222-7597 \nE-Mail : toujid@gmail.com",
        "emails": [
            "toujid@gmail.com"
        ],
        "id": "1547921295456197",
        "name": "รับซ่อมคอมพิวเตอร์ O Com Service",
        "phone": "0892227597"
    },
    {
        "emails": [
            "jiko-itech@hotmail.com"
        ],
        "id": "411097822396298",
        "location": {
            "street": "229/14",
            "zip": "10560"
        },
        "name": "Itechcom ซ่อมขายคอมพิวเตอร์ปริ้นเตอร์",
        "phone": "0819135982"
    },
    {
        "about": "พีแอนด์พีคอมพิวเตอร์ unbrick แก้อาการ hard brick samsung อาการเสียจากการแฟลชรอม",
        "emails": [
            "kosintwong@gmail.com"
        ],
        "id": "1615983568671487",
        "location": {
            "city": "Loey",
            "country": "Thailand",
            "latitude": 17.4833,
            "longitude": 101.717,
            "street": "วังสะพุง",
            "zip": "42130"
        },
        "name": "ซ่อมคอมพิวเตอร์ ซ่อมมือถือ ซ่อมแท็บเล็ต",
        "phone": "0935656391"
    },
    {
        "about": "จำหน่าย-ซ่อม คอมพิวเตอร์ และอุปกรณ์ต่อพ่วงคอมฯ โน๊ตบุ๊ค แท็บเล็ต  จอภาพ TV LCD LED",
        "id": "199567713473885",
        "name": "บ้านคอม  นางรอง  จำหน่าย-ซ่อม คอมพิวเตอร์"
    },
    {
        "about": "ซ่อมคอมพิวเตอร์นอกสถานที่",
        "description": "รับซ่อมคอมพิวเตอร์ ลงวินโดว์ PC,Notebook\nเครื่องค้าง,เปิดเครื่องไม่ติด, เครื่องแฮงค์, เครื่องรีสตาร์เอง, ติดไวรัส,โปรแกรมหาย, เล่นเน็ตไม่ได้, เล่น Facebook , twitter , MSN ไม่ได้, Print ไม่ออก ทำความสะอาดคอมพิวเตอร์ ฯลฯ\n",
        "emails": [
            "b.87@msn.com"
        ],
        "general_info": "คุณอาจเคยเจอปัญหาเหล่านี้ในการซ่อมคอมพิวเตอร์ที่ร้าน\n - ซ่อมเสร็จแล้ว แต่พอเอากลับมาถึงบ้านแล้วเปิดไม่ติดเหมือนเดิม\n - ช่างแอบเปลี่ยนอะไหล่ในเครื่องคอมพิวเตอร์\n - ต้องกลับมาติดตั้งไดรเวอร์ Printer , Scanner , Internet เอง\n - เสียเวลา และเสียค่าใช้จ่ายมากในการนำคอมพิวเตอร์ไปซ่อมที่ร้าน\n - ซ่อมคอมพิวเตอร์เสร็จนำกลับมาติดตั้ง เสียบสายไม่ถูก คอมพิวเตอร์ทำงานไม่ได้ \n - นำเครื่องไปทิ้งไว้ที่ร้านหลายวัน ไม่มีคอมใช้\n - ถูกขโมยข้อมูลสำคัญในเครื่อง",
        "id": "207719122690737",
        "location": {
            "city": "Nakhon Si Thammarat",
            "country": "Thailand",
            "street": "หมู่บ้านการเคหะ 2",
            "zip": "80000"
        },
        "name": "ร้านสุดยอดคอมพิวเตอร์ (ซ่อมคอมพิวเตอร์นอกสถานที่ โทร.0800065600 )",
        "phone": "080 006 5600"
    },
    {
        "about": "รับซ่อมเครื่องจักรปักคอมทุกยี่ห้อ จำหน่ายเครื่องปักคอมพิ้วเตอร์ใหม่และเก่า 0870268408  0959984201",
        "emails": [
            "ekachaiu6@hotmail.co.th"
        ],
        "id": "321013041328308",
        "location": {
            "city": " เขตคลองสาน กรุเทพฯ",
            "street": "410 ถ.เจริญนคร แขวงคลองต้นไทร",
            "zip": "10600"
        },
        "name": "รับซ่อมจักรปักคอมพิวเตอร์  0959984201",
        "phone": "0870268408 เอกชัย"
    },
    {
        "about": "รับติดตั้งระบบปฏิบัติการคอมพิวเตอร์ โปรแกรมคอมพิวเตอร์ PC , Notebook",
        "description": "**ข้อแนะนำสำหรับผู้ที่จะใช้บริการ Life computer (#‵′)凸 \n\n1. ผมรับลงวินโดว์,รับติดตั้งโปรแกรมพื้นฐานต่างๆที่คอมพิวเตอร์ทั่วไปควรจะมี หากต้องการลงโปรแกรมใดเพิ่มเติม สามารถสอบถามได้ครับ (-__-)b\n\n2. อัตราค่าบริการ\n    - Windows 7   + โปรแกรมพื้นฐาน(ที่คอมฯควรจะมีติดเครื่อง)   \u003e\u003e\u003e 450 ฿\n                                                                                                                     \n    - Windows XP + โปรแกรมพื้นฐาน(ที่คอมฯควรจะมีติดเครื่อง)   \u003e\u003e\u003e 450 ฿ \n\n    - Windows 8.1   + โปรแกรมพื้นฐาน(ที่คอมฯควรจะมีติดเครื่อง)   \u003e\u003e\u003e 450 ฿\n\n    - ต้องการลงโปรแกรมอย่างเดียว/โปรแกรมเฉพาะต่างๆ  \u003e\u003e\u003e  ฟรี - 100 ฿ /1โปรแกรม\n\n       ###ถ้าท่านมีแผ่น driver กรุณานำมาด้วย จะขอบคุณมากครับ \n|\n|\n|\n+\"ราคา\" ไม่ใช่ตัวชี้วัดถึง \"คุณภาพ\" __,,__ \"คุณภาพ\" ไม่ได้วัดกันที่ \"ราคา\"+\n\n|\n|\n|\n_______________________________________________________\n||Life Computer ผมไม่มีหน้าร้านนะครับ ผมรับงานเฉพาะที่บ้าน(ผม) เท่านั้น | ใครมาไม่ถูก ก็ถามมาทาง inbox นะครับ อิอิ|| ^^\"\n_______________________________________________________\n       บริการอื่นๆ \n                       - วิเคราะห์อาการเสียของเครื่องคอมพิวเตอร์\n                       - ซ่อม (Basic)\n                       - จัดสเป็ค ประกอบคอมพ์ อัพเกรด\n       \n                                                                                                          \n                                                 ♡. (O ^ ~ ^ O)\n\n3. สำหรับเพื่อนๆ พี่พี่ น้องน้อง คนไหนที่อยากใช้บริการ ยกคอมฯของท่านมาที่บ้านผมได้เลย  \n\n4 ขอบคุณลูกค้าทุกท่านที่วางใจใน Life computer (‵▽′)ψ \n\n5. สำหรับใครคนไหนอ่านแล้ว ไม่ถูกใจ ไม่โดนใจ ผ่านได้เลยครับ ไม่ว่ากันครับ ╮(‵▽′)╭\n_______________________________________________________\nเครื่องคอมพิวเตอร์ที่ท่านนำมาให้ผม ลงวินโดว์,โปรแกรม ฯ ผมขอใช้เวลาในการดำเนินการซัก 2 วันนะครับ ท่านจึงมารับเครื่องฯคืนได้ เพราะ จันทร์-ศุกร์ (ในช่วงเวลาราชการ) ผมไม่สะดวกนะครับ\n \nติดต่อ สอบถาม ทุกปัญหา :: https://www.facebook.com/messages/lifecomputer.xoxo\n\n_______________________________________________________\n..ขอบคุณครับที่อ่านจนจบค๊าบบบบบบ.. \n\n░░░░░░░░░░░░░░░░░░░░░░█████████\n░░███████░░░░░░░░░░███▒▒▒▒▒▒▒▒███\n░░█▒▒▒▒▒▒█░░░░░░░███▒▒▒▒▒▒▒▒▒▒▒▒▒███\n░░░█▒▒▒▒▒▒█░░░░██▒▒▒▒▒▒▒▒▒▒▒▒▒▒▒▒▒▒▒██\n░░░░█▒▒▒▒▒█░░░██▒▒▒▒▒██▒▒▒▒▒▒██▒▒▒▒▒███\n░░░░░█▒▒▒█░░░█▒▒▒▒▒▒████▒▒▒▒████▒▒▒▒▒▒██\n░░░█████████████▒▒▒▒▒▒▒▒▒▒▒▒▒▒▒▒▒▒▒▒▒▒██\n░░░█▒▒▒▒▒▒▒▒▒▒▒▒█▒▒▒▒▒▒▒▒▒█▒▒▒▒▒▒▒▒▒▒▒██\n░██▒▒▒▒▒▒▒▒▒▒▒▒▒█▒▒▒██▒▒▒▒▒▒▒▒▒▒██▒▒▒▒██\n██▒▒▒███████████▒▒▒▒▒██▒▒▒▒▒▒▒▒██▒▒▒▒▒██\n█▒▒▒▒▒▒▒▒▒▒▒▒▒▒▒█▒▒▒▒▒▒████████▒▒▒▒▒▒▒██\n██▒▒▒▒▒▒▒▒▒▒▒▒▒▒█▒▒▒▒▒▒▒▒▒▒▒▒▒▒▒▒▒▒▒▒██\n░█▒▒▒███████████▒▒▒▒▒▒▒▒▒▒▒▒▒▒▒▒▒▒▒██\n░██▒▒▒▒▒▒▒▒▒▒████▒▒▒▒▒▒▒▒▒▒▒▒▒▒▒▒▒█\n░░████████████░░░█████████████████",
        "emails": [
            "com79service@hotmail.com"
        ],
        "id": "306045726097018",
        "location": {
            "street": "ซอยอาคารเอนกประสงค์ ม.9",
            "zip": "92120"
        },
        "name": "Life computer รับซ่อม-ติดตั้งโปรแกรมคอมพิวเตอร์ สำหรับเครื่องพีซี โน๊ตบุ๊ค"
    },
    {
        "id": "141942782545420",
        "name": "ช่างซ่อมคอมพิวเตอร์"
    },
    {
        "id": "416027535097970",
        "name": "งานซ่อมคอมพิวเตอร์คณะวิทยาศาสตร์ ม.อุบล"
    },
    {
        "about": "รับซ่อมคอมพิวเตอร์ ครบวงจร จำหน่ายอุปกรณ์it ราคาถูก",
        "id": "858906980813373",
        "location": {
            "city": "Nakhon Pathom",
            "country": "Thailand",
            "latitude": 13.839996736986,
            "longitude": 100.0292301178,
            "street": "เมือง",
            "zip": "73000"
        },
        "name": "ร้านบีบีคอม นครปฐม รับซ่อมคอมพิวเตอร์ ครบวงจร จำหน่ายอุปกรณ์it ราคาถูก",
        "phone": "0932154255"
    },
    {
        "about": "ลง Windows 8.1 วันนี้ ฟรี!! Office 2013\nพิเศษ ราคา 250 บาท ",
        "emails": [
            "phanuphong9999@gmail.com"
        ],
        "id": "537370612998942",
        "location": {
            "city": "Chachoengsao",
            "country": "Thailand",
            "latitude": 13.8681,
            "longitude": 101.06411,
            "street": "11 หมู่ 6 ต.หมอนทอง อ.บางน้ำเปรี้ยว จ.ฉะเชิงเทรา 24150",
            "zip": "24150"
        },
        "name": "ซ่อม จำหน่าย คอมพิวเตอร์ /Salaemat/",
        "phone": "0806458695"
    },
    {
        "about": "ซ่อมขายคอมพิวเตอร์ กล้องวงจรปิด",
        "emails": [
            "dekcomservice@hotmail.com"
        ],
        "id": "406385602742554",
        "location": {
            "city": "Bang Phli",
            "country": "Thailand",
            "latitude": 13.6016312,
            "longitude": 100.6128387,
            "street": "ถนนศรีณครินทร์",
            "zip": "10540"
        },
        "name": "ซ่อมขายคอมพิวเตอร์ กล้องวงจรปิด สมุทรปราการ",
        "phone": "0863361305"
    },
    {
        "about": "รับทำเว็บไซต์ ออกแบบเว็บไซต์ จำหน่าย ซ่อม คอมพิวเตอร์ นอกสถานที่",
        "description": "รับทำเว็บไซต์ ออกแบบเว็บไซต์ จำหน่าย ซ่อม คอมพิวเตอร์ นอกสถานที่",
        "id": "268865699917016",
        "name": "รับทำเว็บไซต์ ออกแบบเว็บไซต์ จำหน่าย ซ่อม คอมพิวเตอร์ นอกสถานที่"
    },
    {
        "about": "รับซ่อมคอมพิวเตอร์",
        "emails": [
            "nadeaw2007@hotmail.com"
        ],
        "id": "144235885763169",
        "location": {
            "city": "Akat Am Nuai",
            "country": "Thailand",
            "zip": "47170"
        },
        "name": "รับซ่อมคอมพิวเตอร์ บ้านถ้ำเต่า"
    },
    {
        "about": "คอมพิวเตอร์",
        "id": "497772003690023",
        "location": {
            "city": "Ubon Ratchathani",
            "country": "Thailand",
            "latitude": 15.2430897,
            "longitude": 104.8483047,
            "street": "3/5 ม.1 ต.โพนงาม อ.บูญฑริก จ.อุบลราชธานี",
            "zip": "34230"
        },
        "name": "ร้าน ทีเอคอมพิวเตอร์ รับซ่อมซื้อขาย คอมพิวเตอร์ โน๊ตบุ๊ค ทุกอาการ",
        "phone": "085-4986458"
    },
    {
        "about": "รับซ่อมคอมพิวเตอร์ นอกสถานที่ แก้ทุกปัญหาคอม ติดตั้งระบบ networks",
        "description": "รับซ่อมคอมพิวเตอร์นอกสถานที่ จ.ปทุมธานี อยุธยา กรุงเทพฯ แก้ปัญหาคอมเสีย เข้าวินโดว์ไม่ได้ จอฟ้า, จอดับ, เครื่องติดไวรัส, เครื่องอืด, เครื่องช้า, ปริ๊นไม่ได้, เน็ตมีปัญหา และทุกปัญหาเกี่ยวกับคอมพิวเตอร์ นอกจากนี้เรายังรับติดตั้งระบบ networks เดินสาย lan ดูแลเครื่องตามออฟฟิศ บริการรวดเร็ว เป็นกันเอง ราคาถูก",
        "emails": [
            "comrepair14@gmail.com"
        ],
        "id": "815646418481120",
        "location": {
            "city": "Amphoe Lat Lum Kaeo",
            "country": "Thailand",
            "latitude": 13.99861,
            "longitude": 100.53008,
            "street": "เมืองปทุมธานี",
            "zip": "12000"
        },
        "name": "ช่างซ่อมคอม ร้านซ่อมคอมพิวเตอร์ นอกสถานที่",
        "phone": "088-898-8739"
    },
    {
        "about": "รับซ่อมคอมพิวเตอร์และอุปกรณ์ต่อพ่วง นอกสถานที่",
        "id": "936395026424830",
        "location": {
            "city": "Bangkok",
            "country": "Thailand",
            "latitude": 13.8876801,
            "longitude": 100.5788422,
            "street": "ถ.แจ้งวัฒนะ10 แขวงทุ่งสองห้อง เขตหลักสี่",
            "zip": "10210"
        },
        "name": "รับซ่อมคอมพิวเตอร์นอกสถานที่เขตหลักสี่, บางเขน โทร.091-103-4170",
        "phone": "0911034170"
    },
    {
        "about": "บริการงานด้านไอทีแบบครบวงจรงานคอมพิมเตอร์และอินเตอร์เน็ต ติดตั้งกล้องวงจรปิด",
        "description": "       \n   Sale \u0026 Repair Computer\nจำหน่ายและซ่อมคอมพิวเตอร์   \n\n   Systems Maintenence\nดูแล รักษาระบบคอมพิวเตอร์ \n         \n   Web Design\nออกแบบเว็บไซต์  \n\n   Program Development\nพัฒนาโปรแกรมเฉพาะด้าน \n         \n   Graphic Design\nออกแบบงานกราฟฟิก   \n\n   Computer Training\nอบรมการใช้งานคอมพิวเตอร์ \n         \n   บริการวางระบบเน็ตเวิร์ค\nLAN network system setting service  \n\n   รับทำบัญชี ยื่นภาษี จดทะเบียนบริษัท\nTax Accounting ,Auditer Accounting  \n         \n",
        "emails": [
            "tapsuk99@hotmail.com"
        ],
        "general_info": "เรามีทีมงานช่างผู้ชำนานงานไม่น้อยกว่า 5 ปี และมีประสบการณ์ในงานนั้น ๆ เพื่อให้เกิดความมั่นใจในการที่จะดูแลคอมพิวเตอร์และระบบคอมพิวเตอร์ ท่านจึงไว้วางใจเราได้ ไม่ว่าจะเป็นทางด้านคุณภาพและบริการ  และ ราคาค่าบริการแสนจะคุ้มค่า ทางร้านจะเสนอราคาก่อนซ่อม เพื่อให้ท่านได้ตัดสินใจก่อน ค่าบริการเริ่มต้นที่ 200 บาท เท่านั้นเอง",
        "id": "125663537519806",
        "location": {
            "city": "Amphoe Ko Samui",
            "country": "Thailand",
            "latitude": 9.57690965,
            "longitude": 99.98268175,
            "street": "Mea Num",
            "zip": "84330"
        },
        "name": "สมหวัง คอมดีไซด์ : ขาย ซ่อมคอมพิวเตอร์ ติดตั้งกล้องวงจรปิด",
        "phone": "0824225100"
    },
    {
        "emails": [
            "zdog4488@hotmail.com"
        ],
        "id": "1605012019747433",
        "location": {
            "city": "สมุทรปราการ",
            "zip": "10270"
        },
        "name": "ซ่อมคอมพิวเตอร์และเรียนรู้การใช้งาน",
        "phone": "0896110643"
    },
    {
        "about": "จำหน่ายคอมฯ โน๊ตบุ๊คปริ้นเตอร์ อุปกรณ์คอมพิวเตอร์ ซ่อมคอมพิวเตอร์ โน๊ตบุ๊ค ปริ้นเตอร์ ",
        "id": "643886965630765",
        "name": "ศิริเสริม Shop ซ่อม-จำหน่าย โน๊ตบุ๊ค คอม ปริ้นเตอร์ อุปกรณ์คอมพิวเตอร์",
        "phone": "0898354249"
    },
    {
        "about": "รับซ่อม , อัพเกรด , ซื้อ-ขาย , แลกเปลี่ยน\nคอมพิวเตอร์ , โน้ตบุ๊ค ",
        "id": "287098704727125",
        "location": {
            "city": "Bangkok",
            "country": "Thailand",
            "street": "พันธุ์ทิพย์พลาซ่า ประตูน้ำ",
            "zip": "10400"
        },
        "name": "NPT Computer \u0026 Services - ซ่อมคอมพิวเตอร์",
        "phone": "0877173414"
    },
    {
        "about": "รับซ่อมคอมพิวเตอร์  อุปกรณ์ไอที ทุกชนิด",
        "id": "149246061953223",
        "name": "ร้านซ่อมคอมพิวเตอร์ อ.ปะคำ"
    },
    {
        "description": "ขายซ่อมมือถือ คอมพิวเตอร์ โน๊ตบุ๊ค แท็บเล็ต สมาร์ทโฟนทุกรุ่น สั่งได้ครับ  ส่งฟรีทั่วประเทศ อยู่หน้าศาลเจ้าแม่เทพเทพา ซอยวัดอู่ตะเภา ต.หนองไม้แดง อ.เมือง จ.ชลบุรี โทร0814831981,0927459881",
        "id": "1458523587765642",
        "location": {
            "city": "Chonburi",
            "country": "Thailand",
            "latitude": 13.42068711,
            "longitude": 101.04141119,
            "street": "106/9 ม.6 ต.หนองไม้แดง",
            "zip": "20000"
        },
        "name": "สิงห์เทเลคอม ขายฝากซ่อมมือถือคอมพิวเตอร์ โน๊ตบุ๊ค อมตะนคร ชลบุรี",
        "phone": "081-4831981 , 092-7459881"
    },
    {
        "about": "ติดตั้งกล้องวงจรปิด คอมพิวเตอร์ ซ่อม,บริการ กาญจนบุรี",
        "id": "241516322670969",
        "name": "SP กล้องวงจรปิด คอมพิวเตอร์ ซ่อม,บริการ"
    },
    {
        "about": "รับซ่อมคอมพิวเตอร์,ปริ้นเตอร์, ติดตั้งระบบ Network (Wired/Wireless) ฯลฯ",
        "id": "167421530104510",
        "name": "รับซ่อมคอมพิวเตอร์ ติดตั้งระบบ Network"
    }
]