[
    {
        "about": "รับซ่อมคอมพิวเตอร์โน๊ตบุ๊ค พีซี ซ่อมปริ๊นเตอร์ บริการนอกสถานที่ ",
        "description": "รับซ่อมคอมพิวเตอร์โน๊ตบุ๊คพีซีซ่อมปริ๊นเตอร์ บริการนอกสถานที่ โดยร้านคอมรูม",
        "emails": [
            "apinan_run@hotmail.com"
        ],
        "id": "672698816208175",
        "location": {
            "city": "นคสวรรค์",
            "street": "1/1 ม.3 ต.หนองกลับ อ.หนองบัว",
            "zip": "60110"
        },
        "name": "รับซ่อมคอมพิวเตอร์โน๊ตบุ๊ค พีซี รับซ่อมปริ้นเตอร์ โดยร้านคอมรูม 087-3169491",
        "phone": "0873169491"
    },
    {
        "id": "245805518784932",
        "location": {
            "city": "Maha Sarakam",
            "country": "Thailand",
            "street": "ถ.จุฑางกูร",
            "zip": "44000"
        },
        "name": "Dream Service ซ่อมคอมพิวเตอร์นอกสถานที่ อ.เมือง - ม.ใหม่",
        "phone": "0866383848"
    },
    {
        "about": "......",
        "id": "589887227701597",
        "location": {
            "city": "Bangkok",
            "country": "Thailand",
            "latitude": 13.7445383,
            "longitude": 100.6046219,
            "street": "ซอย รามคำแหง 60 บางกะปิ",
            "zip": "10240"
        },
        "name": "รับซ่อมคอมพิวเตอร์นอกสถานที่",
        "phone": "0921082089"
    },
    {
        "about": "รับซ่อมคอมพิวเตอร์ทุกอาการ ",
        "id": "411825888917538",
        "location": {
            "city": "Bangkok",
            "country": "Thailand",
            "latitude": 13.72139,
            "longitude": 100.48717,
            "street": "รัชดาท่าพระ ซ.7 บุคโล",
            "zip": "10600"
        },
        "name": "รับซ่อมคอมโดยทีมงานลพคอมพิวเตอร์ทุกอาการ300บาท",
        "phone": "0892271327"
    },
    {
        "about": "บริการถึงบ้าน\n- ติดตั้งกล้องวงจรปิด \n- ตรวจเช็ค ซ่อมคอมพิวเตอร์\n   ทุกปัญหา ทุกอาการ",
        "description": "***รับติดตั้ง\u0026วางระบบ***\n- ติดตั้ง กล้องวงจรปิด CCTV\n- ติดตั้ง อินเตอร์เน็ต Wifi \u0026 Hotspot \u0026 Access Point  \n- ติดตั้ง เดินสาย วางระบบ LAN\n***บริการถึงบ้าน***\n- รับติดตั้ง ตรวจเช็ค ซ่อมคอมพิวเตอร์ ทุกปัญหา ทุกอาการ\n- บริการดูแล ปรับปรุงแก้ไข อัพเดทโปรแกรมคอมพิวเตอร์\n- อัพเกรดเครื่องคอมพิวเตอร์และจัดหาอุปกรณ์ตามความต้องการของลูกค้า\n- รับประกอบเครื่องตามสั่ง  พร้อมจัดส่ง โดยมีบริการติดตั้งถึงสถานที่\n!!! ซ่อมไม่ได้ ไม่คิดค่าบริการใดๆ ทั้งสิ้น พร้อมรับประกันงานซ่อม........\nติดต่อสอบถาม\nโทร 081-2824231 (ป้อม)",
        "emails": [
            "nattaxxxx@gmail.com"
        ],
        "id": "488775187963195",
        "location": {
            "city": "Amphoe Pak Thong Chai",
            "country": "Thailand",
            "latitude": 14.9573765,
            "longitude": 102.0418701,
            "street": "บ้านงิ้ว 60 ม.15 ต.งิ้ว อ.ปักธงชัย จ.นครราชสีมา",
            "zip": "30150"
        },
        "name": "รับติดตั้งตรวจเช็ค กล้องวงจรปิด ซ่อมคอมพิวเตอร์ ถึงบ้าน",
        "phone": "081-2824231"
    },
    {
        "about": "ซ่อม ขาย จำนำ มือถือ คอมพิวเตอร์",
        "id": "253614858169349",
        "location": {
            "city": "Bangkok",
            "country": "Thailand",
            "latitude": 17.29342,
            "longitude": 100.12584,
            "street": "อ.พิชัย จ.อุตรดิตถ์",
            "zip": "53120"
        },
        "name": "ซ่อม ขาย จำนำ มือถือ คอมพิวเตอร์ ร้านเบสโฟน พิชัย"
    },
    {
        "about": "รับซ่อมคอมพิวเตอร์นอกสถานที่,ชลบุรี โทร 08-1253-0750\n\n26 ก.ค 2547",
        "description": "รับซ่อมคอมพิวเตอร์ถึงบ้านโดยคุณไม่ต้องยกคอมพิวเตอร์ไป มา ให้เสียแรง\n(รับแก้ปัญหาทั้ง Hardware และ Software) \n\nโทร 08-1253-0750\n\nอย่า! เสียเวลากับการยกคอมไปซ่อมที่ร้าน\n• ค่าเดินทางก็แสนจะแพง อากาศก็ร้อน แถมรถยังติดอีก \n• เสียเวลาเดินทาง เสียเวลาทำงาน \n• กลัวช่างแอบเปลี่ยนอะไหล่ \n• ซ่อมแล้ว พอยกกลับมาบ้าน ดันเปิดไม่ติดอีก \n• ซ่อมแล้ว ต้องกลับมาติดตั้ง printer และ internet เองอีก \n• วุ่นวายกับการเสียบ - ถอดสายไฟ \nเปิดเครื่องไม่ติด , ติดไวรัส , เครื่องช้า , เครื่องแฮ้งค์ ,print ไม่ออก , เล่นเน็ตไม่ได้\n\nพื้นที่ให้บริการ จังหวัดชลบุรี\n\n- กรณีซ่อม,ลงโปรแกรมนอกสถานที่ ค่าบริการ 300-600 บาท \n(ตามระยะทาง) (และความมากน้อยของข้อมูลSoftware)\n\nโทร 08-1253-0750\nNattanan_Com: Computer repair on site service® ",
        "emails": [
            "nattanan_com@live.com"
        ],
        "general_info": "อย่า! เสียเวลากับการยกคอมไปซ่อมที่ร้าน\n• ค่าเดินทางก็แสนจะแพง อากาศก็ร้อน แถมรถยังติดอีก \n• เสียเวลาเดินทาง เสียเวลาทำงาน \n• กลัวช่างแอบเปลี่ยนอะไหล่ \n• ซ่อมแล้ว พอยกกลับมาบ้าน ดันเปิดไม่ติดอีก \n• ซ่อมแล้ว ต้องกลับมาติดตั้ง printer และ internet เองอีก \n• วุ่นวายกับการเสียบ - ถอดสายไฟ \nเปิดเครื่องไม่ติด , ติดไวรัส , เครื่องช้า , เครื่องแฮ้งค์ ,print ไม่ออก , เล่นเน็ตไม่ได้\n\nพื้นที่ให้บริการ จังหวัดชลบุรี\n\n- กรณีซ่อม,ลงโปรแกรมนอกสถานที่ ค่าบริการ 300-600 บาท \n(ตามระยะทาง) (และความมากน้อยของข้อมูลSoftware)\n\nโทร 08-1253-0750\n",
        "id": "173040576080965",
        "location": {
            "city": "Phanat Nikhom",
            "country": "Thailand",
            "street": "Phanat Nikhom, Chon Buri, Thailand",
            "zip": "20140"
        },
        "name": "รับซ่อมคอมพิวเตอร์นอกสถานที่,ชลบุรี",
        "phone": "0812530750"
    },
    {
        "about": "0832700987",
        "id": "470704003073183",
        "location": {
            "city": "Bangkok",
            "country": "Thailand",
            "latitude": 13.72139,
            "longitude": 100.48717,
            "street": "กทม.",
            "zip": "10600"
        },
        "name": "รับติดตั้งและซ่อม จานดาวเทียม คอมพิวเตอร์\u0026ติดตั้งเซิฟเวอร์ และ กล้องcctv",
        "phone": "0832700987"
    },
    {
        "about": "โครงการซ่อมบำรุงคอมพิวเตอร์โน้ตบุ๊กแก่คณะครู",
        "id": "477276269015115",
        "name": "โครงการซ่อมบำรุงคอมพิวเตอร์โน้ตบุ๊กแก่คณะครูโรงเรียนจอมทอง"
    },
    {
        "about": "แก้ทุกปัญหาคอมพิวเตอร์",
        "id": "708549015911176",
        "location": {
            "city": "Udon Thani",
            "country": "Thailand",
            "latitude": 17.41481,
            "longitude": 102.78708,
            "street": "อ.วังสามหมอ",
            "zip": "48280"
        },
        "name": "วังสามหมอ รับซ่อมคอม  แก้ทุกปัญหาคอมพิวเตอร์ ราคากันเอง",
        "phone": "0956641096"
    },
    {
        "about": "Fast Overclock Computer\nซ่อมคอมพิวเตอร์ถึงบ้าน ในพื้นที่กรุงเทพ-ราชบุรี และใกล้เคียง\nโทร. 094-056-8632",
        "description": "...\" Simplify your PC\nเพราะคอมพิวเตอร์เป็นเรื่องง่าย \"...\n\nบริการซ่อมคอม-ประกอบคอม-อัพเกรดคอมพิวเตอร์/โน๊ตบุ๊ค\nทุกชนิด ทุกแบรนด์ ทุกปัญหา ทุกอาการ ทั้งระบบ windows และ mac\nมองหาอะไหล่-ชิ้นส่วน-อุปกรณ์คอมพิวเตอร์ตามความต้องการ\n\nบริการถึงหน้าบ้านคุณ\nเริ่มต้นเพียง 350 บาท  (คิดตามจริงจากอาการและระยะทาง)\n\nโทรเลย. 094-056-8632\n\nบริการอย่างเป็นมิตร รับประกันซ่อมไม่ได้ไม่คิดเงิน",
        "emails": [
            "fastoverclockcom@gmail.com"
        ],
        "general_info": "ที่อยู่ : 86/14 ม.3, ซ.งามวงศ์วาน46 ถ.งามวงศ์วาน แขวงลาดยาว เขตจตุจักร กรุงเทพฯ 10900\n\nAddress: 86/14 M.3, Ngam Wong Wan 46, Ngam Wong Wan rd., Lat Yao, Chatuchak, Bangkok 10900, Thailand",
        "id": "1477853785790445",
        "location": {
            "city": "Bangkok",
            "country": "Thailand",
            "latitude": 13.8444904608,
            "longitude": 100.564377588,
            "zip": "10900"
        },
        "name": "Fast OC Computer  电脑精灵: ฟาสโอซี คอม ซ่อมคอมพิวเตอร์ถึงบ้าน",
        "phone": "094-056-8632"
    },
    {
        "about": "ศูนย์บริการ จำหน่าย/ซ่อม คอมพิวเตอร์-กล้องวงจรปิด-โน๊ตบุ๊ก-มือถือ ครบวงจร",
        "id": "340412329436892",
        "location": {
            "city": "Changwat Trat",
            "country": "Thailand",
            "latitude": 11.81744,
            "longitude": 102.85517,
            "street": "339/5  ถ.สนามบิน ต.คลองใหญ่ อ.คลองใหญ่ จ.ตราด",
            "zip": "23110"
        },
        "name": "ร้านเล็กคอม ขายซ่อมอุปกรณ์คอมพิวเตอร์และกล่องวงจอปิด",
        "phone": "0865574183 "
    },
    {
        "about": "พบกันที่ aekcom.com",
        "description": "http://www.aekcom.com/ เว็บไซต์หลักเข้าไปดูได้เลยครับ\nรับ : ซ่อมคอมพิวเตอร์ทุกรุ่นทุกยี้ห้อ และปริ้นเตอร์ทุกรุ่นทุกยี้ห้อ",
        "id": "468967786469712",
        "location": {
            "city": "Samut Prakan",
            "country": "Thailand",
            "latitude": 13.574035732559,
            "longitude": 100.6461752786,
            "zip": "10280"
        },
        "name": "Aekcom รับซ่อมคอมพิวเตอร์ เขียนเว็บ กู้ข้อมูล",
        "phone": "0981243897"
    },
    {
        "description": "089-2141953",
        "emails": [
            "praneejack10120@gmail.com"
        ],
        "id": "1664631673773434",
        "location": {
            "city": "ไทย",
            "street": "ถนนพระราม3 กทม.",
            "zip": "10120"
        },
        "name": "รับซ่อมโน๊ตบุ๊ตคอมพิวเตอร์pcทุกอาการประกอบคอม",
        "phone": "0892141953"
    },
    {
        "about": "ตลาดซื้อ ขาย สินค้า หลุดจำนำ ร้านเฟรนด์โฟน รับสั่งจาก ebay",
        "id": "399577683430031",
        "location": {
            "city": "Pitsanulok",
            "country": "Thailand",
            "street": "pitsanulok",
            "zip": "65000"
        },
        "name": "ร้านเฟรนด์โฟน ซ่อมมือ คอมพิวเตอร์ รับสั่งสินค้าจาก ต่างประเทศ",
        "phone": "+66895593955"
    },
    {
        "about": "Skycomputer\nรับซ่อมนอกสถานที่บริเวณ ดอนเมือง\nสนใจติดต่อ หรือ ID Line pakon2010\nติดต่อได้ที่ 091-0300616",
        "id": "649702705079429",
        "location": {
            "city": "ไทย",
            "street": "291/56 ซ.ศาลเจ้าพ่อสมบูรณ์ แขวงสีกัน เขตดอนเมือง",
            "zip": "10210"
        },
        "name": "รับซ่อมคอมพิวเตอร์ โน๊ตบุ๊ค ดอนเมือง",
        "phone": "0910300616"
    },
    {
        "id": "227991167217189",
        "name": "ง.30241 ซ่อมบำรุงคอมพิวเตอร์ satit KKU"
    },
    {
        "about": "ติดตั้ง ซ่อม จำหน่าย คอมพิวเตอร์ อุปกรณ์ไอที",
        "description": "ร้านท่าคอยโซลูชั่นส์ อยู่ถนนเส้นคลองสาย 2 ก่อนถึงโครงการส่งน้ำฯ เพชรบุรี (เขื่อนเพชร)\n\nเบอร์โทรศัพท์ : (032) 899 711, (086) 759 6846\n\nพิกัดร้าน : 12°54'46.9\"N 99°51'27.9\"E\n\nLINE ID : m_pisawat",
        "emails": [
            "pisawat@gmail.com"
        ],
        "id": "258132717677090",
        "location": {
            "city": "จังหวัดเพชรบุรี",
            "street": "บ้านเลขที่ 103 หมู่ 6 ตำบลท่าคอย อำเภอท่ายาง",
            "zip": "76130"
        },
        "name": "ร้านท่าคอยโซลูชั่นส์ ซ่อม/จำหน่ายคอมพิวเตอร์ อุปกรณ์ไอทีทุกชนิด",
        "phone": "0867596846"
    },
    {
        "about": "รับซ่อมคอมพิวเตอร์ ประกอบ อัพเกรด  ทั้งในและนอกสถานที่ บริการเป็นกันเอง ราคามิตรภาพ",
        "emails": [
            "moo_0898838092@hotmail.com"
        ],
        "id": "877701568909706",
        "location": {
            "city": "Bangkok",
            "country": "Thailand",
            "latitude": 13.665169841764,
            "longitude": 100.40963172913,
            "street": "เอกชัย เขตบางบอน แขวงบางบอน กรุงเทพมหานคร",
            "zip": "10150"
        },
        "name": "รับซ่อมคอมพิวเตอร์ ในและนอก สถานที่",
        "phone": "093-243-3084"
    },
    {
        "id": "833852263348876",
        "location": {
            "city": "Nakhon Pathom",
            "country": "Thailand",
            "latitude": 13.8882475,
            "longitude": 99.924675,
            "street": "108",
            "zip": "ึ73000"
        },
        "name": "นิธิวิทย์คอมพิวเตอร์ ซ่อมคอมลงโปรแกรม",
        "phone": "0851734699"
    },
    {
        "about": "รับซ่อมคอมพิวเตอร์  โน๊ตบุ๊ค บริการลงวินโดวส์ 7 - 8 - 8.1 และลงโปรแกรม",
        "id": "158034581199444",
        "location": {
            "latitude": 8.4788666205993,
            "longitude": 99.855809211731,
            "street": "หอพักบ้านปลายฝัน",
            "zip": "80280"
        },
        "name": "รับซ่อมคอมพิวเตอร์ โน๊ตบุ๊ค วค-คอน",
        "phone": "0936410116"
    },
    {
        "about": "ซ่อมพิวคอมพิวเตอร์ - โน๊ตบุ๊คนอกสถานที่",
        "id": "533083963489637",
        "location": {
            "city": "Amphoe Muang Phetchabun",
            "country": "Thailand",
            "latitude": 14.90406,
            "longitude": 100.39669,
            "street": "เมืองเพชรบูรณ์",
            "zip": "16000"
        },
        "name": "บริการซ่อมคอมพิวเตอร์-notebook นอกสถานที่ บริการถึงทีพัก-0852465371",
        "phone": "0852465371"
    },
    {
        "about": "รับซ่อมคอมพิวเตอร์โน๊คบุคปริ้นเตอร์",
        "description": "รับซ่อมคอมพิวเตอร์ทั้งในและนอกสถาณที่ ต่อแท้งค์ปริ้นเตอร์ canon พร้อมหมึกคุณภาพ\nสนใจติดต่อสอบถามกันได้ครับ 0811996526",
        "id": "492336147444402",
        "location": {
            "street": "ทวีกิจแม่กลอง"
        },
        "name": "Bird Services รับซ่อมคอมพิวเตอร์ โน๊ตบุค ปริ้นเตอร์",
        "phone": "0811996526"
    },
    {
        "about": "ไอที โปรเจค ซ่อมและจำหน่ายอุปกรณ์ไอทีทุกชนิด",
        "id": "620906201384408",
        "name": "ไอที โปรเจค ซ่อม-จำหน่ายคอมพิวเตอร์"
    },
    {
        "about": "ซ่อมทุกอย่่างที่เกี่ยวกับคอมพิวเตอร์    ราคา เป็นกันเอง",
        "id": "597708496926181",
        "name": "แผนกซ่อม ขาย ซื่อ คอมพิวเตอร์"
    }
]