[
    {
        "about": "อยู่ในขอนแก่นถ้ามาซื้อปริ้นเตอร์บอกว่ารู้มาจากเพจ PK print ลดให้พิเศษ",
        "id": "978981802130777",
        "location": {
            "city": "Khon Kaen",
            "country": "Thailand",
            "latitude": 16.4354897,
            "longitude": 102.8407211,
            "street": "ขอนแก่น",
            "zip": "40000"
        },
        "name": "ร้าน PK print ขาย-ซ่อมปริ้นเตอร์และคอมพิวเตอร์",
        "phone": "0879897268"
    },
    {
        "about": "รับซ่อม คอมพิวเตอร์ โน๊ตบุ้ค เปลี่ยนจอทัชสกรีนมือถือ\nและจำหน่ายอุปกรณ์คอมพิวเตอร์",
        "id": "831921943528421",
        "name": "พี แอนด์ พี คอมซิสเท็ม /ซ่อมและจำหน่ายคอมพิวเตอร์และมือถือ"
    },
    {
        "id": "645168385594540",
        "location": {
            "city": "Khonkean",
            "country": "Thailand",
            "latitude": 16.4336378,
            "longitude": 102.8629307,
            "street": "ไกล้ๆบัณฑิตเอเชีย"
        },
        "name": "ร้านo8 ร้านขายอุปกรณ์คอมพิวเตอร์และซ่อม"
    },
    {
        "id": "641881875838877",
        "location": {
            "city": "Bangkok",
            "country": "Thailand",
            "latitude": 13.75395,
            "longitude": 100.50224,
            "street": "104/96 ม.6 ต.พันท้ายนรสิงห์ อ.เมือง จ.สมุทรสาคร"
        },
        "name": "พนาลี ซ่อมคอมพิวเตอร์/กล้องวงจรปิด"
    },
    {
        "id": "641782695867560",
        "location": {
            "city": "Prachuap Khiri Khan",
            "country": "Thailand",
            "latitude": 11.8023696,
            "longitude": 99.7956189
        },
        "name": "ร้านบอยอ ซ่อมคอมพิวเตอร์"
    },
    {
        "id": "639525869474274",
        "location": {
            "city": "Si Racha",
            "country": "Thailand",
            "latitude": 13.17479,
            "longitude": 100.93091,
            "street": "ต.บึง อ.ศรีราชา จ.ชลบุรี 20230"
        },
        "name": "ร้านซ่อมคอมพิวเตอร์"
    },
    {
        "id": "639481219416830",
        "location": {
            "city": "Bangkok",
            "country": "Thailand",
            "latitude": 13.6853465,
            "longitude": 100.481454,
            "zip": "10150"
        },
        "name": "Kk.คอมพิวเตอร์บริการขายและซ่อมอุปกรณ์คอมพิวเตอร์ทุกชนิด",
        "phone": "021082782"
    },
    {
        "id": "635539983190708",
        "location": {
            "city": "Krabi",
            "country": "Thailand",
            "latitude": 8.0506688222222,
            "longitude": 98.821302933333,
            "zip": "81000"
        },
        "name": "Lindy Wifi คอมพิวเตอร์ ห้องซ้อมดนตรี"
    },
    {
        "about": "รับซ่อมเครื่องใช้ไฟฟ้า ทำบ้านน็อคดาวร์ คอมพิวเตอร์ อื่นๆ",
        "id": "634314250036140",
        "location": {
            "city": "Amphoe Bang Lamung",
            "country": "Thailand",
            "latitude": 12.9667,
            "longitude": 100.9,
            "street": "19 ม.2 ต.ตะเคียนเตี้ย อ.เมือง จ. ชลบุรี",
            "zip": "20150"
        },
        "name": "รับซ่อมเครื่องใช้ไฟฟ้า คอมพิวเตอร์ เดินไฟบ้าน ทำบ้านน็อคดาวร์ อื่นๆ",
        "phone": "0910812310"
    },
    {
        "id": "627955290572485",
        "location": {
            "city": "Min Buri",
            "country": "Thailand",
            "latitude": 13.7951403,
            "longitude": 100.7127228,
            "street": "soi ramkhamhaeng166",
            "zip": "10510"
        },
        "name": "Cm Service ซ่อมคอมพิวเตอร์ ติดตั้งกล้องวงจรปิด",
        "phone": "0815674633"
    },
    {
        "id": "664509106984207",
        "location": {
            "city": "แม่สะเรียง",
            "latitude": 18.106095949124,
            "longitude": 97.938437461853
        },
        "name": "แผนกคอมพิวเตอร์ธุรกิจแต่ซ่อมคอมอยู่แผนกไฟฟ้าวิทยาลัยการอาชีพแม่สะเรียง"
    },
    {
        "id": "624640504268985",
        "location": {
            "city": "Bangkok",
            "country": "Thailand",
            "latitude": 14.118360164172,
            "longitude": 100.6162463688,
            "zip": "12110"
        },
        "name": "ล้านคอม\" รับซ่อมคอมพิวเตอร์ \u0026 โน๊ตบุ๊ค"
    },
    {
        "id": "623792847742433",
        "location": {
            "city": "Bang Saen",
            "country": "Thailand",
            "latitude": 13.2828305,
            "longitude": 100.9292869,
            "zip": "20130"
        },
        "name": "ซีนิคโซลูชั่น ศูนย์ซ่อมคอมพิวเตอร์ไอที ทุกชนิด"
    },
    {
        "id": "618012751661635",
        "location": {
            "city": "Khonkean",
            "country": "Thailand",
            "latitude": 16.01939,
            "longitude": 103.60851,
            "street": "ขอนแก่น"
        },
        "name": "ร้านo8ร้านขายอุปกรณ์คอมพิวเตอร์และซ่อม"
    },
    {
        "id": "612282842150576",
        "location": {
            "city": "Makham",
            "country": "Thailand",
            "latitude": 12.672971666667,
            "longitude": 102.19846194444
        },
        "name": "ร้านไฮคิว รับซ่อม คอมพิวเตอร์ โทรศัพท์ ถ่ายรูป"
    },
    {
        "id": "600096313365128",
        "location": {
            "latitude": 16.2959201,
            "longitude": 103.2035076
        },
        "name": "รับซ่อมคอมพิวเตอร์ บ้านหนองอุ่ม"
    },
    {
        "id": "660882427286134",
        "location": {
            "city": "Ban Du",
            "country": "Thailand",
            "latitude": 19.984818426911,
            "longitude": 99.860879927967
        },
        "name": "ศูนย์ซ่อมคอมพิวเตอร์"
    },
    {
        "id": "596415273773757",
        "location": {
            "city": "Bangkok",
            "country": "Thailand",
            "latitude": 13.969905003551,
            "longitude": 100.64798680085,
            "street": "2/9 ตลาดนานาเจริญ ถนน เสมาฟ้าคราม (คลอง2) ต.คูคต อ.ลำลูกกา จ. ปทุมธานี",
            "zip": "12130"
        },
        "name": "รับซ่อม จำหน่ายอุปกรณ์ และให้คำปรึกษาปัญหาคอมพิวเตอร์ - นานาเจริญ",
        "phone": "0807848475"
    },
    {
        "id": "682215081911890",
        "location": {
            "city": "Changwat Udon Thani",
            "country": "Thailand",
            "latitude": 17.39353959075,
            "longitude": 102.79039286352
        },
        "name": "อาร์มพัสสุ ร้านซ่อมคอมพิวเตอร์จินตคาม อุดรธานี"
    },
    {
        "id": "699480633445026",
        "location": {
            "city": "Muang Surin",
            "country": "Thailand",
            "latitude": 14.90883,
            "longitude": 103.48616,
            "street": "280/10 ถ.เทศบาล3 ต.ในเมือง อ.เมือง จ.สุรินทร์ 3200",
            "zip": "32000"
        },
        "name": "Panu Service ศูนย์ซ่อมคอมพิวเตอร์\u0026มือถือ พร้อมจำหน่าย"
    },
    {
        "id": "717844808271108",
        "location": {
            "latitude": 12.591249849647,
            "longitude": 99.754548445344
        },
        "name": "ร้านซ่อม คอมพิวเตอร์ IT หนองพลับ"
    },
    {
        "about": "รับซักและรีดหรือรีดอย่างเดียว มีบริการรับส่ง / รับซ่อมคอมพิวเตอร์ / ก๋วยเตี๋ยวรสเด็ด",
        "description": "- บริการซักรีด หรือรีดอย่างเดียว ทั้งรายชิ้นและรายเดือน สำหรับสมาชิกรายเดือน ยินดีให้บริการรับส่ง \n- บริการตรวจเช็ค รับซ่อม แก้ปัญหาคอมพิวเตอร์ ทั้ง PC และ Notebook ยินดีให้บริการถึงที่บ้านท่าน , รับติดตั้ง Network Systems , รับติดตั้งกล้องวงจรปิด CCTV Systems , รับทำเว็บไซต์ , รับทำ Presentation งานต่างๆ ในราคาย่อมเยาว์ (จริงจริ๊งงงง..) ฯลฯ\n\nบ้านธงเขียว ที่ตั้ง บางกร่าง นนทบุรี",
        "emails": [
            "thongkiew2015@gmail.com"
        ],
        "id": "718075781642887",
        "location": {
            "city": "Amphoe Muang Nonthaburi",
            "country": "Thailand",
            "latitude": 13.85238,
            "longitude": 100.4887,
            "street": "1/107 หมู่ 4 ซ.บางกร่าง34 (แก้วประกาศิต) ถ.บางกรวย-ไทรน้อย ต.บางกร่าง",
            "zip": "11000"
        },
        "name": "บ้านธงเขียว บริการซักรีด และรับซ่อมคอมพิวเตอร์",
        "phone": "02-903-4823"
    },
    {
        "about": "ซ่อมคอมพิวเตอร์\n",
        "id": "718372124897421",
        "location": {
            "city": "Bangkok",
            "country": "Thailand",
            "latitude": 14.35154,
            "longitude": 100.85197,
            "street": "59/11 หมู่ 7 ต.หนองปลาหมอ อ.หนองแค จ.สระบุรี",
            "zip": "18140"
        },
        "name": "รับซ่อมคอมพิวเตอร์นอกสถานที่ ซ่อมคอมถึงบ้าน",
        "phone": "0929439001"
    },
    {
        "about": "รับซ่อมบำรุงรรบบคอมพิวเตอร์เเละเน็ตเวริ์ค ถึงที่",
        "id": "719472201399709",
        "location": {
            "city": "Phuket",
            "country": "Thailand",
            "latitude": 7.8753099,
            "longitude": 98.3937988,
            "street": "ภูเก็ต",
            "zip": "83000"
        },
        "name": "ซ่อม บำรุง ระบบคอมพิวเตอร์เเละเน็ดเวริ์ค",
        "phone": "076221155"
    },
    {
        "id": "720358357974175",
        "location": {
            "city": "Tha Sen",
            "country": "Thailand",
            "latitude": 13.036497364793,
            "longitude": 99.912649077083
        },
        "name": "ศูนย์ซ่อมคอมพิวเตอร์ สาขาใหญ่ Tayza"
    }
]