[
    {
        "id": "465073146871299",
        "location": {
            "latitude": 13.579740724539,
            "longitude": 99.755222769547
        },
        "name": "ตอนทหารช่างประปาสนาม"
    },
    {
        "id": "445953055481867",
        "location": {
            "city": "Surat Thani",
            "country": "Thailand",
            "latitude": 9.05328783,
            "longitude": 99.17143504,
            "zip": "84130"
        },
        "name": "ประปาบ้านทุ่งคอก หมู่ 5 ต.ท่าโรงช้าง"
    },
    {
        "id": "419763148190142",
        "location": {
            "city": "Muang Patani",
            "country": "Thailand",
            "latitude": 6.8615832263113,
            "longitude": 101.25338156444
        },
        "name": "ร้านซอดีกีนการไฟฟ้าประปาเครื่องมือช่าง"
    },
    {
        "id": "411599698925604",
        "location": {
            "city": "Bangkok",
            "country": "Thailand",
            "latitude": 13.907900117541,
            "longitude": 100.55706803136,
            "zip": "11120"
        },
        "name": "ตำหรับความแรง ช่างหมูคลองประปา"
    },
    {
        "id": "405632846223952",
        "location": {
            "city": "Amphoe Hat Yai",
            "country": "Thailand",
            "latitude": 6.9800925254822,
            "longitude": 100.44661712646
        },
        "name": "ร้านเอสดีดี การประปาและเครื่องมือช่าง"
    },
    {
        "id": "399549280229251",
        "location": {
            "latitude": 12.8225,
            "longitude": 101.65125
        },
        "name": "สำนักงานช่างประปา มมว"
    },
    {
        "id": "386011818131568",
        "location": {
            "city": "Nakhon Pathom",
            "country": "Thailand",
            "latitude": 13.819586177923,
            "longitude": 100.06072262012
        },
        "name": "ช่างประปา"
    },
    {
        "about": "รับงาน ระบบประปา สุขาภิบาล ติดตั้ง ปั๊มนำ้ สุขภัณฑ์  และให้คำปรึกษา\nID  line noon_1819  (ช่างมนูญ)",
        "id": "303536859819915",
        "location": {
            "city": "Bangkok",
            "country": "Thailand",
            "latitude": 13.69877,
            "longitude": 100.52258,
            "street": "สามพราน  นครปฐม"
        },
        "name": "ช่างระบบประปา/สุขาภิบาล",
        "phone": "0853831364"
    },
    {
        "id": "1617835675110153",
        "location": {
            "latitude": 11.0800103,
            "longitude": 99.3747001
        },
        "name": "เขื่อนประปาช้างแรก"
    },
    {
        "about": "ช่างผู้เชี่ยวชาญ ในงานด้านระบบไฟฟ้าประปาและการต่อเติม ทำงานด้วยใจ ราคาไม่แรง บริการดี ",
        "id": "1578982222340242",
        "location": {
            "city": "Amphoe Lam Luk Ka",
            "country": "Thailand",
            "latitude": 13.9333,
            "longitude": 100.75,
            "street": "คลอง5",
            "zip": "12150"
        },
        "name": "ช่างพิสิษฐ์ งานไฟฟ้า-ประปา",
        "phone": "0814973935"
    },
    {
        "about": "จำหน่ายอุปกรณ์ช่างไฟฟ้า ประปา มอเตอร์ ปั้มลม ตู้เชื่อม ตัวแทนจำหน่ายสินค้า MITSUBISHI, BOSCH, MAKITA, MAKTEC, PUMA \n",
        "emails": [
            "team.muangthai@gmail.com",
            "a.asirawat@hotmail.com"
        ],
        "id": "1130455876981204",
        "location": {
            "city": "Pattani",
            "country": "Thailand",
            "latitude": 6.8663001462063,
            "longitude": 101.25610966587,
            "street": "84/2-4 ถ.อุดมวิถี ต.อาเนาะรู อ.เมือง",
            "zip": "94000"
        },
        "name": "ร้านเมืองไทย ขาย ถูก เครื่องมือช่างก่อสร้าง ไฟฟ้า ประปาทุกชนิด",
        "phone": "073349655"
    },
    {
        "id": "164578733632008",
        "location": {
            "city": "Nakhon Pathom",
            "country": "Thailand",
            "latitude": 13.826033345258,
            "longitude": 100.05328353056,
            "zip": "73000"
        },
        "name": "อู่ช่างกบทางเข้าประปานาสร้าง"
    },
    {
        "id": "472585962771282",
        "location": {
            "latitude": 20.454358938169,
            "longitude": 99.964080769662
        },
        "name": "การประปาส่วนภูมิภาคสาขาแม่สาย (หน่วยผลิตน้ำเกาะช้าง)"
    },
    {
        "id": "241665435958991",
        "location": {
            "latitude": 13.579874070464,
            "longitude": 99.755134133972
        },
        "name": "ทหารช่างประปาสนาม ค่ายบุรฉัตร"
    },
    {
        "id": "148368751991391",
        "location": {
            "city": "Bangkok",
            "country": "Thailand",
            "latitude": 13.823182553759,
            "longitude": 100.69981682975,
            "zip": "10510"
        },
        "name": "ภาคภูมิพาณิชย์ ไฟฟ้า ประปา เครื่องมือช่าง"
    },
    {
        "id": "525678370850128",
        "location": {
            "latitude": 14.148918343721,
            "longitude": 100.52965194928,
            "street": "ต.ช้างใหญ่ อ.บางไทร จ.พระนครศรีอยุธยา"
        },
        "name": "โรงกรองน้ำการประปาส่วนภูมิภาคบางไทร"
    },
    {
        "about": "การออกแบบสร้างบ้าน",
        "id": "1609658195950243",
        "location": {
            "city": "Khon Kaen",
            "country": "Thailand",
            "latitude": 16.4333,
            "longitude": 102.833,
            "street": "khon kaen",
            "zip": "4000"
        },
        "name": "DD hard ware อุปกรณ์ไฟฟ้า ประปา อุปกรณ์การช่างทุกชนิด และออกแบบสร้างบ้าน",
        "phone": "0616906621"
    },
    {
        "about": "รับซ่อมงานประปาทุกชิด",
        "id": "341937822651841",
        "location": {
            "city": "Amphoe Muang Songkhla",
            "country": "Thailand",
            "latitude": 7.0152,
            "longitude": 100.39974,
            "street": "110 ทุ่งเสา 1 ซอย 2",
            "zip": "90110"
        },
        "name": "ช่างประปาหาดใหญ่ - รับซ่อมงานประปาทุกชนิด",
        "phone": "0910135650"
    },
    {
        "about": "สำหรับท่านที่กำลังประสบปัญหาเกี่ยวกับระบบท่อน้ำประปารั่วซึม ",
        "description": "สำหรับท่านที่กำลังประสบปัญหาเกี่ยวกับระบบท่อน้ำประปารั่วซึม ท่อน้ำทิ้งตัน ท่อส้วมตัน อุปกรณ์เครื่องสุขภัณฑ์หรือปั๊มน้ำชำรุด รวมถึงท่านที่ต้องการวางระบบท่อน้ำประปาภายในอาคารบ้านพักอาศัยและอื่น ๆ ทางร้านพร้อมยินดีให้การบริการแก่ท่าน ด้วยทีมช่างมือ\n\n- จำหน่าย \n- ติดตั้ง\n- ซ่อม\n- และรับทำงานระบบประปาใหม่ของ\n-  ครอนโดมิเนียม , ออฟฟิศ , โรงงาน ,หมู่บ้าน , บ้านเดียว \nโดยช่างผู้ชำนาญงานมากกว่า 30 ปี\n\nติดต่อโดยตรง คุณ ประเสริฐ ยุทธกิจกำจร\nโทร : 02-5882833\nโทรศัทพ์มือถือ : 089-8821053\nFAX : 02-5916279",
        "id": "388243878045941",
        "location": {
            "city": "Non Buri",
            "country": "Thailand",
            "latitude": 13.8333,
            "longitude": 100.483,
            "street": "143 ถ.ติวานนท์ ต.บางกระสอ อ.เมือง จ.นนทบุรี",
            "zip": "11000"
        },
        "name": "ร้านเกียรติขจร  ช่างประปา นนทบุรี ราคาถูก",
        "phone": "0898821053"
    },
    {
        "id": "699696570137537",
        "location": {
            "city": "Bangkok",
            "country": "Thailand",
            "latitude": 13.75395,
            "longitude": 100.50224,
            "street": "ประชาสงเคราะ 23 เขต ดินแดง"
        },
        "name": "รับต่อเติม อาคาร บ้าน ระบบประปา   ไฟฟ้า โดยช่าง ผู้ชำนาญงาน",
        "phone": "0990563597 "
    }
]