[
    {
        "about": "หน้าสนามกีฬาราชนาวีสัตหีบ กม.5",
        "id": "149030935292148",
        "location": {
            "city": "Ban Sattahip",
            "country": "Thailand",
            "latitude": 12.68189,
            "longitude": 100.92461,
            "street": "114/314-317 ตำลพลูตาหลวง",
            "zip": "20180"
        },
        "name": "ร้านกิตติฮาร์ดแวร์ จำหน่ายวัสดุก่อสร้าง เหล็ก ไฟฟ้า ประปา สี เครื่องมือช่าง",
        "phone": "038247376"
    },
    {
        "id": "897352733648000",
        "name": "ช่างรับเหมาไฟฟ้าประปาแอร์เครื่องเย็นทุกชนิด"
    },
    {
        "about": "จำหน่าย สี ไฟฟ้า ประปา เครื่องมือช่างไม้ ช่างเหล็ก ช่างปูน by kmt",
        "id": "794733203877313",
        "location": {
            "city": "Muang Nonta Buri",
            "country": "Thailand",
            "street": "164/3 ม.3 พิมลราช บางบัวอง",
            "zip": "11110"
        },
        "name": "จำหน่ายสีไฟฟ้าประปาเครื่องมือช่าง",
        "phone": "029234550"
    },
    {
        "id": "1661104430803674",
        "name": "ชมรมช่างระบบประปา สุขาภิบาล แห่งประเทศไทย"
    },
    {
        "about": "ร้านค้าส่ง-ปลีก อุปกรณ์ก่อสร้าง ตกแต่ง ต่อเติมบ้าน ราคาถูก",
        "description": "\u003cscript\u003e\n  (function(i,s,o,g,r,a,m){i['GoogleAnalyticsObject']=r;i[r]=i[r]||function(){\n  (i[r].q=i[r].q||[]).push(arguments)},i[r].l=1*new Date();a=s.createElement(o),\n  m=s.getElementsByTagName(o)[0];a.async=1;a.src=g;m.parentNode.insertBefore(a,m)\n  })(window,document,'script','//www.google-analytics.com/analytics.js','ga');\n\n  ga('create', 'UA-55293412-1', 'auto');\n  ga('send', 'pageview');\n\n\u003c/script\u003e",
        "id": "551077735039121",
        "location": {
            "city": "Ubon Ratchathani",
            "country": "Thailand",
            "latitude": 15.234884253505,
            "longitude": 104.86976537948,
            "street": "ตลาด 5",
            "zip": "34000"
        },
        "name": "ศูนย์รวมวัสดุก่อสร้าง เครื่องมือช่าง ไฟฟ้า สี ประปา ราคาถูก Save House",
        "phone": "045317464"
    },
    {
        "id": "876831052395899",
        "location": {
            "city": "Bangkok",
            "country": "Thailand",
            "latitude": 13.7522,
            "longitude": 100.494,
            "street": "หนองแขม",
            "zip": "10160"
        },
        "name": "สาระพัดช่าง งานไฟฟ้า งานประปา งานจิปาถะ ฯลฯ",
        "phone": "0819814002,0827821079"
    },
    {
        "about": " จำหน่าย เครื่องมือช่าง/ไฟฟ้า/ประปา/ห้องน้ำ/- พร้อมจัดส่ง",
        "description": "จำหน่าย อุปกรณ์ก่อสร้าง  ผลิตภัณฑ์สีภายในภายนอก  / อุปกรณ์ไฟฟ้า ปลั๊ก สวิท สายไฟ ภายในบ้าน / อุปกรณ์ห้องน้ำฝักบัว สายชำระ ก๊อกน้ำ / อุปกรณ์อีเลคโทรนิค / อุปกรณ์ท่อประปาข้อต่อต่าง / เครื่องมือช่างงานหนักงานเบา เช่นสว่าน เครื่องแย๊ก แท่นตัดเหล็ก ใบตัดต่าง หินเจีย ชุดบล๊อก ปแจ แท่นตัดกะเบื้อง รับซ่อมเครื่องมือช่างทุกชนิด / บริการจัดหาเครื่องมือช่างพิเศษทุกชนิดในราคาถูก มีบริการจัดส่งทั่วประเทศ \nสนง.ใหญ๋ ร้านก้าวหน้าเจริญทรัพย์ฮาร์ดแวร์ 304/743-744 ซอยพหลโยธิน49/1 ถนนพหลโยธิน แขวงตลาดบางเขน เขตหลักสี่ กทม.   087-4807650 094-5465575 02-5796413",
        "emails": [
            "a_supercar9@hotmail.com"
        ],
        "id": "1424298647817908",
        "location": {
            "city": "หลักสี่",
            "street": "340/743 ม.2 ซอยพหลโยธิน49/1 ถนนพหลโยธิน แขวงตลาดบางเขน",
            "zip": "10210"
        },
        "name": "เครื่องมือช่าง/อุปกรณ์ก่อสร้าง/ไฟฟ้า/ประปา/ห้องน้ำ - ออนไลท์",
        "phone": "025796413"
    },
    {
        "id": "865774150173584",
        "name": "เจ้าหน้าที่ช่างโยธา (มิสเตอร์ประปา)"
    },
    {
        "id": "472182626170305",
        "name": "TMM อุปกรณ์ประปาและเครื่องมือช่าง"
    },
    {
        "id": "734252056658308",
        "location": {
            "city": "Bangkok",
            "country": "Thailand",
            "latitude": 13.70426,
            "longitude": 100.40088,
            "street": "บางแค",
            "zip": "10160"
        },
        "name": "รับเหมาปรับปรุงต่อเติมบ้าน/ซ่อมประปา อื่นโดยช่างชำนาญ20กว่าปี",
        "phone": "0988489705"
    },
    {
        "id": "715236085255812",
        "location": {
            "city": "Rayong",
            "country": "Thailand",
            "latitude": 12.680659959775,
            "longitude": 101.28152400255
        },
        "name": "ร้านตัดผมช่างชาญตรงข้ามประปาระยอง"
    },
    {
        "id": "701033689940052",
        "location": {
            "city": "Prachin",
            "country": "Thailand",
            "latitude": 14.053824446181,
            "longitude": 101.37551992883,
            "street": "หน้าประปาเก่า"
        },
        "name": "อู่ช่างแอร์ วิ่งปรี้ด จี้ดทุกเกียร์",
        "phone": "0812740233"
    },
    {
        "id": "700393060069408",
        "location": {
            "latitude": 15.00049,
            "longitude": 102.25562
        },
        "name": "การประปาส่วนภูมิภาค สาขานครราชสีมา สถานีผลิตน้ำท่าชัาง"
    },
    {
        "about": "รับซ่อมบ้าน ซ่อมหลังคาต่อเติมบ้าน ทำระบบประปา ฯลฯ",
        "id": "678611272244314",
        "location": {
            "city": "Chiang Mai",
            "country": "Thailand",
            "latitude": 18.7903,
            "longitude": 98.9817,
            "street": "Choengdoi Doisaket",
            "zip": "50220"
        },
        "name": "ซ่อมบ้าน ระบบประปา โดย ช่างกานต์ Mr.karn",
        "phone": "0613525435"
    },
    {
        "id": "670932709661259",
        "location": {
            "city": "Bangkok",
            "country": "Thailand",
            "latitude": 13.907078844118,
            "longitude": 100.55762565909
        },
        "name": "ร้านช่างหนุ่ม เลียบคลองประปา"
    },
    {
        "id": "656496334424321",
        "location": {
            "city": "Bangkok",
            "country": "Thailand",
            "latitude": 13.70179,
            "longitude": 100.48784,
            "zip": "10600"
        },
        "name": "ส. ประปาการช่าง",
        "phone": "2-8777793"
    },
    {
        "id": "644656345564187",
        "location": {
            "latitude": 14.654941339991,
            "longitude": 101.01823526444
        },
        "name": "ฝ่ายประปา กองช่าง องค์การบรืหารส่วนตำบลบ้านป่า"
    },
    {
        "id": "750718708348250",
        "location": {
            "city": "Bang Khen",
            "country": "Thailand",
            "latitude": 13.86166639,
            "longitude": 100.54618563
        },
        "name": "ร้านช่างเจี๊บคลองประปา"
    },
    {
        "id": "581482881885099",
        "location": {
            "city": "Muang Tak",
            "country": "Thailand",
            "latitude": 16.880217443916,
            "longitude": 99.126308202089,
            "zip": "63000"
        },
        "name": "บ้านช่างปอประปาจัดให้"
    },
    {
        "id": "561653043871245",
        "location": {
            "city": "Chantaburi",
            "country": "Thailand",
            "latitude": 12.603846341383,
            "longitude": 102.09957889291,
            "zip": "22000"
        },
        "name": "ช่างประปาฮาเฮ",
        "phone": "--"
    },
    {
        "id": "559747414169364",
        "location": {
            "city": "Bangkok",
            "country": "Thailand",
            "latitude": 13.908049114671,
            "longitude": 100.55696186182
        },
        "name": "ช่างหมูคลองประปา"
    },
    {
        "id": "529566277107716",
        "location": {
            "city": "Bangkok",
            "country": "Thailand",
            "latitude": 13.90572377,
            "longitude": 100.60801589,
            "zip": "10210"
        },
        "name": "กองประปาและสุขาภิบาล กรมช่างโยธาทหารอากาศ"
    },
    {
        "id": "529125463896242",
        "location": {
            "city": "Bangkok",
            "country": "Thailand",
            "latitude": 13.8186320472,
            "longitude": 100.23813799024
        },
        "name": "พฤกษา 8ซอย 51ขายอุปกร์ไฟฟ้า ประปา และเครื่องมือช่างทุกชนิด"
    },
    {
        "id": "919255261442315",
        "location": {
            "city": "Bangkok",
            "country": "Thailand",
            "latitude": 14.0556368,
            "longitude": 100.5521893
        },
        "name": "ออฟฟิตสนาม บริษัท ช.การช่าง จำกัด - มหาชน ประปาปทุมธานี"
    },
    {
        "id": "892254334185755",
        "location": {
            "city": "Nonthaburi",
            "country": "Thailand",
            "latitude": 13.8707304,
            "longitude": 100.5460281,
            "street": "ประชาชื่น-นนท์3"
        },
        "name": "ร้านช่างเจี๊ยบ คลองประปา"
    }
]