[
    {
        "about": "ช่างเอ๋:งานประปา รับงานประปาทุกชนิด งานปราณีต เข้าดูรายละเอียดได้ในบันถึกครับ",
        "id": "172505219529015",
        "name": "ช่างประปา"
    },
    {
        "about": "ช่างประปา หาช่างประปา ติดตั้งประปา www.ConstructThai.com เว็บไซต์หาช่างอันดับ 1 ลงประกาศฟรี",
        "id": "1644011985830337",
        "location": {
            "city": "Bangkok",
            "country": "Thailand",
            "street": "76 ถ.สุขภิบาล 5 ซ.24 แขวงท่าแร้ง เขตบางเขน",
            "zip": "10220"
        },
        "name": "ช่างประปา",
        "phone": "0847653000"
    },
    {
        "about": "ซ่อม ท่อประปารั่ว\nเดิน ท่อ PVC PPR ",
        "id": "577922105670442",
        "name": "ช่าง ประปา",
        "phone": "081-3622991"
    },
    {
        "about": "รับซ่อมแซมแก้ไขระบบประปาทุกชนิด",
        "emails": [
            "nongnumomay11@gmail.com"
        ],
        "id": "941818922514735",
        "location": {
            "city": "Ban Haad Yai",
            "country": "Thailand",
            "latitude": 7.0152,
            "longitude": 100.39974,
            "street": "110 ทุ่งเสา 1 ซอย 2",
            "zip": "90110"
        },
        "name": "ช่างประปาหาดใหญ่",
        "phone": "0910135650"
    },
    {
        "about": "ช่างประปา",
        "emails": [
            "football0071@hotmail.com"
        ],
        "id": "366236016863080",
        "location": {
            "city": "สงขลา",
            "street": "อ.เมือง",
            "zip": "90000"
        },
        "name": "ช่างประปาสงขลา",
        "phone": "082-8672627 "
    },
    {
        "about": "ช่างประปา รับเดินท่อประปา ซ่อมท่อประปาแตก เดินท่อประปา ซ่อมท่อน้ำรั่วซึม",
        "description": "ช่างประปา รับเดินท่อประปา ตามบ้าน-อาคาร\n",
        "emails": [
            "dqconstruction@hotmail.com"
        ],
        "id": "129829140446627",
        "location": {
            "city": "Bangkok",
            "country": "Thailand",
            "zip": "10170"
        },
        "name": "ช่างประปา รับเดินท่อประปา ซ่อมท่อประปา เดินท่อประปา",
        "phone": "083 992 8083"
    },
    {
        "about": "งานประปา และ สุขาภิบาล\n",
        "id": "1579950215560249",
        "name": "ช่าง ประปา"
    },
    {
        "id": "478497705506859",
        "name": "ช่างประปา"
    },
    {
        "id": "599342690100889",
        "location": {
            "city": "Nakhon Sawan",
            "country": "Thailand",
            "latitude": 15.730335749817,
            "longitude": 100.11765299112
        },
        "name": "ช้างน้อยประปา"
    },
    {
        "id": "740847712695866",
        "location": {
            "latitude": 8.3724689470582,
            "longitude": 99.595526699509
        },
        "name": "ซอยประปา อ.ช้างกลาง จ.นครศรีฯ"
    },
    {
        "about": "รับเหมาระบบประปาและสุขาภิบาล ติดตั้งสุขภัณฑ์ ปั๊มน้ำ แก้ไขระบบประปาและท่อตัน",
        "id": "1546773042221384",
        "name": "ช่างบ่าวประปา",
        "phone": "0817193365"
    },
    {
        "id": "520110974700993",
        "name": "ช่างประปา ซ่อมปั๊มน้ำ"
    },
    {
        "id": "389877271221688",
        "name": "ช่างชลอ รับเหมาไฟฟ้า ประปา ซ่อมแซม 24 ชม"
    },
    {
        "about": "ราคากันเอง บริการรวดเร็ว \nสนใจติดต่อ..\n061-793-1896",
        "id": "392113770997827",
        "location": {
            "city": "Chiang Mai",
            "country": "Thailand",
            "latitude": 18.7903,
            "longitude": 98.9817,
            "street": "อำเภอเมือง",
            "zip": "50300"
        },
        "name": "ช่างประปาเชียงใหม่ ติดตั้งสุขภัณฑ์ รับเหมาต่อเติม",
        "phone": "061-793-1896"
    },
    {
        "id": "134176533295186",
        "name": "ช่างประปา"
    },
    {
        "id": "249494271926467",
        "location": {
            "city": "Bangkok",
            "country": "Thailand",
            "latitude": 13.774,
            "longitude": 100.65728,
            "street": "รามคำแหง",
            "zip": "10240"
        },
        "name": "ช่างประปา เดินท่อประปา ติดตั้งถังเก็บน้ำ ปั๊มน้ำ",
        "phone": "0870614409"
    },
    {
        "emails": [
            "prateepsri@gmail.com"
        ],
        "id": "452156881531224",
        "location": {
            "city": "Bangkok",
            "country": "Thailand",
            "latitude": 13.782586455249,
            "longitude": 100.43024925613,
            "street": "63/33 หมู่ 4 ถนนทุ่งมังกร แขวงฉิมพลี เขตตลิ่งชัน",
            "zip": "10170"
        },
        "name": "ขาย อุปกรณ์ Diy เครื่องมือช่าง เลื่อย สว่าน ไฟฟ้า ประปา",
        "phone": "086 310 3830"
    },
    {
        "about": "ช่างประปา",
        "id": "446212695569033",
        "name": "ช่างประปา"
    },
    {
        "about": "ช่างมืออาชืพ",
        "id": "729112993873072",
        "location": {
            "city": "Hat Yai",
            "country": "Thailand",
            "latitude": 7.0152,
            "longitude": 100.39974,
            "street": "102 ทุ่งเสา 1 ซ 2 ต.หาดใหญ อ.หาดใหญ่ จ.สงขลา",
            "zip": "90110"
        },
        "name": "ช่างบัญญัติ งานประปาหาดใหญ่",
        "phone": "0899984771"
    },
    {
        "id": "463501493797293",
        "location": {
            "city": "Bangkok",
            "country": "Thailand",
            "latitude": 13.884918559717,
            "longitude": 100.61106450871,
            "street": "17/19แขวคลองถนน เขตสายไหม",
            "zip": "10220"
        },
        "name": "ช่างประปา รับแก้ไขปัญหา ท่อรั่ว เดินระบบท่อใหม่ทุกระบบ",
        "phone": "0853703199"
    },
    {
        "about": "ขายส่งท่อและอุปกรณ์ประปาทุกชนิด",
        "description": "บจก.สุราษฎร์การประปา\nรับปรึกษาและจำหน่ายอุปกรณ์ประปาทุกชนิด\nPVC HDPE PB PPR uPVC เหล็กหล่อ มอก. กปภ.\nอุปกรณ์เหล็กชุบกัลวาไนซ์ เหล็กเชื่อม หน้าจานเชื่อม\nอุปกรณ์สเตนเลส เชื่อม เกลียว\nบอลวาล์ว ประตูน้ำ โกล๊บวาล์ว วาล์วผีเสื้อ โซลินอยด์วาล์ว\nสายยางท่อน้ำไทย สายน้ำดี เกจ์วัดแรงดัน อุปกรณ์ซ่อมท่อ\nก๊อกน้ำชนิดต่างๆ",
        "emails": [
            "sritthi@gmail.com"
        ],
        "id": "548880951816438",
        "location": {
            "city": "Surat Thani",
            "country": "Thailand",
            "latitude": 9.1534091208616,
            "longitude": 99.359149932861,
            "zip": "84000"
        },
        "name": "บจก.สุราษฎร์การประปา - ขายส่งท่อตราช้าง สุราษฎร์ธานี",
        "phone": "087-687-8795"
    },
    {
        "about": "รับติดตั่งระบบประปาทุกชนิด ปั๊มน้ำ ขึ้นแท้งนำ้ ติดสุขภัณฑ์ ระบบประปาอาคารขนาดใหญ่ \n",
        "id": "602123659859097",
        "location": {
            "city": "สงขลา",
            "street": "หาดใหญ่"
        },
        "name": "ช่างประปาหาดใหญ่",
        "phone": "0894620342"
    },
    {
        "about": "เรารับทำงานระประนำ้ และสุขาภิบาลทุกชนิดทั้งงานซ่อมและบ้านอยู่อาศัย และอื่นๆอีกมากมาย",
        "id": "727303564064688",
        "name": "ช่างประปาหาดใหญ่ ทีเค วอเตอร์",
        "phone": "0894620342"
    },
    {
        "id": "1042946499051665",
        "name": "ช่าง ประปากำลัง"
    },
    {
        "about": "ช่างไฟฟา ช่างประปา ซื้อแอร์เก่า นวนคร",
        "description": "ระบบงานไฟฟ้า  เรารับบริการเดินสายไฟ  ติดตั้งเครื่องทำน้ำอุ่น\t \t \n \tสายไฟชำรุด  อื่นๆเกี่ยวกับปัญหาไฟฟ้าครับ\t \t \n-\tระบบงานปะปา  เราบริการเดินท่อปะปา  ก็อกน้ำเสีย ท่อแตก ท่อรั่ว \t \t \n \tและอื่นๆที่เกี่ยวกับงานประปา  ปรึกษาเราได้ครับ\t \t \n-\tงานต่อเติมบ้าน ทำที่จอดรถ ทาสีบ้าน ปูกระเบื้อง  ลูกบิดชำรุด  ประตูชำรุด  ติดกลอนเพิ่มเติม\n \tและอื่นๆ ลองสอบถามเราได้นะครับ\t \t \n-\tรับซื้อแอร์เก่า ย่าน นวนคร  พระอินทร์  อยุทธยา  ลำลูกกา รังสิต ปทุมธานี  \nHOSANNA\n\nร้องว่า โฮซันนา\n\nHosanna Service  : ช่างไฟฟ้า  ช่างประปา  ช่างทาสี  ปูกระเบื้อง  ต่อเติม  เดินสายไฟ\nHosanna Air        : ติดแอร์ แอร์ใหม่  แอร์มือสอง  รับซื้อแอร์มือสอง  ล้างแอร์  ซ่อมแอร์\nHosanna Agent    : ม้วนเหล็ก พับเหล็ก ตัดเหล็ก ดัดเหล็ก ขึ้นรูป  รับทำงานตามแบบ ตัด กลึง มิลลิ่ง\nงานช่าง งานแอร์ นวนคร พระอินทร์ รังสิต ปทุมธานี อยุทธยา   \nงานเหล็ก ปทุมธานี อยุทธยา ระยอง ชลบุรี สมุทรปราการ สมุทรสาคร นนทบุรี\n \n\nยินดีรับใช้ในทุกบริการ  0849429388 ",
        "emails": [
            "hmouyoen@gmail.com"
        ],
        "id": "775386022481127",
        "location": {
            "city": "Pathum Thani",
            "country": "Thailand",
            "latitude": 14.112713934548,
            "longitude": 100.59994934492,
            "zip": "12120"
        },
        "name": "ช่างไฟฟ้า ช่างประปา   ซื้อแอร์เก่า ติดแอร์ นวนคร Hosanna Service",
        "phone": "0837453630"
    }
]