[
    {
        "about": "บริการซ่อมไฟฟ้า ประปา งานท่อ และซ่อมเครื่องใช้ไฟฟ้าทั่วไป ",
        "id": "608879332522465",
        "location": {
            "city": "Bangkok",
            "country": "Thailand",
            "latitude": 13.77431,
            "longitude": 100.54686,
            "street": "ดินแดง รัชดา ประตูน้ำ และบริเวณใกล้เคียง",
            "zip": "10400"
        },
        "name": "ช่างประจำบ้าน ไฟฟ้า ประปา งานท่อ และซ่อมเครื่องใชัไฟฟ้าทั่วไป",
        "phone": "037012861"
    },
    {
        "about": "รับเหมาติดตั้งระบบไฟฟ้า ประปา ประจำบ้าน",
        "id": "481340991965078",
        "name": "ช่างไฟฟ้า ช่างประปา ประจำบ้าน"
    },
    {
        "about": "รับเหมาต่อเติม ไฟฟ้า ประปา งานซ่อมแซมบ้าน",
        "description": "จำหน่ายในราคายุติธรรมเพียงกล่องละ99บาทเท่านั้น\nสอบถามรายละเอียดหรือสั่งซื้อกรุณาติดต่อที่หน้าเพจหรือInbox\nhttps://www.facebook.com/messages/buk99baht\nEmail:Jessada1@Gmail.com\nTel.081-7745451",
        "emails": [
            "jessada1@gmail.com"
        ],
        "id": "392694020827293",
        "location": {
            "city": "Bangkok",
            "country": "Thailand",
            "zip": "10310"
        },
        "name": "ช่างอ๊อด รับเหมาต่อเติม ไฟฟ้า ประปา งานซ่อมแซมบ้าน",
        "phone": "0817798624"
    },
    {
        "about": "ช่างเดินท่อประปา ช่างประปา เดินท่อประปา ซ่อมท่อประปา รับเดินท่อประปา",
        "description": "ช่างเดินท่อประปา บริการซ่อมท่อประปา เดินท่อประปา เราขอท้าทั้งประเทศว่าเราคือสุดยอดช่างเดินประปา เบอร์1",
        "emails": [
            "changprapadd@gmail.com"
        ],
        "id": "142689675841827",
        "name": "ช่างเดินท่อประปา ช่างประปา เดินท่อประปา ซ่อมท่อประปา รับเดินท่อประปา",
        "phone": "080 818 6085"
    },
    {
        "about": "รับติดตั้ง ซ่อมแซม ระบบไฟฟ้า-ประปา",
        "description": " ช่างรับเหมางานระบบประปา งานระบบไฟฟ้า และรับซ่อมแซม แก้ไขงานประปา งานไฟฟ้าขัดข้อง และฉุกเฉิน   k.ยุทธ 0859455127  0815612900 ต.เจริญการช่าง รับเหมาติดตั้งงานระบบประปา ระบบไฟฟ้า รับซ่อมแซม แก้ไข ตรวจเช็คงานประปา งานไฟฟ้า ติดตั้งปั๊มน้ำ แท็งค์น้ำ ตู้ไฟ เดินท่อประปา เดินท่อน้ำทิ้ง ท่อน้ำดี เดินสายไฟภายในบ้าน เดินสายโทรศัพท์ภายใน เดินสายเมน เดินสาย Lan ซ่อมแซม ท่อแตก ท่อตัน ท่อรั่ว ท่อซึม ตามใต้พื้น และกำแพง ปั๊มเสีย ปั๊มไม่ทำงาน ปั๊มเดินไม่หยุด ไฟดับ ไฟขัดข้อง ไฟช๊อต ติดต่อ k.ยุทธ 085-9455127,081-5612900",
        "id": "1517825615121668",
        "location": {
            "city": "กทม ",
            "street": "889",
            "zip": "10160"
        },
        "name": "ช่างไฟฟ้า-ประปา ช่างยุทธ",
        "phone": "0859455127"
    },
    {
        "id": "249453988420992",
        "location": {
            "city": "Bangkok",
            "country": "Thailand",
            "latitude": 13.9152803,
            "longitude": 100.5856171,
            "street": "ถ.ช่างอากาศอุทิศ ดอนเมือง",
            "zip": "10210"
        },
        "name": "กรรณ การช่าง วางท่อประปา รับเหมาก่อสร้าง",
        "phone": "66853226225"
    },
    {
        "about": "รับซ่อมแซมงานช่างทั่วไป ไฟฟ้า แอร์ ประปา ฝ้าเพดาน หลังห้าโมงและวันเสาร์",
        "id": "1620669618189787",
        "location": {
            "city": "Chiang Mai",
            "country": "Thailand",
            "latitude": 18.7622604,
            "longitude": 98.9929581,
            "street": "เชียงใหม่",
            "zip": "50200"
        },
        "name": "ช่างฟรีแลนช์  งานช่างทั่วไป แอร์/ไฟฟ้า/ประปา  0856631857",
        "phone": "0856631857"
    },
    {
        "about": "ดีครับ",
        "emails": [
            "www_kit3210@hotmail.com"
        ],
        "id": "206085812789338",
        "name": "ช่าง กิจนางรอง รับซ่อมออกแบบตู้คอนโทรลระบบควบคุมประปาไฟฟ้าโซล่าเซลล์"
    },
    {
        "about": "จ.ขอนแก่น",
        "id": "801765959852554",
        "name": "ช่าง ขอนแก่น รับงาานไฟ ประปา แอร์ งานต่อเติม"
    },
    {
        "about": "รับซ่อมบ้าน งานปูน ประปา ทาสี ไฟฟ้า เหล็ก หลังคา กระจดอลูมิเนียม",
        "id": "360875284118064",
        "location": {
            "city": "Amphoe Lam Luk Ka",
            "country": "Thailand",
            "street": "กรุงเทพฯ",
            "zip": "สายใหม"
        },
        "name": "ช่างซ่อมบ้าน  งานปูน กระเบื้อง ประปา ไฟฟ้า  กระจกอลูมิเนียม",
        "phone": "0851482738"
    },
    {
        "id": "786564761460957",
        "location": {
            "city": "Bangkok",
            "country": "Thailand",
            "latitude": 13.7017899,
            "longitude": 100.4905319,
            "street": "จรัญ",
            "zip": "10700"
        },
        "name": "ช่างทั่วไป รับเดินไฟฟ้าซ่อมแซมระบบไฟ ทาสี  ประปา ต่อเติม ราคาถูก",
        "phone": "0870670821"
    },
    {
        "about": "ช่างไฟฟ้า รับเหมาระบบไฟฟ้า ช่างประปา ซ่อมประปา ติดตั้งจานดาวเทียม",
        "id": "1452025658360394",
        "location": {
            "city": "Amphoe Muang Phet Buri",
            "country": "Thailand",
            "latitude": 13.07332,
            "longitude": 99.94521,
            "street": "อำเภอเมืองเพชรบุรี",
            "zip": "76000"
        },
        "name": "ช่างไฟฟ้า รับเหมาระบบไฟฟ้า ซ่อมไฟฟ้า ช่างประปา ซ่อมประปา ติดตั้งจานดาวเทียม",
        "phone": "084-0188395"
    },
    {
        "about": "งานประปา หาจุดรั่ว ซ่อมท่อประปา เดินท่อประปา งานดี มีรีวิว",
        "id": "418722071610694",
        "location": {
            "city": "Bangkok",
            "country": "Thailand",
            "latitude": 13.7522,
            "longitude": 100.494
        },
        "name": "ซ่อมประปา หาจุดรั่ว เดินท่อประปา โดย ช่างกุ้ง 0891509754",
        "phone": "0891509754"
    },
    {
        "about": "รับติดตั้ง ซ่อมแซม ระบบประปา หมู่บ้าน เอกขน \nจำหน่ายซ่อมตู้ควบคุม ปั๊มซับเมิส ปั๊มหอยโข่ง",
        "id": "508048729290739",
        "location": {
            "city": "Amphoe Khao Yoi",
            "country": "Thailand",
            "latitude": 13.2272,
            "longitude": 99.79924,
            "street": "84/4 หมู่ 3 ต.หนองชุมพล",
            "zip": "76140"
        },
        "name": "ช่างตั้มประปา",
        "phone": "0988767501"
    },
    {
        "about": "เรื่องสั้นประสบการณ์ของ นาวี สุนทรีย์ลิขิต(สุรัตนาวี ปฐพีไพศาล)",
        "description": "\nเรื่องสั้นประสบการณ์เรื่องนี้มีเนื้อหาที่รุนแรงและมีการใช้คำไม่สุภาพ   ไม่เหมาะกับเยาวชน ควรใช้วิจารณญาณในการอ่าน    \n\nห้ามคัดลอกไปโพสในเว็บไซท์ เพจ เฟซบุ๊ค หรือสื่ออื่นๆ ยกเว้นได้รับการอนุญาตจากเจ้าของผลงานโดยตรง",
        "id": "1490649834555970",
        "name": "บาดาลหัวใจ - หนุ่มช่างประปาน่าอึ๊บ"
    },
    {
        "about": "ปรึกษาเรื่องช่าง โทรได้ทุกเรื่อง ที่เดียวจบ คิดถึงช่าง คิดถึงเรา ลองโทรหาเราสิครับ 086-40-567-40",
        "id": "1511982592356185",
        "location": {
            "city": "Ayuthya",
            "country": "Thailand",
            "latitude": 14.34342,
            "longitude": 100.56622,
            "street": "ayutthaya",
            "zip": "13000"
        },
        "name": "รวมช่างซ่อม เครื่องใช้ไฟฟ้า แอร์ ประปา ไฟฟ้า ในอยุธยา",
        "phone": "0864056740"
    },
    {
        "about": "หาช่างปูกระเบื้อง ช่างรับเหมา ช่างไฟฟ้า น้ำประปา โทร0869126463,line:beau9791",
        "id": "370515503136748",
        "name": "หาช่างปูกระเบื้อง ช่างรับเหมา ช่างรื้อถอน ไฟฟ้า น้ำประปาเชียงใหม่"
    },
    {
        "about": "ทำได้ทำทันที   เพื่อนๆที่มีงานเอามาลงแชร์ความรู้กันได้นะครับ งานด้านช่างด้านต่างๆ",
        "emails": [
            "thawee_vfm@hotmail.com"
        ],
        "id": "454432114615438",
        "location": {
            "city": "Phetchaburi",
            "country": "Thailand",
            "latitude": 13.75365,
            "longitude": 100.530655,
            "street": "เพชรบุรี",
            "zip": "76130"
        },
        "name": "โซล่าเซลล์ ไฟฟ้า ประปา  สาระงานด้านช่าง",
        "phone": "0899129439"
    },
    {
        "id": "914373875303564",
        "name": "ชา่งไฟฟ้า...ประปา..ทาสี.เชื่อม.แอร์"
    },
    {
        "about": "เว็บไซด์ศูนย์รวมช่าง และ งานบริการ",
        "id": "259390540777203",
        "name": "ศูนย์ช่าง ช่างไฟฟ้า ช่างประปา"
    },
    {
        "about": "รับเหมางานระบบประปา ไฟฟ้า และซ่อมแซม แก้ไขประปา ไฟฟ้าโดยตรง \n\n0815609051 , 0814859681",
        "description": "รับเหมาติดตั้งงานระบบประปา ระบบไฟฟ้า และรับงานซ่อมแซม แก้ไข ตรวจเช็ค ปรับปรุงงานระบบประปา งานระบบไฟฟ้าขัดข้อง และฉุกเฉิน",
        "emails": [
            "vichai_2521@hotmail.com"
        ],
        "id": "451581174913016",
        "location": {
            "city": "Bangkok",
            "country": "Thailand",
            "latitude": 13.7151756,
            "longitude": 100.4613342,
            "street": "159  ถนนราชพฤกษ  แขวงบางจาก  เขตภาษีเจริญ",
            "zip": "10160"
        },
        "name": "ว.การช่าง - รับเหมางานประปา งานไฟฟ้า รับซ่อมแซมงานประปา ไฟฟ้าโดยตรง",
        "phone": "0815609051 , 0805593770 , 0814859681"
    },
    {
        "about": "รับทำความสะอาดโคมไฟคริสตัลมีปัณหา ปริกษา  ได้ครับ  0817888683",
        "emails": [
            "prung555@gmail.com"
        ],
        "id": "486619298136207",
        "location": {
            "city": " ไทย",
            "street": "99/18 ม.8 ต.ตากเเด อ.เมือง จ. ชุมพร",
            "zip": "86000  โทร 0817888683"
        },
        "name": "ช่างไฟฟ้าชุมพร\"กล้องวงจรปิดไอพี \" ดาวเทียม\"ประปาปั๊มน้ำ ช่างเอก 0817888683",
        "phone": "0817888683"
    },
    {
        "id": "935876109812756",
        "name": "เครื่องมือช่าง ฮาร์ดแวร์ ประปา ไฟฟ้า สี น็อต สกรู"
    },
    {
        "about": "การก่อสร้าง\n",
        "id": "1474792662840095",
        "location": {
            "city": "Udon Thani",
            "country": "Thailand",
            "latitude": 17.4167,
            "longitude": 102.75,
            "street": "บ้านทุ่งฝน",
            "zip": "41310"
        },
        "name": "ต.ช่างต้น รับงานเดินสายไฟ ประปา กั้นห้องผนังเบา ฝ้าเพดาน",
        "phone": "0610902737"
    },
    {
        "emails": [
            "pitaknambooddee@gmail.com"
        ],
        "id": "293443527424863",
        "location": {
            "street": "ที่อยู่"
        },
        "name": "ช่างประปาเทศบาลนครราชสีมา ซ่อมแก้ไข วางระบบประปา",
        "phone": "0857700978"
    }
]