[
    {
        "id": "1605246276404378",
        "name": "เดอะช้าง วัสดุก่อสร้าง คอนกรีต ปูน แผ่นพื้น เส่าเข็ม รถตอก รับเหมา ก่อสร้าง"
    },
    {
        "description": "จิระวัชร์การช่างปากเกร็ด 0847129199 \n\nให้บริการรับเหมาก่อสร้าง ต่อเติมซ่อมแซม รีโนเวท บ้านพักอาศัย ครบวงจร\n\nให้บริการด้วยราคาเป็นกันเอง ไม่ทิ้งงาน โดยทีมช่างที่มีประสบการณ์\n\nสนใจติดต่อ จิระวัชร์การช่างปากเกร็ด \n\nคุณจิระวัชร์ 0847129199 \n\n\nรับเหมาก่อสร้างปากเกร็ด 0847129199 จิระวัชร์การช่าง\nต่อเติมบ้านปากเกร็ด 0847129199 จิระวัชร์การช่าง\nซ่อมแซมบ้านปากเกร็ด 0847129199 จิระวัชร์การช่าง\nจิระวัชร์การช่างปากเกร็ด 0847129199 รับเหมาต่อเติมราคาถูก ปากเกร็ด นนทบุรี รับเหมาก่อสร้างราคาถูก \nจิระวัชร์การช่าง 0847129199  นนทบุรี ปากเกร็ด นนทบุรี บางใหญ่ บางบัวทอง ลาดปลาดุก ไทรน้อย\nรับเหมาก่อสร้างนนทบุรี 0847129199 จิระวัชร์การช่าง\n\nรับเหมาก่อสร้างบางใหญ่ 0847129199 จิระวัชร์การช่าง รับเหมาก่อสร้างบางบัวทอง 0847129199 จิระวัชร์การช่าง รับเหมาก่อสร้างลาดปลาดุก 0847129199 จิระวัชร์การช่าง รับเหมาก่อสร้างไทรน้อย 0847129199 จิระวัชร์การช่าง รับเหมาก่อสร้างติวานนท์ 0847129199 จิระวัชร์การช่าง รับเหมาก่อสร้างหลักสี่ 0847129199 จิระวัชร์การช่าง\nรับเหมาก่อสร้างปากเกร็ด0847129199 จิระวัชร์การช่าง รับเหมาก่อสร้างติวานนท์0847129199 จิระวัชร์การช่าง รับเหมาก่อสร้างหลักสี่0847129199 จิระวัชร์การช่าง รับเหมาก่อสร้างสนามบินน้ำ0847129199 จิระวัชร์การช่าง รับเหมาก่อสร้างนนทบุรี0847129199 จิระวัชร์การช่าง รับเหมาก่อสร้างบางบัวทอง0847129199 จิระวัชร์การช่าง รับเหมาก่อสร้างบางใหญ่0847129199 จิระวัชร์การช่าง รับเหมาก่อสร้างไทรน้อย0847129199 จิระวัชร์การช่าง รับเหมาก่อสร้างทุ่งสองห้อง0847129199 จิระวัชร์การช่าง \nรับเหมาก่อสร้างห้าแยกปากเกร็ด0847129199 จิระวัชร์การช่าง รับเหมาก่อสร้างดอนเมือง0847129199 จิระวัชร์การช่าง รับเหมาก่อสร้างบางพูด0847129199 จิระวัชร์การช่าง รับเหมาก่อสร้างการเคหะปากเกร็ด0847129199 จิระวัชร์การช่าง รับเหมาก่อสร้างวัดบ่อ0847129199 จิระวัชร์การช่าง รับเหมาก่อสร้างปทุมธานี0847129199 จิระวัชร์การช่าง รับเหมาก่อสร้างบางพูน0847129199 จิระวัชร์การช่าง รับเหมาก่อสร้างบางกะดี0847129199 จิระวัชร์การช่าง \nรับเหมาก่อสร้างบางขะแยง0847129199 จิระวัชร์การช่าง รับเหมาก่อสร้างบางคูวัด0847129199 จิระวัชร์การช่าง รับเหมาก่อสร้างบางปรอก0847129199 จิระวัชร์การช่าง รับเหมาก่อสร้างบางพูด0847129199 จิระวัชร์การช่าง รับเหมาก่อสร้างบางพูน0847129199 จิระวัชร์การช่าง รับเหมาก่อสร้างบางหลวง0847129199 จิระวัชร์การช่าง รับเหมาก่อสร้างบางเดื่อ0847129199 จิระวัชร์การช่าง รับเหมาก่อสร้างบ้านกระแชง0847129199 จิระวัชร์การช่าง รับเหมาก่อสร้างบ้านกลาง0847129199 จิระวัชร์การช่าง \nรับเหมาก่อสร้างบ้านฉาง0847129199 จิระวัชร์การช่าง รับเหมาก่อสร้างตลาดพูนทรัพย์0847129199 จิระวัชร์การช่าง รับเหมาก่อสร้างรังสิต0847129199 จิระวัชร์การช่าง รับเหมาก่อสร้างบางไทร0847129199 จิระวัชร์การช่าง รับเหมาก่อสร้างตลาดขวัญ0847129199 จิระวัชร์การช่าง รับเหมาก่อสร้างบางเขน0847129199 จิระวัชร์การช่าง รับเหมาก่อสร้างแคราย0847129199 จิระวัชร์การช่าง รับเหมาก่อสร้างบางกระสอ0847129199 จิระวัชร์การช่าง  รับเหมาก่อสร้างบางไผ่0847129199 จิระวัชร์การช่าง รับเหมาก่อสร้างรัตนาธิเบศร์0847129199 จิระวัชร์การช่าง",
        "id": "277001715817149",
        "location": {
            "city": "Pak Kred",
            "country": "Thailand",
            "latitude": 13.85238,
            "longitude": 100.4887,
            "street": "ปากเกร็ด",
            "zip": "11000"
        },
        "name": "รับเหมาก่อสร้างปากเกร็ด จิระวัชร์การช่าง 0847129199",
        "phone": "0879170711"
    },
    {
        "id": "1513408148943656",
        "location": {
            "city": "ชลบุรี",
            "street": "47/2 ม.2 ต.หนองซ้ำซาก อ.บ้านบึง จ.ชลบุรี",
            "zip": "20170"
        },
        "name": "ช่างพร รับเหมาก่อสร้าง",
        "phone": "0882105560"
    },
    {
        "id": "954442084566779",
        "name": "ก่อสร้าง คนช่างฝัน"
    },
    {
        "id": "380240322140628",
        "name": "ช่าง.ก่อสร้าง"
    },
    {
        "about": "รับสร้างบ้านใหม่",
        "emails": [
            "ooza25@gmail.com"
        ],
        "id": "1593329967595845",
        "location": {
            "city": "อำเภอโคกก่อง",
            "street": "37/15 ต.โคกก่อง อ.สำโรง จ.อุบล",
            "zip": "34360"
        },
        "name": "ช่างโส รับเหมาก่อสร้าง",
        "phone": "0913364173"
    },
    {
        "about": "รับเหมาก่อสร้าง เขื่อน บ้าน งานปูนทุกชนิด",
        "id": "1405558099759702",
        "name": "ช่างสนทีม รับเหมาก่อสร้างงานปูนทุกชนิด"
    },
    {
        "id": "1559884630936491",
        "location": {
            "city": "Suphan Buri",
            "country": "Thailand",
            "latitude": 14.48069,
            "longitude": 100.13099,
            "street": "343 ม.2 ต.รั้วใหญ่",
            "zip": "72000"
        },
        "name": "ออกแบบรับเหมาก่อสร้างทุกชนิด  ช่างอรรถ",
        "phone": "080-9451239"
    },
    {
        "id": "701281306673032",
        "location": {
            "city": "Amphoe Muang Kamphaeng Phet",
            "country": "Thailand",
            "latitude": 16.4513947,
            "longitude": 99.513238
        },
        "name": "ก่อสร้างหน้าราชฏัฎ ช่างทองสุข"
    },
    {
        "id": "633548103381583",
        "location": {
            "city": "Phayao",
            "country": "Thailand",
            "latitude": 19.419452545211,
            "longitude": 99.766281718445,
            "street": "258 M.3 Phaholyothin Rd. Pafaek, Meachai",
            "zip": "56130"
        },
        "name": "รับเหมาก่อสร้างและต่อเติมบ้าน อาคาร พะเยา เชียงราย 054-426123 นนท์รวมช่าง",
        "phone": "054426123 มือถือ 0817834261"
    },
    {
        "about": "ก่อสร้างบางปู",
        "id": "106231576186632",
        "name": "โรงเรียนช่างก่อสร้าง"
    },
    {
        "about": "แผนกวิชาการงานก่อสร้าง วิทยาลัยเทคนิคอุทัยธานี",
        "id": "364119197118437",
        "location": {
            "city": "Uthai Thani",
            "country": "Thailand",
            "latitude": 15.3667,
            "longitude": 100.05,
            "street": "58 ม.2",
            "zip": "61000"
        },
        "name": "ช่างก่อสร้าง วิทยาลัยเทคนิคอุทัยธานี"
    },
    {
        "about": "แจก mod เสื้อ GTA ช่างกล - ช่างก่อสร้าง ",
        "id": "585371274833856",
        "location": {
            "city": "ไทย"
        },
        "name": "Mod เสื้อ  ช่างกล - ช่างก่อสร้าง"
    },
    {
        "id": "623606871082341",
        "location": {
            "city": "จังหวัดจันทบุรี",
            "street": "44/3 ถนนจันทคามวิถี ตำบลตลาด อำเภอเมือง",
            "zip": "22000"
        },
        "name": "แผนกวิชาช่างก่อสร้าง วิทยาลัยเทคนิคจันทบุรี"
    },
    {
        "id": "657698341026804",
        "location": {
            "city": "Nakhon Ratchasima",
            "country": "Thailand",
            "latitude": 14.9596004,
            "longitude": 102.0606308,
            "street": "บ้านเลขที่ 8/1 หมู่4  ตำบล.กลางดง อำเภอ.ปากช่อง จังหวัด.นครราชสีมา",
            "zip": "30320"
        },
        "name": "รับเหมาก่อสร้าง ตกแต่งภายใน งานบิวท์อิน 0935407004-ช่างตี๋",
        "phone": "0935407003"
    },
    {
        "id": "193735297322838",
        "name": "ปวส.ช่างก่อสร้าง"
    },
    {
        "about": " รับเหมา  ต่อเติม  ก่อสร้าง  ออกแบบ เขียนแบบ  บ้าน. อาคารพานิช  ",
        "id": "1514611242117525",
        "location": {
            "city": "พะเยา",
            "street": "33/1 หมู่7 ตำบลท่าวังทอง อำเภอเมือง จังหวัดพะเยา",
            "zip": "56000"
        },
        "name": "หจก.นามแก้ว การโยธา โทร 0933174422 รับเหมาก่อสร้างโดยช่างที่มีฝีมือ",
        "phone": "0933174422"
    },
    {
        "id": "662416770517567",
        "name": "Fc ช่างก่อสร้าง"
    },
    {
        "about": "ช่างก่อสร้าง วิทยาลัยการอาชีพเวียงสระ.",
        "id": "774416092674310",
        "name": "ช่างก่อสร้าง วิทยาลัยการอาชีพเวียงสระ"
    },
    {
        "id": "144650102224189",
        "name": "พลช่างก่อสร้าง"
    },
    {
        "id": "614936318608130",
        "location": {
            "city": "Amphoe Warin Chamrap",
            "country": "Thailand",
            "latitude": 15.12492,
            "longitude": 104.96373,
            "street": "387/1ถ.วาริน-กันทรลักษ์ อ.วารินชำราบ จ.อุบลราชธานี",
            "zip": "34190"
        },
        "name": "รุ่งเจริญการช่าง-งานสแตนเลสและรับเหมาก่อสร้าง",
        "phone": "0872508648"
    },
    {
        "id": "1606011736326248",
        "name": "ช่างก่อสร้าง รุ่น 52"
    },
    {
        "id": "950084311724791",
        "name": "ช่างก่อสร้าง แสนดี"
    },
    {
        "id": "590295977771173",
        "location": {
            "city": "อ.เมือง จ.ราชบุรี",
            "street": "ต.เกาะพลับพลา ค่ายบุรฉัตร",
            "zip": "70000"
        },
        "name": "กองร้อยทหารช่างสนับสนุนการก่อสร้าง - ช.ร้อย.๑๑๕"
    },
    {
        "id": "364279577051929",
        "name": "ช่างก่อสร้าง วิทยาลัยเทคโนโลยีหมู่บ้านครู"
    }
]