[
    {
        "about": "เฉพาะ  เทคนิคชลบุรี  สาขาช่างก่อสร้าง   พี่น้อง พ้องเพื่อน",
        "id": "638148336316243",
        "location": {
            "city": "Chon Buri",
            "country": "Thailand",
            "latitude": 13.3667,
            "longitude": 100.983,
            "street": "วิทยาลัยทเคนิคชลบุรี",
            "zip": "20000"
        },
        "name": "แผนกช่าง-ก่อสร้าง-เทคนิคชลบุรี"
    },
    {
        "id": "652583978150944",
        "location": {
            "city": "Uthai Thani",
            "country": "Thailand",
            "latitude": 15.366121666667,
            "longitude": 100.04575833333
        },
        "name": "ห้องน้ำแผนกช่างก่อสร้าง วิทยาลัยเทคนิคอุทัยธานี"
    },
    {
        "id": "666882873325875",
        "location": {
            "latitude": 14.061705547109,
            "longitude": 100.88692779296
        },
        "name": "ช่างก่อสร้าง วท.ธัญบุรี"
    },
    {
        "id": "682345201900511",
        "location": {
            "city": "Mae Hong Son",
            "country": "Thailand",
            "latitude": 19.2720283,
            "longitude": 97.9476466
        },
        "name": "สามแยกปากหมา ช่างก่อสร้าง วิทยาลัยการอาชีพนวมินทราชินีอม่ฮ่องสอน"
    },
    {
        "id": "694701127291071",
        "location": {
            "city": "Muang Sara Buri",
            "country": "Thailand",
            "latitude": 14.535014,
            "longitude": 100.9114891
        },
        "name": "แผนกช่างก่อสร้าง ถิ่นสีน้ำเงิน วิทยาลัยเทคนิคสระบุรี"
    },
    {
        "id": "695029213859436",
        "location": {
            "city": "Phra Phutthabat",
            "country": "Thailand",
            "latitude": 14.7177061,
            "longitude": 100.8068267
        },
        "name": "แผนกช่างก่อสร้าง"
    },
    {
        "id": "490166761118397",
        "location": {
            "city": "Muang Sara Buri",
            "country": "Thailand",
            "latitude": 14.53481772808,
            "longitude": 100.91170064487,
            "street": "สระบุรี"
        },
        "name": "แผนกช่างก่อสร้าง. ถิ้นน้ำเงิน. วิทยยาลัยเทคนิคสระบุรี"
    },
    {
        "id": "494925473861108",
        "location": {
            "city": "Nakhon Sawan",
            "country": "Thailand",
            "latitude": 15.6903635,
            "longitude": 100.1175855,
            "zip": "60000"
        },
        "name": "แผนกช่างก่อสร้าง@เทคนิค"
    },
    {
        "id": "498425023550535",
        "location": {
            "city": "Saraburi",
            "country": "Thailand",
            "latitude": 14.538132275187,
            "longitude": 100.95201037779
        },
        "name": "แผนกวิชา ช่างก่อสร้าง วิทลัยเทคนิคสระบุรี"
    },
    {
        "id": "501355479971517",
        "location": {
            "city": "Ban Muak Lek",
            "country": "Thailand",
            "latitude": 14.639372,
            "longitude": 101.1996
        },
        "name": "ช่างก่อสร้าง เทคนิคหมวกเหล็ก"
    },
    {
        "id": "501988649937804",
        "location": {
            "city": "Sakon Nakhon",
            "country": "Thailand",
            "latitude": 17.193289930167,
            "longitude": 104.08783529991
        },
        "name": "ห้องชมรมช่างก่อสร้าง วิทยาลัยเทคนิค"
    },
    {
        "id": "1037367669647686",
        "name": "ช่างเดช รับเหมาก่อสร้าง"
    },
    {
        "about": "รับเหมางานก่อสร้างและต่อเติม บ้าน อาคารขนาดเล็กและใหญ่ ดำเนินการโดยช่างผู้ชำนาญงาน",
        "id": "606208946186356",
        "location": {
            "city": "บ้านโป่ง ราชบุรี",
            "street": "25/2",
            "zip": "70110"
        },
        "name": "ช.รวมช่างการก่อสร้าง",
        "phone": "0872962099"
    },
    {
        "id": "563161840497733",
        "name": "ช่างก่อสร้าง วท.รบ"
    },
    {
        "id": "863153567134316",
        "name": "ปวช.ช่างก่อสร้าง-โยธา-สถาปัตยกรรม"
    },
    {
        "id": "1506124483042796",
        "name": "แผนกช่างก่อสร้าง วิทยาลัยเทคนิคลพบุรี"
    },
    {
        "id": "1038247002885997",
        "name": "แผนกช่างก่อสร้างศูนย์รวมวัยรุ่นหน้าตาดี"
    },
    {
        "id": "885830174868246",
        "location": {
            "city": "Sing Buri",
            "country": "Thailand"
        },
        "name": "วิทยาลัยเทคนิคสิงห์บุรี(ช่างก่อสร้าง)"
    },
    {
        "id": "490076057718634",
        "location": {
            "latitude": 13.574591873392,
            "longitude": 99.754542039944
        },
        "name": "กองพันทหารช่างที่112กรมทหารช่างที่1รักษาพระองค์ กองร้อยทหารช่างก่อสร้างที่3"
    },
    {
        "id": "470170556327050",
        "location": {
            "city": "Phayao",
            "country": "Thailand",
            "latitude": 19.200847142857,
            "longitude": 99.876011428571,
            "zip": "56000"
        },
        "name": "ช่างก่อสร้างพะเยา"
    },
    {
        "id": "534334423308244",
        "location": {
            "city": "Khlong Khwang",
            "latitude": 14.023351,
            "longitude": 100.310088
        },
        "name": "โรงเรียนช่างก่อสร้างนิปปอนฮูมคอนกรีต"
    },
    {
        "id": "502262719797131",
        "location": {
            "city": "Khlong Lan",
            "country": "Thailand",
            "latitude": 16.1997548,
            "longitude": 99.3315686
        },
        "name": "แผนกช่างก่อสร้าง"
    },
    {
        "id": "513658898735201",
        "location": {
            "city": "Krabi",
            "country": "Thailand",
            "latitude": 8.0600462621153,
            "longitude": 98.907118337321
        },
        "name": "แผนกช่างก่อสร้าง วิทยาลัยเทคนิคกระบี่"
    },
    {
        "id": "519342021500545",
        "location": {
            "city": "Si Racha",
            "country": "Thailand",
            "latitude": 13.1247789469,
            "longitude": 100.9037680533
        },
        "name": "วิทยาลัยเทคนิคสัตหีบ ช่างก่อสร้าง"
    },
    {
        "id": "519716561488224",
        "location": {
            "latitude": 15.870032,
            "longitude": 100.992541
        },
        "name": "แผนกช่างก่อสร้าง วิทยาลัยเทคหาดใหญ่"
    }
]