[
    {
        "about": "๑๙ พฤศจิกายน สถาปนา\nช่างก่อสร้าง (ฅนสร้างเมือง)",
        "description": "\nประวัติ สาขาวิชาการก่อสร้าง วิทยาลัยเทคนิคภูเก็ต \nจัดตั้งขึ้นเมื่อวันที่ 19 พฤศจิกายน พ.ศ.2501 บนเนื้อที่ 16 ไร่ 2 งาน 84 ตารางวา ในนาม \"โรงเรียนช่างไม้ภูเก็ต\" ได้กำเนิดขึ้นตามคำสั่งกระทรวงศึกษาธิการ ที่ 4776/2506 ลงวันที่ 19 มีนาคม 2501 เปิดสอนครั้งแรกโดยใช้อาคารโรงเรียนภูเก็ตวิทยาลัย เป็นสถานศึกษา\n(ดังนั้นจนถึงปีปัจจุบัน 2554 ในวันที่ 19 พฤศจิกายน 2554 ช่างก่อสร้างวิทยาลัยเทคนิคภูเก็ตจะมีอายุครบ 54 ปี)\nซึ่งหากเราจะนับรุ่นกัน ตัวอย่างเช่น เข้าเรียนปีพ.ศ.2501 นับเป็นรุ่นที่ 1 และเข้าเรียนปีพ.ศ.2554 นับเป็นรุ่น 54 ครับ",
        "id": "244482162412095",
        "location": {
            "city": "Phuket",
            "country": "Thailand",
            "latitude": 7.882915,
            "longitude": 98.39087,
            "street": "วิทยาลัยเทคนิคภูเก็ต",
            "zip": "83000"
        },
        "name": "ศิษย์เก่า ช่างก่อสร้าง วิทยาลัยเทคนิคภูเก็ต",
        "phone": "076211679"
    },
    {
        "about": "แผนกช่างก่อสร้าง วิทยาลัยเทคนิคกันทรลักษ์ ",
        "id": "867784759938888",
        "location": {
            "city": "Amphoe Kantharalak",
            "country": "Thailand",
            "zip": "33130"
        },
        "name": "แผนกช่างก่อสร้าง วิทยาลัยเทคนิคกันทรลักษ์"
    },
    {
        "about": "รับเหมาก่อสร้าง ต่อเติม เขียนแบบ ประมาณราคาส่งธนาคารต่างๆ",
        "id": "122500977906617",
        "location": {
            "city": "Chiang Rai",
            "country": "Thailand",
            "latitude": 19.9,
            "longitude": 99.8333,
            "street": "95 หมู่ 7 ต.แม่ไร่ อ.แม่จัน จ. เชียงราย",
            "zip": "57000"
        },
        "name": "ช่างนัทรับเหมาก่อสร้าง",
        "phone": "0875684818"
    },
    {
        "id": "502694489811574",
        "name": "ช่างรับเหมาก่อสร้างเชียงใหม่"
    },
    {
        "about": "รับก่อสร้าง  รับทำงานสแตนเลส  งานเหล็กทุกชนิด",
        "id": "383007951822726",
        "location": {
            "city": "Nakhon Ratchasima",
            "country": "Thailand",
            "latitude": 14.9573765,
            "longitude": 102.0418701,
            "street": "103 m.4",
            "zip": "30260"
        },
        "name": "ช่างไท สแตนเลส และ รับเหมาก่อสร้าง",
        "phone": "0879227185"
    },
    {
        "about": "รับก่อสร้าง, ต่อเติมบ้าน อาคาร ฯลฯ ... (สี, ฝ้า, ไฟ, ประปา, หลังคา, ปูน, ไม้, เหล็ก)",
        "id": "686297181490485",
        "location": {
            "city": "Amphoe Bang Yai",
            "country": "Thailand",
            "latitude": 13.86226,
            "longitude": 100.37279,
            "street": "จังหวัดนนทบุรี",
            "zip": "11140"
        },
        "name": "ช่างเอ รับเหมาก่อสร้าง",
        "phone": "0957810959"
    },
    {
        "about": "รับเหมาก่อสร้าง เชียงใหม่ พะเยา ",
        "description": "www.narong2009.com",
        "emails": [
            "marong1926@hotmail.com"
        ],
        "id": "456071637762810",
        "location": {
            "city": "Phayao",
            "country": "Thailand",
            "latitude": 19.1667,
            "longitude": 99.9167,
            "street": "65หมู่8 ต.แม่ใจ อ.แม่ใจ จ.พะเยา",
            "zip": "56130"
        },
        "name": "ช่างณรงค์ รับเหมาก่อสร้าง ทุกชนิด",
        "phone": "0871897682"
    },
    {
        "id": "149769248689789",
        "location": {
            "city": "Uttaradit",
            "country": "Thailand",
            "latitude": 17.6311,
            "longitude": 100.101,
            "street": "10/5บ้านไผ่ล้อม ต.ไผ่ล้อม อ.ลับแล  จ.อุตรดิตถ์",
            "zip": "53210"
        },
        "name": "ช่างตั้มรับเหมาก่อสร้างตกแต่งภายในและรับทำเฟอร์นิเจอร์",
        "phone": "0853392985"
    },
    {
        "about": "รับเหมาก่อสร้างบ้าน จังหวัดอุตรดิตถ์ ด้วยทีมงานคุณภาพ ประสบการณ์กว่า 15 ปี ",
        "emails": [
            "cl.thanu@gmail.com"
        ],
        "id": "758541434196734",
        "location": {
            "city": "Uttaradit",
            "country": "Thailand"
        },
        "name": "รับเหมาก่อสร้าง อุตรดิตถ์ ธนูการช่าง",
        "phone": "084-358-2706 , 094-709-3501"
    },
    {
        "about": "*",
        "id": "223134897865738",
        "name": "ช่างตุ่น ก่อสร้าง"
    },
    {
        "about": "รับเหมาก่อสร้าง ต่อเติม ปรับปรุง ซ่อมแซม ทุกชนิด\n\nTEL : 0810132041 ช่างเอก",
        "emails": [
            "jaroon_2524@hotmail.com"
        ],
        "id": "629406963848471",
        "name": "ช่างเอก รับเหมาก่อสร้าง",
        "phone": "0810132041"
    },
    {
        "emails": [
            "lukchang_art@hotmail.com"
        ],
        "id": "119383458138655",
        "name": "ลูกช้าง ก่อสร้าง"
    },
    {
        "id": "416569345149275",
        "location": {
            "city": "แขวงบางแค เขตบางแค กรุงเทพ",
            "street": "309 หมู่บ้านสิชล ซ กาญจนาภิเษก008แยก2",
            "zip": "10160"
        },
        "name": "ช่างโก้รับเหมาก่อสร้าง ต่อเติม งานไฟฟ้า",
        "phone": "086 0509520 ช่างโก้"
    },
    {
        "id": "693218800750355",
        "location": {
            "city": "Ayuthaya",
            "country": "Thailand",
            "latitude": 14.34342,
            "longitude": 100.56622,
            "street": "12/2 ม.2 ต.บ้านเกาะ อ.อยุธยา จ.อยุธยา",
            "zip": "13000"
        },
        "name": "ช่างร่วม รับเหมาก่อสร้าง รับต่อเติมบ้าน น้ำ ไฟ ปูน ไม้ ทุกชนิด",
        "phone": "0867508355"
    },
    {
        "about": "รับเหมาก่อสร้างโดยช่างผู้ชำนาญงานมากกว่า 20 ปี",
        "description": "รับเหมาก่อสร้าง โดยช่างผู้ชำนาญงานมากกว่า 20 ปี ฝีมือเยี่ยม\nติดต่อสอบถามและรับงานโดย : คุณสุรพล 085-966-6487, คุณวีรพัฒน์ 080-305-5506",
        "emails": [
            "jay_fuengkhajon@hotmail.com"
        ],
        "id": "692155274162873",
        "location": {
            "city": "กรุงเทพฯ",
            "street": "เขตหนองแขม แขวงหนองค้างพลู",
            "zip": "10160"
        },
        "name": "เฟื่องขจร การช่าง - รับเหมาก่อสร้าง",
        "phone": "085-966-6487, 080-305-5506"
    },
    {
        "emails": [
            "somprom@hotmail.co.th"
        ],
        "id": "400956030062032",
        "location": {
            "city": "Thanya Buri",
            "country": "Thailand",
            "latitude": 13.89633,
            "longitude": 100.63934,
            "street": "88 ซ.สายไหม 56 แขวงสายไหม เขตสายไหม กทม.",
            "zip": "10220"
        },
        "name": "บจก.เฉลียวการช่างและค้าวัสดุก่อสร้าง",
        "phone": "0867770046"
    },
    {
        "about": "คนดังก่อสร้าง",
        "id": "872570559443552",
        "name": "ช่างก่อสร้าง"
    },
    {
        "about": "กล้องสำรวจ เครื่องมือช่าง",
        "description": "จำหน่าย ขาย กล้องสำรวจ กล้องธีโอโดไลท์ กล้อง Teodolite กล้องระดับ กล้องรวมศูนย์ กล้อง Total Station อุปกรณ์สำรวจ เครื่องมือสำรวจ วัสดุก่อสร้าง รวมความรู้ ทางวิศวกรรม",
        "emails": [
            "phataraphirom@gmail.com"
        ],
        "id": "1560648897485352",
        "location": {
            "city": "ขอนแก่น",
            "street": "อำเภอเมือง",
            "zip": "40000"
        },
        "name": "กล้องสำรวจ เครื่องมือช่าง อุปกรณ์ก่อสร้าง",
        "phone": "0864696429"
    },
    {
        "about": "รับเหมาก่อสร้างทุกรูปแบบ.tle.0815711261. 0948379500",
        "description": "รับเหมาก่อสร้างทุกรูปแบบ...ไม่ว่าจะเป็นงานเทปูน..งานฉาบ..งานปูกระเบื้อง..งานทาสี...tel.0815711261",
        "emails": [
            "pattanakon.2541@gmail.com"
        ],
        "id": "641283549218239",
        "location": {
            "city": "Wang Noi",
            "country": "Thailand",
            "latitude": 14.1564,
            "longitude": 100.5936,
            "street": "อยุธยา Ayutthaya",
            "zip": "13180"
        },
        "name": "รับเหมาก่อสร้าง งานต่อเติม งานรถขุด และถมที่ดินครบวงจร.ช่างพงศ์.",
        "phone": "0948379500"
    },
    {
        "id": "942315112454652",
        "location": {
            "city": "Ubon Ratchathani",
            "country": "Thailand",
            "latitude": 15.36575,
            "longitude": 104.89258,
            "street": "สรรพสิทธิ์",
            "zip": "34000"
        },
        "name": "รับเหมาก่อสร้าง ต่อเติม ซ่อมแซม อุบลราชธานี โทร 0862591685 - ช่างเอก",
        "phone": "0862591685"
    },
    {
        "id": "711439902230571",
        "location": {
            "city": "น่าน",
            "street": "แผนกวิชาช่างก่อสร้าง วิทยาลัยเทคนิคน่าน 2 ถ.รอบเมืองทิศตะวันตก ต.ในเวียง อ.เมือง",
            "zip": "55000"
        },
        "name": "แผนกช่างก่อสร้าง เทคนิคน่าน"
    },
    {
        "about": "ศิษย์เก่า แผนกช่างก่อสร้าง วิทยาลัยเทคนิคชัยนาท",
        "id": "381434748703779",
        "name": "แผนกวิชาช่างก่อสร้าง เทคนิคชัยนาท"
    },
    {
        "about": "บริการงานออกแบบและรับเหมาก่อสร้างทุกประเภทครับ ติดต่อคุณสนธยา 086 3973833",
        "description": "บริการรับเหมาก่อสร้าง\n1.บริการงานออกแบบก่อสร้างบ้านพักอาศัย,อาคาร,สำนักงาน,โรงงานและงานออกแบบต่อเติมตบแต่งภายใน\n2.บริการงานออกแบบและรับเหมาก่อสร้างแบบ TURNKEY ออกแบบและก่อสร้างให้ตามงบประมาณลูกค้า\n3.บริการงานรับเหมาก่อสร้าง ก่อสร้างและประเมินราคาตามแบบ, ให้คำปรึกษาฟรีหากลูกค้าต้องการจำกัดงบประมาณในการก่อสร้าง\n4.บริการงานรับเหมาต่อเติม,ตบแต่งภายใน คุยและเสนอราคาตามพื้นที่หน้างาน และ ตามความต้องการของลูกค้า\n\nงานทั้งหมดประเมินราคาตามความเป็นจริง ทำ BOQ. ควบคุมให้ทั้งหมด ตรวจงานตามรายการ BOQ.\n\nให้คำปรึกษาฟรี...ไม่มีค่าใช้จ่ายจนกว่าจะสรุปราคาและเซ็นต์สัญญาครับ\n\nติดต่อคุณสนธยา 086-3973833",
        "emails": [
            "rung0420@gmail.com"
        ],
        "id": "1519704901626481",
        "location": {
            "city": "กทม.",
            "street": "รามอินทรา 109",
            "zip": "10510"
        },
        "name": "บริษัท ช่างก่อสร้าง 54 จำกัด",
        "phone": "086 3973833"
    },
    {
        "id": "715684848445944",
        "location": {
            "city": "Khonkean",
            "country": "Thailand",
            "zip": "44000"
        },
        "name": "ชุมนุมศิษย์เก่าช่างก่อสร้างดุสิต กสด. ภาคอีสาน",
        "phone": "0818711716"
    },
    {
        "id": "385781014838788",
        "name": "บริษัท เฉลียวการช่างและค้าวัสดุก่อสร้าง จำกัด"
    }
]