[
    {
        "about": "รับเหมาก่อสร้าง บ้าน อาคารพาณิชย์ และงานต่อเติมทุกชนิด (ค่าของ+ค่าแรง) 0877442140,0872674622",
        "id": "1505264753126591",
        "name": "ช่างประสงค์ รับเหมาก่อสร้าง"
    },
    {
        "about": "รับเหมา งานก่อสร้าง-ต่อเติม และงานระบบ ฯลฯไฟฟ้า-ประปา\nรับออกแบบ/เขียนแบบ ทุกลักษณะงาน",
        "id": "1654955508078803",
        "location": {
            "city": "กรุงเทพ",
            "street": "85/155",
            "zip": "10240"
        },
        "name": "ช.ช้าง รับเหมางานก่อสร้างและงานระบบ",
        "phone": "0902098879"
    },
    {
        "id": "1671270253091557",
        "name": "ช่างก่อสร้าง79"
    },
    {
        "id": "1647337328843770",
        "location": {
            "city": "Nakhon Ratchasima",
            "country": "Thailand",
            "latitude": 14.9573765,
            "longitude": 102.0418701,
            "street": "57 m 8",
            "zip": "30150"
        },
        "name": "ทีมช่างจักษ์ รับออกแบบ ก่อสร้าง ต่อเติมซ่อมแซม",
        "phone": "0954606754"
    },
    {
        "about": "รับเหมางานก่อสร้างทุกชนิด โดยช่างผู้ชำนาญงาน",
        "id": "1494900667487345",
        "location": {
            "city": "Amphoe Muang Chiang Mai",
            "country": "Thailand",
            "latitude": 18.7622604,
            "longitude": 98.9929581,
            "street": "เชียงใหม่",
            "zip": "50300"
        },
        "name": "รับเหมาก่อสร้าง โดยช่างผู้ชำนาญงาน เชียงใหม่",
        "phone": "0921858729"
    },
    {
        "id": "992518650786907",
        "location": {
            "city": "Narathiwat",
            "country": "Thailand",
            "latitude": 6.42444,
            "longitude": 101.824
        },
        "name": "อาคาร ช่างก่อสร้าง ภาควิชาโยธา"
    },
    {
        "id": "914101428637059",
        "name": "ช่างก่อสร้าง  จบที่อินทรอาชีวะ"
    },
    {
        "id": "1641817596087523",
        "location": {
            "city": "Tak",
            "country": "Thailand",
            "latitude": 16.902825651975,
            "longitude": 99.124391257959
        },
        "name": "แผนกวิชาช่างก่อสร้าง"
    },
    {
        "id": "1647792168834752",
        "name": "ประกาศนียบัตรวิชาชีพช่างก่อสร้าง"
    },
    {
        "id": "853305141380432",
        "location": {
            "city": "Ratchaburi",
            "country": "Thailand",
            "latitude": 13.52865,
            "longitude": 99.81326,
            "street": "433 ถนนศรีสุริยวงษ์ ต. หน้าเมือง"
        },
        "name": "วิทยาลัยชื่อดังย่านศรีเมือง ที่มีเด็กช่างก่อสร้างควบคุมทุกพื้นที่"
    },
    {
        "id": "878242465527132",
        "location": {
            "city": "Hat Yai",
            "country": "Thailand",
            "latitude": 7.0313,
            "longitude": 100.49981
        },
        "name": "ห้องทดลองแผนกช่างก่อสร้าง"
    },
    {
        "id": "846908098680587",
        "location": {
            "city": "Ratchaburi",
            "country": "Thailand",
            "latitude": 13.532206142329,
            "longitude": 99.808894023299
        },
        "name": "แผนกวิชาช่างก่อสร้าง เทคนิคราชบุรี"
    },
    {
        "id": "839180016126920",
        "location": {
            "city": "Thai Chang",
            "country": "Thailand",
            "latitude": 8.453642785,
            "longitude": 98.530774415
        },
        "name": "โรงงานปูน แผนกช่างก่อสร้าง วิทยาลัยเทคนิคพังงา"
    },
    {
        "id": "823859787656005",
        "location": {
            "city": "Ubon Ratchathani",
            "country": "Thailand",
            "latitude": 15.28811009,
            "longitude": 104.83040633,
            "street": "Thailand"
        },
        "name": "สำนักงาน สหพันธ์องกรค์ช่างก่อสร้าง เพื่อการดื่มสุรา"
    },
    {
        "id": "821535287925823",
        "location": {
            "city": "Amphoe Muang Rat Buri",
            "country": "Thailand",
            "latitude": 13.531896507611,
            "longitude": 99.810819838693
        },
        "name": "ตึกครอบครัวสีน้ำเงิน ช่างก่อสร้างราชบุรี - ดิ่งเมืองโอ่ง"
    },
    {
        "id": "1599244567015283",
        "location": {
            "city": "Ban Watthana Nakhon",
            "country": "Thailand",
            "latitude": 13.7478,
            "longitude": 102.332
        },
        "name": "แผนกช่างก่อสร้าง ที่มีนักศึกษาหน้าตาดีทุกคน"
    },
    {
        "id": "1577630539133254",
        "location": {
            "city": "Amphoe Muang Prachin Buri",
            "country": "Thailand",
            "latitude": 14.04801336,
            "longitude": 101.37561705
        },
        "name": "แผนกวิชาช่างก่อสร้าง วิทยาลัยเทคนิคปราจีนบุรี"
    },
    {
        "id": "1548849601995211",
        "location": {
            "city": "Phetchaburi",
            "country": "Thailand",
            "latitude": 13.0910756,
            "longitude": 99.951459
        },
        "name": "แผนกช่างก่อสร้าง วิทยาลัยเทคนิคเพชรบุรี"
    },
    {
        "id": "1440296862937952",
        "location": {
            "city": "Phitsanulok",
            "country": "Thailand",
            "latitude": 16.806066054637,
            "longitude": 100.29203326242
        },
        "name": "สาขาวิชาช่างก่อสร้าง วิทยาลัยเทคนิคพิษณุโลก"
    },
    {
        "id": "1426164260935876",
        "location": {
            "city": "ลพบุรี",
            "latitude": 14.572162919048,
            "longitude": 100.53645650637,
            "street": "วิทยาลัยเทคนิคลพบุรี"
        },
        "name": "วิทยาลัยเทคนิคลพบุรี ช่างก่อสร้าง"
    },
    {
        "id": "692068414167990",
        "location": {
            "city": "Muang Buriram",
            "country": "Thailand",
            "latitude": 14.993303255679,
            "longitude": 103.09915649042
        },
        "name": "ห้องพักครู แผนกช่างก่อสร้าง"
    },
    {
        "id": "731129926964519",
        "location": {
            "city": "Pak Nam Pho",
            "country": "Thailand",
            "latitude": 15.6905663,
            "longitude": 100.1186483
        },
        "name": "ตึก10 ชั้น4 แผนกวิชาช่างก่อสร้าง วิทยาลัยเทคนิคนครสวรรค์"
    }
]