[
    {
        "about": "เผยแพร่ โฆษณา ประชาสัมพันธ์ การทำกิจกรรมชมรมวิชาชีพช่างก่อสร้าง\nวก.หลวงประธานราษฎร์นิกร",
        "description": "แผนกวิชาการก่อสร้าง วิทยาลัยการอาชีพหลวงประธานราษฎร์นิกร เปิดสอนในหลักสูตร ปวช. 1-3 สาขางานก่อสร้าง\n**สำหรับผู้ที่สนใจเข้าเรียนต่อที่นี่  -รับสมัครผู้จบมัธยมศึกษาปีที่ 3 โดยการสอบคัดเลือก\n##แนวทางการศึกษาต่อ- มีโควต้าเทคโนสงขลา เทคนิคหาดใหญ่ อื่นๆรองรับ และสามารถสอบเข้าคัดเลือกเรียนต่อในระดับปวส. หรือปริญญาตรีได้ทุกสถาบันที่เปิดสอนหลักสูตรวิศวกรรมโยธา หรือสถาปนิก",
        "emails": [
            "fairsa1@hotmail.com"
        ],
        "id": "251894488197401",
        "location": {
            "city": "Had Yai",
            "country": "Thailand",
            "latitude": 6.9957903216056,
            "located_in": "225698014134319",
            "longitude": 100.4867544101,
            "zip": "90110"
        },
        "name": "ช่างก่อสร้าง หลวงประธานฯ",
        "phone": "074232036#125"
    },
    {
        "about": "จำหน่ายเครื่องมือช่าง BOSCH  Maktec Makita อุปกรณ์ก่อสร้าง ",
        "id": "742173959230098",
        "name": "เครื่องมือช่าง อุปกรณ์ก่อสร้างd.d. Tools \u0026 Hardware"
    },
    {
        "id": "375038269193820",
        "location": {
            "street": "50/3-9 ถนนสรงประภา แขวงสีกัน",
            "zip": "10210"
        },
        "name": "ช่างก่อสร้างดอนเมือง"
    },
    {
        "about": "ต่อเติมบ้าน ราคาประหยัด ครบ ถูก ดี\nรับงานครบวงจร (ด้วยช่างมากประสปการณ์)\n",
        "description": "รับสร้างบ้าน-ต่อเติม \n-งานปูน\n-งานไม้\n-งานกระจกอลูมิเนียม\n-งานไฟฟ้า\n-งานปะปา\n-งานสี\nฯลฯ ",
        "id": "732247180161720",
        "location": {
            "city": "Samut Prakan",
            "country": "Thailand",
            "latitude": 13.6337998,
            "longitude": 100.74183495,
            "street": "บางพลี สมุปราการ",
            "zip": "10540"
        },
        "name": "ช่าง ใน บ้าน ก่อสร้างและต่อเติม",
        "phone": "0938130795"
    },
    {
        "id": "858280187591244",
        "location": {
            "city": "Roi Et",
            "country": "Thailand",
            "street": "สวนปอ",
            "zip": "45190"
        },
        "name": "ช่างก่อสร้าง",
        "phone": "0935732803"
    },
    {
        "about": "The Gang \" See You \"",
        "id": "1463033687246064",
        "name": "ช่างก่อสร้าง"
    },
    {
        "about": "เปิดสอนสาชาวิชาการก่อสร้างเเละสาขาวิชางานโยธา ",
        "description": "สาขาช่างก่อสร้าง-โยธา วิทยาลัยการอาชีพห้วยผึ้ง\nรับสมัครนักศึกษาใหม่ ปีการศึกษา 2557\nรับผู้จบ ม.3 และเทียบเท่า เพื่อศึกษาต่อระดับ-\u003eปวช.ก่อสร้าง\nรับผู้จบ ม.6 ,เทียบเท่า และ ปวช.ทุกสาขา เพื่อศึกษาต่อระดับ -\u003eปวส.โยธา\nสมัครด้วยตนเองได้ ตั้งแต่บัดนี้เป็นต้นไป\nสอบถามได้โดยตรงที่ โทร. 087-9814625 , 086-1019729",
        "emails": [
            "huaiphung@hotmail.com"
        ],
        "id": "710273848995937",
        "location": {
            "city": "Huai Phung",
            "country": "Thailand",
            "latitude": 16.67849,
            "longitude": 103.8813,
            "street": "อ.ห้วยผึ้ง จ.กาฬสินธุ์",
            "zip": "46240"
        },
        "name": "ช่างก่อสร้าง-โยธา วิทยาลัยการอาชีพห้วยผึ้ง จังหวัดกาฬสินธุ์",
        "phone": "043 834282"
    },
    {
        "id": "207278066127592",
        "name": "ช่างก่อสร้างดุสิต."
    },
    {
        "about": "เด็กช่างก่อสร้างราชบุรี",
        "description": "ฝากไลท์เพจด้วยนะครับ ฝากรูปหรือฝากโพสเกี่ยวกับเด็กช่างหลังไมค์เลยครับ ",
        "id": "478472405522858",
        "name": "ช่างก่อสร้าง ราชบุรี"
    },
    {
        "about": "แผนกวิชาช่างก่อสร้าง วิทยาลัยเทคนิคแพร่",
        "id": "1404240546493091",
        "location": {
            "city": "อำเภอเมืองแพร่ ",
            "street": "เลขที่ 5  ถนนเหมืองหิต ต.ในเวียง",
            "zip": "54000"
        },
        "name": "แผนกวิชาช่างก่อสร้างวิทยาลัยเทคนิคแพร่"
    },
    {
        "about": "จำหน่าย เครื่องมือช่างก่อสร้าง ครบวงจร\n.085-766-2884Line/Whatapp",
        "description": "บริษัท ชุมพลโลหะกิจ(8888) จำกัด \n367 ถ.รามอินทรา แขวงอนุสาวรีย์ \nเขตบางเขน กทม.10220\nโทร.02-973-1686-88 แฟกส์.02-973-1684 \nสายด่วน.085-766-2884",
        "emails": [
            "chumphol_2008@hotmail.com"
        ],
        "id": "371453966309734",
        "location": {
            "city": "Bangkok",
            "country": "Thailand",
            "latitude": 13.89633,
            "longitude": 100.63934,
            "street": "bangkok",
            "zip": "10220"
        },
        "name": "Chumpholcenter ชุมพลโลหะกิจ เครื่องมือช่างก่อสร้างครบวงจร",
        "phone": "085-766-2884"
    },
    {
        "about": "นายช่างเมืองสตึก ก่อสร้าง ออกแบบบ้าน ตกแต่งภายใน ต่อเติมบ้าน ทีมงานมืออาชีพ",
        "emails": [
            "srigold@hotmail.com",
            "silveryblues@gmail.com"
        ],
        "id": "767736516642678",
        "location": {
            "city": "Buriram",
            "country": "Thailand",
            "latitude": 15.54422,
            "longitude": 102.94151,
            "street": "สตึก",
            "zip": "31120"
        },
        "name": "นายช่างพระนคร ออกแบบบ้าน ก่อสร้าง เซ็นต์แบบ ทำ buil-in",
        "phone": "0839282174"
    },
    {
        "about": "รับเหมาก่อสร้าง. ",
        "id": "1601806740102813",
        "location": {
            "city": "Surat Thani",
            "country": "Thailand",
            "latitude": 9.1090298,
            "longitude": 99.3721771,
            "street": "391/71 หมู่ 4. ต.บ้านส้อง.    อำเภอเวียงสระ",
            "zip": "84190"
        },
        "name": "ร้าน ส.การช่าง รับเหมาก่อสร้าง และรับทำงานเหล็กทุุกชนิด",
        "phone": "0840588252"
    },
    {
        "id": "268009399979539",
        "location": {
            "city": "Saraburi",
            "country": "Thailand",
            "street": "Saraburi",
            "zip": "18110"
        },
        "name": "ช่างก่อสร้าง สระบุรี",
        "phone": "0815468745"
    },
    {
        "about": "เพจนี้ เด็กก่อสร้างโดยเฉพาะจ้าาาาาา",
        "id": "906224139391934",
        "name": "สมาคมนิยมช่างก่อสร้างแห่งสยามประเทศ"
    },
    {
        "id": "114821241956290",
        "location": {
            "city": "Pathum Thani",
            "country": "Thailand",
            "latitude": 13.965939300357,
            "longitude": 100.53564814431,
            "street": "วิทยาลัยเทคนิคปทุมธานี"
        },
        "name": "เราช่างก่อสร้างเทคนิคปทุมธานี"
    },
    {
        "about": "งานต่อเติมบ้าน",
        "description": "รับเหมาก่อสร้าง ต่อเติมบ้าน ไฟฟ้า ปะปา ผ้าเพดาน หลังคา งานรื้อถอน งานรีโนเวท ตกแต่งบ้าน",
        "id": "383672758494346",
        "location": {
            "city": "Amphoe Sung Men",
            "country": "Thailand",
            "latitude": 18.122034030296,
            "longitude": 100.18157958984,
            "street": "106 หมู่ 5 ต.บ้านกวาง อ.สูงเม่น จ.แพร่",
            "zip": "54130"
        },
        "name": "ส.การช่าง รับเหมาก่อสร้างบ้าน งานต่อเติมบ้าน จังหวัดแพร่",
        "phone": "0843687135"
    },
    {
        "id": "150527008317964",
        "name": "ช่างก่อสร้าง"
    },
    {
        "about": "รับเหมาก่อสร้าง ,ออกแบบ, ต่อเติม ,ซ่อมแซม, สร้างบ้านครบวงจร ",
        "id": "299033720251123",
        "name": "ช่างรับเหมาก่อสร้าง ปรับปรุง ซ่อมแซม ออกแบบ อาคาร บ้าน ต่อเติมที่พักอาศัย",
        "phone": "0821068662"
    },
    {
        "about": "รับเหมาก่อสร้างบ้าน \nไม่ว่าบ้านคุณจะมีปัญหาเเค่ไหนช่างเเดนช่วยได้\nเบอร์ติดต่อ 098-9359801",
        "id": "478066912349243",
        "location": {
            "city": "ไทย",
            "street": "หมู่ 4 อ.ตาคลี ต.ตาคลี จ.นครสวรรค์",
            "zip": "60140"
        },
        "name": "ช่างเเดน รับเหมาก่อสร้าง",
        "phone": "0989359801"
    },
    {
        "id": "876253632422989",
        "name": "ช่างก่อสร้าง'58"
    },
    {
        "id": "830617820283674",
        "name": "ช่างก่อสร้าง"
    },
    {
        "about": "รับเหมาก่อสร้าง ต่อเติม และตกแต่งภายนอกและภายในบ้าน ",
        "id": "1384277491901618",
        "location": {
            "city": "Tha Mai",
            "country": "Thailand",
            "latitude": 12.6158199,
            "longitude": 102.0986633,
            "street": "จันทบุรี",
            "zip": "22170"
        },
        "name": "รับเหมาก่อสร้างและตกแต่งบ้าน ช่างเล็ก",
        "phone": "084 868 2936"
    },
    {
        "id": "885904688154685",
        "location": {
            "city": "Amphoe Rattanaburi",
            "country": "Thailand",
            "latitude": 15.3167,
            "longitude": 103.85,
            "street": "178 หมู่ 14",
            "zip": "32130"
        },
        "name": "บุญเรียงก่อสร้างรับเหมาสร้างโบสถ์ เมรุ หอระฆัง ด้วยทีมช่างระดับมืออาชีพ",
        "phone": "0818779708"
    },
    {
        "emails": [
            "tawatchaibuyai49@gmail.com"
        ],
        "id": "1485560311762520",
        "location": {
            "street": "ติวานนท์25",
            "zip": "นนทบุรี"
        },
        "name": "ช่างธวัชชัย รับเหมาก่อสร้าง ต่อเติมบ้านอาคาร",
        "phone": "0915159576-0611167284"
    }
]