[
    {
        "id": "327302034140942",
        "location": {
            "latitude": 13.6613295,
            "longitude": 99.8152141
        },
        "name": "บ้านช่างก่อสร้าง ที่มี ณ กัส ก่อสร้าง คอยเฝ้าบ้านอยู่"
    },
    {
        "id": "331768890315341",
        "location": {
            "city": "Ubon Ratchathani",
            "country": "Thailand",
            "latitude": 15.2423706,
            "longitude": 104.8922937
        },
        "name": "ห้องเรียนวิชาสำรวจ แผนกช่างก่อสร้าง-สถาปัตยกรรม วิทยาลัยเทคนิค อุบลราชธานี"
    },
    {
        "id": "333450026807920",
        "location": {
            "city": "Bangkok",
            "country": "Thailand",
            "latitude": 13.788901772363,
            "longitude": 100.52942270422
        },
        "name": "หน่อยเลือกตั้ง ช่างก่อสร้างดุสิต"
    },
    {
        "id": "334026236715736",
        "location": {
            "city": "Ubon Ratchathani",
            "country": "Thailand",
            "latitude": 15.242770625,
            "longitude": 104.842395
        },
        "name": "แผนกช่างก่อสร้าง"
    },
    {
        "id": "337630139667393",
        "location": {
            "city": "Prachin",
            "country": "Thailand",
            "latitude": 14.053375540984,
            "longitude": 101.37805413115,
            "zip": "25000"
        },
        "name": "สาขาวิชาช่างก่อสร้าง ปราจีนบุรี"
    },
    {
        "id": "337860656350381",
        "location": {
            "city": "Phra Phutthabat",
            "country": "Thailand",
            "latitude": 14.72451,
            "longitude": 100.80391
        },
        "name": "แผนกช่างก่อสร้าง"
    },
    {
        "id": "342630145919830",
        "location": {
            "city": "Chiang Mai",
            "country": "Thailand",
            "latitude": 18.569839,
            "longitude": 98.996499,
            "zip": "51000"
        },
        "name": "อาคาร ช่างก่อสร้าง"
    },
    {
        "id": "345261285588549",
        "location": {
            "city": "Bangkok",
            "country": "Thailand",
            "latitude": 13.741608560098,
            "longitude": 100.53052919926
        },
        "name": "งานสถาปนาครบรอบ 79 ปี ช่างก่อสร้างอุเทนถวาย"
    },
    {
        "id": "345400325606504",
        "location": {
            "city": "Amphoe Muang Phuket",
            "country": "Thailand",
            "latitude": 7.89531075,
            "longitude": 98.40172374,
            "street": "35/75  ม.ณัฐกมล  (ศิษย์เก่าช่างก่อสร้าง เทคนิคภูเก็ต รุ่น ๕๒)",
            "zip": "83000"
        },
        "name": "Blue Home ก่อสร้างภูเก็ต ๕๒"
    },
    {
        "id": "381615461994429",
        "location": {
            "city": "Ban Muang Detudom",
            "country": "Thailand",
            "latitude": 14.90455,
            "longitude": 105.03749
        },
        "name": "วิทยาลัยเทคเดชอุดม ช่างก่อสร้าง-โยธา"
    },
    {
        "id": "348111625360420",
        "location": {
            "city": "Phrae",
            "country": "Thailand",
            "latitude": 18.133581031065,
            "longitude": 100.13442099094
        },
        "name": "ห้องเขียนแบบช่างก่อสร้าง",
        "phone": "0875656830"
    },
    {
        "id": "349119585212930",
        "location": {
            "city": "Bangkok",
            "country": "Thailand",
            "latitude": 13.648008143483,
            "longitude": 100.37928789854
        },
        "name": "วิทยาลัยเทคนิคราชสิทธารามช่างก่อสร้าง"
    },
    {
        "id": "614046595400547",
        "location": {
            "city": "Hua Hin",
            "country": "Thailand",
            "latitude": 12.4598198,
            "longitude": 99.9447708,
            "street": "1",
            "zip": "77110"
        },
        "name": "ช่างต่อ รับเหมาก่อสร้าง",
        "phone": "088-377-7351"
    },
    {
        "id": "205104886206203",
        "name": "ช่างเฉลิม รับเหมาก่อสร้าง"
    },
    {
        "id": "878779208872471",
        "name": "ช่างเขียนแบบก่อสร้าง"
    },
    {
        "id": "1476121502693172",
        "name": "ช่างรวยรับเหมาก่อสร้าง"
    },
    {
        "id": "533392360148122",
        "name": "ช่างจิต ก่อสร้าง"
    },
    {
        "id": "1652546758362683",
        "name": "ช่างทิม รับเหมาก่อสร้าง จันทบุรี"
    },
    {
        "id": "703399523125649",
        "name": "ช่างก่อสร้าง รุ่น29"
    },
    {
        "id": "702670979860512",
        "location": {
            "city": "Amphoe Kamphaeng Saen",
            "country": "Thailand",
            "street": "บ้านคลองไทร ต.ห้วยม่วง อ.กำแพงแสน จ.นครปฐม",
            "zip": "73180"
        },
        "name": "บ้านช่างสิทธิ์ เจ๊เล็ก รับเหมาก่อสร้าง"
    },
    {
        "id": "679653715502179",
        "name": "ช่างก่อสร้างโยธา - เทคนิคสถาปัตยกรรม"
    },
    {
        "id": "431442983708606",
        "name": "ปวช.ช่างก่อสร้าง"
    },
    {
        "id": "775678079224934",
        "name": "ปวช2 ช่างก่อสร้าง"
    },
    {
        "id": "704268302994583",
        "location": {
            "street": "นครปฐม"
        },
        "name": "ธนโชติ การช่าง  รับเหมาก่อสร้างโรงงาน-โกดังเก็บสินค้า",
        "phone": "0807666743"
    },
    {
        "id": "634099190026341",
        "name": "กรรมกรก่อสร้าง  ..(  ว่าที่  )  ช่างก่อ + ฉาบบ้าน"
    }
]