[
    {
        "id": "616455268475370",
        "name": "สมาคมศิษย์เก่าช่างก่อสร้างดุสิต"
    },
    {
        "about": "งานก่อสร้าง",
        "id": "711747722304522",
        "location": {
            "city": "Suphan Buri",
            "country": "Thailand",
            "latitude": 14.4667,
            "longitude": 100.117,
            "street": "สุพรรณบุรี",
            "zip": "129"
        },
        "name": "ทีมงานช่างหนูก่อสร้าง",
        "phone": "0804319145"
    },
    {
        "id": "473169702843313",
        "name": "ช่างก่อสร้าง-ช่างยนต์"
    },
    {
        "id": "320797248117119",
        "name": "ชมรมช่างก่อสร้างวิทยาลัยเทคนิคบุรีรัมย์ ปวช รุ่นที่เท่าไรก็ไม่รู้"
    },
    {
        "about": "รับเหมาก่อสร้าง รับทำสแตนเลสทุกชนิด ต่อเติม สร้างใหม่ ออกแบบ เขียนแบบ",
        "id": "1550201458528251",
        "location": {
            "city": "Ratchaburi",
            "country": "Thailand",
            "latitude": 13.54313,
            "longitude": 99.75721,
            "street": "231 หมู่7 ต.อ่างทอง อ.เมือง",
            "zip": "70000"
        },
        "name": "ท่าช้างสแตนเลส,รับเหมาก่อสร้าง",
        "phone": "082-667-9568"
    },
    {
        "id": "152354438155792",
        "name": "ปวช.ช่างก่อสร้าง"
    },
    {
        "id": "186758284695989",
        "name": "วิชาช่างก่อสร้าง"
    },
    {
        "about": "เราพี่น้องมีไรช่วยกันได้เพิ่ลมีปัญหา\nมีทางออก",
        "id": "406967282761483",
        "location": {
            "city": "Samut Sakhon",
            "country": "Thailand",
            "street": "67/382",
            "zip": "74000"
        },
        "name": "สมาคมศิษ ช่างกลก่อสร้างดุสิต  ก่อสอดอ",
        "phone": "0801900130"
    },
    {
        "about": "รับสร้างบ้านโดยช่างจบก่อสร้างดุสิต\nสร้างบ้านตามใจคุณ  ในราคาที่คุณพอใจ",
        "id": "530922400379269",
        "location": {
            "city": "Bangkok",
            "country": "Thailand",
            "latitude": 13.7522,
            "longitude": 100.494,
            "street": "กรุงเทพและต่างจังหวัด",
            "zip": "10170"
        },
        "name": "รับเหมาก่อสร้างโดยช่างจบก่อสร้างดุสิต",
        "phone": "0944657644"
    },
    {
        "id": "1895456917345468",
        "name": "ช่างก่อสร้าง-ช่างสำรวจ"
    },
    {
        "id": "1023449964354947",
        "name": "ช่างก่อสร้าง แต่ไม่จบ"
    },
    {
        "id": "382191445134712",
        "location": {
            "city": "Changwat Trat",
            "country": "Thailand",
            "latitude": 12.2955088,
            "longitude": 102.48494175
        },
        "name": "แผนกช่างก่อสร้าง"
    },
    {
        "id": "412019648954835",
        "location": {
            "city": "Surin",
            "country": "Thailand",
            "latitude": 14.9447819,
            "longitude": 103.8106526
        },
        "name": "แผนกช่างก่อสร้าง วก.ศีขรภูมิ"
    },
    {
        "about": "Engineering Surveying\nTEL : 0882965431\nTEL : 0948615035\n   ID : 0948615035\n\n",
        "id": "323050497860137",
        "name": "ช่างสำรวจ-ก่อสร้างพเนจร"
    },
    {
        "about": "ต่อเติมและซ่อมแซมบ้าน ห้องน้ำ ปูกระเบื้อง เดินสายไฟฟ้า ทาสี ราคาย่อมเยา",
        "description": "รับเหมาก่อสร้างต่อเติมบ้าน ซ่อมแซมบ้าน รับทาสี ปูกระเบื้อง รับทำห้องน้ำ เดินสายไฟฟ้า ราคาเป็นกันเอง บริการทุกระดับประทับใจ ช่างฝีมือดีและไว้ใจได้",
        "id": "535703716532619",
        "location": {
            "city": "Bangkok",
            "country": "Thailand",
            "latitude": 13.774,
            "longitude": 100.65728,
            "street": "หมู่บ้านฉัตรแก้ว แฮปปี้แลนด์ บางกะปิ",
            "zip": "10240"
        },
        "name": "ช่างเมฆ รับเหมาก่อสร้าง",
        "phone": "0881710169 ช่างเมฆ"
    },
    {
        "about": "รับเหมา ต่อเติม สร้างอาคาร บ้านเรือน \nงานคุณภาพ. ราคาเป็นกันเอง",
        "id": "1572598733024357",
        "location": {
            "city": "Nakhon Ratchasima",
            "country": "Thailand",
            "latitude": 14.959615474096,
            "longitude": 102.06066066906,
            "street": "146 ม.10",
            "zip": "30000"
        },
        "name": "ช่างตุ้ย รับเหมาก่อสร้าง งานคุณภาพ ราคากันเอง",
        "phone": "0821381674"
    },
    {
        "id": "157441947922622",
        "name": "ช่างรับเหมาก่อสร้าง ชัยภูมิ"
    },
    {
        "about": "รับเหมาออกแบบก่อสร้าง บ้าน เมรุ อุโบสถ ศาลาการเปรียญ ซุ้มประตู",
        "emails": [
            "tomkk50@yahoo.co.th"
        ],
        "id": "1500414130192864",
        "location": {
            "city": "อ.ท่าตูม จ.สุรินทร์",
            "street": "99 ,10 บ้านดอนแคน ต.โพนครก",
            "zip": "32120"
        },
        "name": "ช่างเขียว ก่อสร้าง",
        "phone": "0895305984"
    },
    {
        "id": "920331927999983",
        "location": {
            "city": "Ubon Ratchathani",
            "country": "Thailand",
            "latitude": 14.67088,
            "longitude": 105.41356,
            "street": "บ้านห้วยทราย 132 ม.11ต.คอแลน อ.บุณฑริก",
            "zip": "34230"
        },
        "name": "ซำเหมาก่อสร้าง - ช่างมล",
        "phone": "0854933208"
    },
    {
        "about": "ฝีมือเยี่ยม100%",
        "id": "405382752932195",
        "location": {
            "street": "32 ทางช้าง บางบาล พระนครศรีอยุธยา",
            "zip": "13250"
        },
        "name": "เฉลยการช่าง รับเหมาก่อสร้าง-ต่อเติม",
        "phone": "0815567767"
    },
    {
        "about": "รับเหมาก่อสร้างบ้าน อาคารสำนักงาน และต่อเติมบ้านทุกชนิดในเขตพื้นที่ให้บริการ",
        "id": "553628054709556",
        "location": {
            "city": "Ubon Ratchathani",
            "country": "Thailand",
            "latitude": 15.36575,
            "longitude": 104.89258,
            "street": "บ.ค้อ ต. กุดลาด อ.เมือง จ. อุบลราชธานี",
            "zip": "34000"
        },
        "name": "ช่างกร รับเหมาก่อสร้าง",
        "phone": "0897214065"
    },
    {
        "about": "สร้างบ้านแต่ไม่สร้างบาน",
        "emails": [
            "barnpotsiriphut@hotmail.com"
        ],
        "id": "125304910949145",
        "location": {
            "city": "อ. บ้านไผ่  จ. ขอนแก่น",
            "street": "บ้านเกิ้ง"
        },
        "name": "รับเหมาก่อสร้าง ต่อเติม ช่างพร",
        "phone": "0945345100"
    },
    {
        "about": "รับเหมาก่อสร้าง  ทาสี  ฝ้าเพดาน  ช่างเชื่อม  งานต่อเติม ",
        "id": "1470528269861878",
        "name": "รับเหมาก่อสร้าง ทาสี ฝ้าเพดาน ช่างเชื่อม"
    },
    {
        "id": "207246269483968",
        "name": "รับเหมาก่อสร้าง ช่างโต้ง"
    },
    {
        "about": "จุ๊กกู๊ร",
        "id": "263525567125615",
        "name": "ชมรมสาขาวิชาช่างก่อสร้าง วิทยาลัยเทคนิคสุรนารี"
    }
]