[
    {
        "id": "567424159939627",
        "name": "ชมรมศิษย์เก่าช่างก่อสร้าง  วิทยาลัยเทคนิคกระบี่"
    },
    {
        "about": "บริการ ให้คำปรึกษา รับสร้างบ้าน อาคาร สิ่งปลูกสร้างต่างๆ งานสี ไม้ กระจก อลูมิเนียม",
        "id": "1147408431942316",
        "name": "นิติพงศ์ ช่างก่อสร้าง"
    },
    {
        "id": "200189490006810",
        "name": "สาขาช่างก่อสร้าง"
    },
    {
        "id": "166786260035350",
        "name": "แผนกช่างก่อสร้าง"
    },
    {
        "id": "1636244456632730",
        "name": "ช่างก่อสร้างนนทบุรี รุ่นที่ 56"
    },
    {
        "id": "1049585958427199",
        "location": {
            "city": "Samut Prakan",
            "country": "Thailand"
        },
        "name": "เมธีกุล บ้านช่างบ้านไฟฟ้าบ้านก่อสร้าง"
    },
    {
        "about": "แผนกช่างก่อสร้าง วิทยาลัยเทคนิกเชียงราย",
        "id": "762088930508853",
        "name": "แผนกวิชาช่างก่อสร้าง วิทยาลัยเทคนิกเชียงราย"
    },
    {
        "about": "เป็นเทคนิคที่โหดมากในแนวบู๊",
        "id": "197976133708535",
        "name": "ชมรมช่างก่อสร้าง"
    },
    {
        "id": "876844889065080",
        "name": "ช่างก่อสร้าง อุเทนถวายรุ่น 65"
    },
    {
        "emails": [
            "construction_nsn@hotmail.co.th"
        ],
        "id": "166013986786945",
        "location": {
            "street": "400 ถนนสวรรค์วิถี",
            "zip": "60000"
        },
        "name": "แผนกวิชาช่างก่อสร้าง วิทยาลัยเทคนิคนครสวรรค์",
        "phone": "056221390 ต่อ 540"
    },
    {
        "about": "เพจเปิดใหม่ของคนใจรัก สีน้ำเงิน\nใครสนใจฝากรูปส่งกันเข้ามาได้เลยคัฟ  แอ๊ดมิน นอม !!",
        "id": "513467935351471",
        "name": "สมาคมนิยมช่างก่อสร้าง-ก่อสร้างแปดริ้ว"
    },
    {
        "about": "ก่อสร้าง",
        "id": "683706298425346",
        "location": {
            "city": "Nonthaburi",
            "country": "Thailand",
            "latitude": 13.8611,
            "longitude": 100.513,
            "street": "หมู่บ้านวัดคลองตาคล้าย  ม.7  ต.บางบัวทอง    อ.บางบัวทอง   จ.นนทบุรี",
            "zip": "11150"
        },
        "name": "รับเหมาก่อสร้าง ต่อเติมทั่วไป  ช่างอรุณ",
        "phone": "0875164176"
    },
    {
        "about": "เรื่องบ้านต้องเรา",
        "description": "รับสร้างบ้าน โรงงาน ตกแต่ง ต่อเติม ปรับปรุง ซ่อมแซม ออกแบบ เขียนแบบ 3D ",
        "emails": [
            "baanrwmchang@hotmail.co.th"
        ],
        "id": "165586926978594",
        "location": {
            "city": "ชลบุรี",
            "street": "567/11หมู่ 4",
            "zip": "20110"
        },
        "name": "ห้างหุ้นส่วนจำกัด บ้านรวมช่างก่อสร้าง",
        "phone": "0811511754"
    },
    {
        "about": "อ.สวรรคโลก  จ.สุโขทัย",
        "description": "จำหน่าย เครื่องมือช่าง(สว่าน หินเจียร จิกซอ ไฟเบอร์ Maktec Makita)\nระบบน้ำการเกษตร(สปิงเกลอร์ ท่อPVC ท่อPE อุปกรณ์PVC ถาดเพาะกล้า ดินเพาะกล้า) วัสดุก่อสร้าง(สีทาบ้าน ฝ้า สมาร์ทบอร์ด) ",
        "emails": [
            "jom.fish@hotmail.com"
        ],
        "id": "151263928415245",
        "location": {
            "city": "Sukhothai",
            "country": "Thailand",
            "latitude": 17.33183,
            "longitude": 99.82462,
            "street": "อ.สวรรคโลก สุโขทัย",
            "zip": "64110"
        },
        "name": "กุ่ยพาณิชย์2014 จำหน่าย ระบบน้ำการเกษตร วัสดุก่อสร้าง เครื่องมือช่าง",
        "phone": "0906930156,055643884,0815335247,055642074"
    },
    {
        "about": "แดนน้ำเงินขาว",
        "id": "690311337735700",
        "location": {
            "city": "Bangkok",
            "country": "Thailand",
            "latitude": 14.35886,
            "longitude": 100.5743332,
            "street": "29 ถนนนเรศวร เทศบาลพระนครศรีอยุธยา พระนครศรีอยุธยา",
            "zip": "13000"
        },
        "name": "แผนกช่างก่อสร้าง เทคนิคพระนครศรีอยุธยา",
        "phone": "0836994897"
    },
    {
        "id": "363066800380565",
        "name": "ชมรมศิษย์เก่าช่างก่อสร้างดอนเมือง"
    },
    {
        "id": "1518446331738785",
        "location": {
            "city": "Prachuap Khiri Khan",
            "country": "Thailand",
            "latitude": 11.81136,
            "longitude": 99.79797,
            "street": "อ.บางสะพาน จ.ประจวบคีรีขันธ์",
            "zip": "0861303823"
        },
        "name": "รับเหมาก่อสร้าง - by ช่างวุฒ",
        "phone": "0951529162"
    },
    {
        "id": "1025037477527019",
        "location": {
            "city": "Sa Kaeo",
            "country": "Thailand",
            "latitude": 13.8167,
            "longitude": 102.067,
            "street": "156 ม.1 ต.สระขวัญ อ.เมือง จ.สระแก้ว",
            "zip": "27000"
        },
        "name": "รับเหมาก่อสร้าง เพดาน โดยช่าง-จุ",
        "phone": "0924373161"
    },
    {
        "id": "377690722438774",
        "name": "ปวช.ช่างก่อสร้าง รุ่น37"
    },
    {
        "about": "สำหรับเพจนี้คุยได้ทุกเรื่องคร๊าพ",
        "id": "229643697224081",
        "name": "วิทยาลัยเทคนิค แแผนกช่างก่อสร้าง",
        "phone": "0943812130"
    },
    {
        "id": "512136422283891",
        "name": "ปวช.ช่างก่อสร้าง-โยธา"
    },
    {
        "about": "สถบันเทคโนโลยี",
        "id": "1623356951248037",
        "name": "โรงเรียนช่างก่อสร้างหนองบัวลำภู"
    },
    {
        "id": "1034676633223791",
        "name": "ปวช.ช่างก่อสร้าง 44"
    },
    {
        "about": "เด็กก่อสร้าง-โยธา",
        "id": "694335940594160",
        "name": "เด็กช่าง ก่อสร้าง-โยธา"
    },
    {
        "about": "วิทยาลัยเทคนิคเพชรบุรี แผนกช่างก่อสร้าง",
        "id": "299664040208084",
        "name": "วิทยาลัยเทคนิคเพชรบุรี แผนกช่างก่อสร้าง"
    }
]