[
    {
        "about": "รับทำงานก่อสร้างทุกชนิด",
        "id": "1395958840704076",
        "location": {
            "city": "Amphoe Sawaeng Ha",
            "country": "Thailand",
            "latitude": 14.75205,
            "longitude": 100.29305,
            "street": "ต.จำลอง อ.แสวงหา จ.อ่างทอง",
            "zip": "14150"
        },
        "name": "รับเหมา สร้างบ้าน ต่อเติม งานก่อสร้างทุกชนิด ครบวงจร  โดยช่างพรเทพ",
        "phone": "0874104045"
    },
    {
        "about": "รับเหมาก่อสร้างและต่อเติมบ้านครบวงจร",
        "emails": [
            "siripimon.tk@gmail.com"
        ],
        "id": "1521257524831378",
        "location": {
            "city": "Nakhon Ratchasima",
            "country": "Thailand",
            "zip": "30130"
        },
        "name": "ช่างปืนก่อสร้างและรับเหมา",
        "phone": "0821642859"
    },
    {
        "id": "371530859699651",
        "location": {
            "city": "สระบุรี",
            "street": "52 ม.7 ต.ห้วยทราย อ.หนองแค จ.สระบุรี",
            "zip": "18230"
        },
        "name": "ช่างศักดา รับเหมาก่อสร้าง",
        "phone": "0892281301"
    },
    {
        "about": "รับเหมาก่อสร้างบ้าน ตึก โรงงาน งานรื้อถอนและสร้างบ้านดิน ขอนแก่นและสุรินทร์ 085-2744735 email:mogky@hotmail.com",
        "description": "รับเหมาก่อสร้างและต่อเติมบ้าน ตึก โรงงานโดยทีมช่างมืออาชีพ ราคาเป็นกันเอง ติดต่อ 085-2744735",
        "emails": [
            "mogky@hotmail.com"
        ],
        "id": "660908640630252",
        "location": {
            "city": "ขอนแก่น",
            "street": "ขอนแก่น",
            "zip": "40000"
        },
        "name": "โรจน์สุรินทร์ การช่าง รับเหมาก่อสร้างและสระว่ายน้ำ",
        "phone": "0852744735"
    },
    {
        "id": "153823604965224",
        "name": "ช่างก่อสร้าง05"
    },
    {
        "about": "รับประกันด้วยความมาตรฐาน ด้วยฝีมือช่างสุดเก่ง...\nสนใจ 0912577687. ราคาเป็นกันเอง....",
        "id": "926054540749757",
        "name": "ช่างพา  รับเหมาก่อสร้าง"
    },
    {
        "about": "ให้ทุกคนโชว์ความเท่ ในการแต่งตัวของ สถานะบันต่างๆ",
        "id": "151673691660985",
        "name": "สมาคมเด็กช่างล-ก่อสร้างไทย"
    },
    {
        "id": "868242296546279",
        "name": "ช่างก่อสร้าง61"
    },
    {
        "id": "247790561912270",
        "location": {
            "street": "เทศบาลนครอุดรธานี",
            "zip": "41000"
        },
        "name": "ส่วนควบคุมการก่อสร้าง สำนักการช่าง เทศบาลนครอุดรธานี"
    },
    {
        "id": "1095073693854492",
        "name": "ช่างก่อสร้าง26"
    },
    {
        "about": "รับเหมาก่อสร้าง กระทุ่มแบน สมุทรสาคร",
        "id": "1150781731618453",
        "name": "ช่างวิชาญ รับเหมาก่อสร้าง กระทุ่มแบน สมุทรสาคร"
    },
    {
        "about": "รับสร้าง ต่อเติม แก้ไข และ ซ่อมบำรุง ในเขตอ.วังน้ำเขียวและใกล้เคียง",
        "emails": [
            "piyatas02@gmail.com"
        ],
        "id": "1422445307968521",
        "location": {
            "city": "Nakhon Ratchasima",
            "country": "Thailand",
            "latitude": 14.40916,
            "longitude": 101.8464,
            "street": "39 ม.12 ต.วังน้ำเขียว อ.วังน้ำเขียว",
            "zip": "30370"
        },
        "name": "บ้านเรารับเหมาก่อสร้าง by ช่างอุ๊",
        "phone": "0883745990"
    },
    {
        "about": "ต.ห้วยบง อ.ด่านขุนทด จ.นครราชสีมา",
        "id": "280449222059790",
        "location": {
            "city": "Nakhon Ratchasima",
            "country": "Thailand",
            "zip": "30210"
        },
        "name": "ช่างสมาน รับเหมาก่อสร้าง",
        "phone": "0854315928"
    },
    {
        "id": "401412053387454",
        "name": "ช่างทิม รับเหมาก่อสร้างทุกชนิด"
    },
    {
        "id": "871282416274199",
        "name": "ช่างเลิศเชื่อมท่อพี-อี-และก่อสร้าง"
    },
    {
        "id": "451652551655413",
        "location": {
            "city": "Bangkok",
            "country": "Thailand",
            "street": "วังทองหลาง",
            "zip": "10310"
        },
        "name": "ช่างไฟฟ้า ช่างต่อเติมก่อสร้างบ้าน มีโปรไฟล์ อุ่นใจเมื่อใช้บริการจากเรา",
        "phone": "0919566459"
    },
    {
        "about": "1.รับติดตั้งเหล็กดัด มุ้งลวด สแตนเลส โครงหลังคา กันสาด ประตูเหล็กดัด",
        "id": "502726923130621",
        "location": {
            "city": "Phitsanulok",
            "country": "Thailand",
            "street": "250 ม.4 ต.ท้อแท้ อ.วัดโบสถ์",
            "zip": "65160"
        },
        "name": "ช่างทม รับเหมาก่อสร้าง เหล็กดัดประตูทุกชนิด",
        "phone": "0920346255"
    },
    {
        "about": "ก่อสร้าง",
        "id": "428305927372919",
        "name": "ช่างตรู่งานก่อสร้างต่อเติมไฟฟ้าปูกระเบื้องตีฝ้าหลังคาทุกรูปแบบ"
    },
    {
        "id": "943911225673176",
        "location": {
            "street": "212/"
        },
        "name": "รับเหมาก่อสร้างรับต่อเติมบ้าน  งานเหล็กงานปูน งานไม้โดยช่างมืออาชีพ",
        "phone": "0822081550"
    },
    {
        "id": "1575017259482514",
        "name": "ปวส. ช่างก่อสร้าง"
    },
    {
        "id": "1624840327786344",
        "name": "อุตสาหกรรม ช่างก่อสร้าง"
    },
    {
        "id": "414503792084239",
        "name": "ช่างก่อสร้าง รับเหมา ขยันสร้างจริงๆ"
    },
    {
        "id": "161587344186523",
        "name": "ผู้รับเหมาก่อสร้างและนายช่างโยธาธิการ"
    },
    {
        "id": "1638221403111748",
        "name": "เรียน สาขาช่างก่อสร้าง"
    },
    {
        "id": "312771378878780",
        "location": {
            "city": "Ayutthaya",
            "country": "Thailand",
            "latitude": 14.36573445797,
            "located_in": "181703771885278",
            "longitude": 100.57889521122
        },
        "name": "โรงเรียนช่างก่อสร้างต่อเรือ"
    }
]