[
    {
        "id": "251368428237820",
        "location": {
            "city": "Khonkean",
            "country": "Thailand",
            "latitude": 16.429011111111,
            "longitude": 102.86038555556
        },
        "name": "BT แผนกช่างก่อสร้าง"
    },
    {
        "id": "724146667633061",
        "location": {
            "city": "เชียงใหม่",
            "latitude": 18.7297483,
            "longitude": 99.3031416,
            "street": "บ้านสหกรณ์ แม่ออน"
        },
        "name": "แผนกช่างก่อสร้าง วท.สันกำแพง"
    },
    {
        "id": "817563468274529",
        "location": {
            "city": "Rayong",
            "country": "Thailand",
            "latitude": 12.666982314561,
            "longitude": 101.27165950844,
            "zip": "21000"
        },
        "name": "ช๊อปช่างก่อสร้าง ณ เทคนิคระยอง"
    },
    {
        "id": "454355008028029",
        "location": {
            "city": "Bangkok",
            "country": "Thailand",
            "latitude": 13.946241178873,
            "longitude": 100.53623059567
        },
        "name": "แผนกวิชาช่างก่อสร้างและโยธา Building and Civil Construction Shop"
    },
    {
        "id": "335057310013113",
        "location": {
            "city": "Amphoe Muang Lop Buri",
            "country": "Thailand",
            "latitude": 14.8012616,
            "longitude": 100.6192333
        },
        "name": "แผนกวิชาช่างก่อสร้าง วิทยาลัยเทคนิคลพบุรี"
    },
    {
        "id": "331215577016769",
        "location": {
            "latitude": 13.5762934,
            "longitude": 99.7544023
        },
        "name": "กองร้อยทหารช่างก่อสร้างที่ 3 ช.พัน112ช.1รอ"
    },
    {
        "id": "237331922953894",
        "location": {
            "city": "Huai Yot",
            "country": "Thailand",
            "latitude": 7.7894625,
            "longitude": 99.63174,
            "zip": "92130"
        },
        "name": "แผนกช่างก่อสร้าง วิทยาลัยการอาชีพห้วยยอด"
    },
    {
        "id": "117438441764487",
        "location": {
            "city": "Phrae",
            "country": "Thailand",
            "latitude": 18.135302892886,
            "longitude": 100.13391515944,
            "street": "Song Khwae"
        },
        "name": "อาคารปฏิบัติงานไม้แผนกช่างก่อสร้าง"
    },
    {
        "id": "317706205051291",
        "location": {
            "latitude": 15.14112936,
            "longitude": 103.17965616
        },
        "name": "ห้องเรียน ชส.4 แผนกช่างก่อสร้าง วิทยาลัยเทคนิคบุรีรัมย์"
    },
    {
        "id": "161593757366057",
        "location": {
            "city": "Bang Kaeo",
            "country": "Thailand",
            "latitude": 14.5951823,
            "longitude": 100.4558019
        },
        "name": "ช่างก่อสร้าง-วท.อ่างทอง"
    },
    {
        "id": "1532923313658163",
        "location": {
            "city": "Chiang Mai",
            "country": "Thailand",
            "latitude": 18.5733089,
            "longitude": 98.998441
        },
        "name": "แผนกช่างก่อสร้าง"
    },
    {
        "id": "1506761989539318",
        "location": {
            "city": "Hat Yai",
            "country": "Thailand",
            "latitude": 7.0222716,
            "longitude": 100.490675,
            "zip": "90110"
        },
        "name": "ห้องแล็ป แผนกช่างก่อสร้าง วท.หาดใหญ่"
    },
    {
        "id": "102588706551926",
        "location": {
            "latitude": 14.108966840444,
            "longitude": 100.64369503418
        },
        "name": "โรงเรียนช่างก่อสร้างดุสิต"
    },
    {
        "about": "รับเหมาก่อสร้างทั่วไป ต่อเติม ตกแต่งบ้าน ",
        "description": "รับก่อสร้างทั่วไป งานโครงสร้าง งานสี งานไฟฟ้า ต่อเติม ตกแต่งบ้าน เฟอร์นิเจอร์ สแตนเลสและกระจกอลูมิเนียม เรามีช่างคุณภาพพร้อมทำงาน",
        "emails": [
            "changpeng1968@gmail.com"
        ],
        "id": "1438351276422305",
        "location": {
            "city": "Bangkok",
            "country": "Thailand",
            "latitude": 13.66712,
            "longitude": 100.4504776,
            "street": "พระราม 2 ซอย 42",
            "zip": "10150"
        },
        "name": "รับเหมาก่อสร้าง by ช่างเพ้ง",
        "phone": "0865524695 , 0993210155"
    },
    {
        "id": "363852300410940",
        "location": {
            "city": "ลำพูน",
            "street": "เมือง"
        },
        "name": "ช่างก่อสร้าง ลำพูน"
    },
    {
        "about": "รวมกิจกรรมช่างก่อสร้าง",
        "id": "821209801229666",
        "location": {
            "city": "ตราด",
            "street": "ช่างก่อสร้างตราด",
            "zip": "23000"
        },
        "name": "ช่างก่อสร้างเทคนิดตราดดด",
        "phone": "\u003c\u003cnot-applicable\u003e\u003e"
    },
    {
        "about": "รับเหมาก่อสร้างบ้าน ต่อเติม ทาสี ราคาไม่แพง โดยช่างรับเหมานิสัยดี",
        "description": "รับเหมาก่อสร้าง ต่อเติมบ้าน สร้างบ้าน ลงเข็ม เทพื้น งานโครงสร้าง ปูกระเบื้อง ก่อ ฉาบ งานโครงหลังคา ฝ้า ไฟ ทาสี ทุกอย่างที่เกี่ยวกับ การต่อเติม สร้างบ้าน เรียกใช้ ทีมงานเราครับ  ",
        "emails": [
            "antonioattorney@gmail.com"
        ],
        "id": "1585210348376040",
        "location": {
            "city": "Bangkok",
            "country": "Thailand",
            "latitude": 13.736466952381,
            "longitude": 100.64733982086,
            "street": "327 pattanakarn 53",
            "zip": "10250"
        },
        "name": "ช่างรับเหมาก่อสร้าง ต่อเติม ทาสี รีโนเวทบ้านใหม่ โทร. 081 869 0878",
        "phone": "0818690878"
    },
    {
        "id": "320400748088834",
        "location": {
            "city": "Phuket",
            "country": "Thailand",
            "latitude": 7.981686051148,
            "longitude": 98.363062436587
        },
        "name": "ศาลา ช่างก่อสร้างอุเทนถวาย และ ช่างกลปทุมวัน"
    },
    {
        "id": "341844242578621",
        "location": {
            "city": "Muang Buriram",
            "country": "Thailand",
            "latitude": 14.993063945952,
            "longitude": 103.09905052185
        },
        "name": "แผนกช่างก่อสร้าง วิทยาลัยเทคนิคบุรีรัมย์"
    },
    {
        "id": "367355106718734",
        "location": {
            "city": "Songkhla",
            "country": "Thailand",
            "latitude": 7.2072499992623,
            "longitude": 100.60080000041,
            "street": "CHALATHAT"
        },
        "name": "แผนกช่างก่อสร้าง สถาบันเทคโนโลยีราชมงคล วิทยาเขต ภาคใต้"
    },
    {
        "id": "366730140128558",
        "location": {
            "city": "Yala",
            "country": "Thailand",
            "latitude": 6.5497573972167,
            "longitude": 101.28812206623,
            "zip": "95000"
        },
        "name": "แผนกช่างก่อสร้างวิทยาลัยเทคนิคยะลา"
    },
    {
        "id": "358639887602875",
        "location": {
            "city": "Min Buri",
            "country": "Thailand",
            "latitude": 13.79231084852,
            "longitude": 100.73587060991
        },
        "name": "อาคาร 5 แผนกช่างก่อสร้าง เทคนิคมีนบุรี"
    },
    {
        "id": "354988124608248",
        "location": {
            "city": "Lat Krabang",
            "country": "Thailand",
            "latitude": 13.721836605813,
            "longitude": 100.75515508016,
            "street": "Thanon Lat Krabang"
        },
        "name": "แผนกวิชาช่างก่อสร้าง วิทยาลัยเทคนิคมีนบุรี"
    },
    {
        "about": "สนใจสร้างบ้าน  ต่อเติม งานก่อสร้างทุกชนิดราคากันเอง ติดต่อเราได้ครับ  0931068262 (ช่างหรั่ง)",
        "id": "447455645395985",
        "location": {
            "city": "นครราชสีมา",
            "zip": "30370"
        },
        "name": "ช่างหรั่ง รับเหมาก่อสร้าง",
        "phone": "0931068262"
    },
    {
        "about": "รับเหมาก่อสร้างทั่วไป เช่น สร้างบ้าน สร้างอาคารและอื่นๆ",
        "description": "รับสร้างบ้าน อาคาร ตึกและอื่นๆ\nงานเล็กงานใหญ่รับหมดครับ",
        "emails": [
            "apiwat2514.chin@gmail.com"
        ],
        "id": "834492599926798",
        "location": {
            "city": "Bankok",
            "country": "Thailand",
            "latitude": 13.53437,
            "longitude": 100.23551,
            "street": "Samut Sakhon",
            "zip": "74000"
        },
        "name": "ช่างเชษฐรับเหมาก่อสร้าง",
        "phone": "0896635689"
    }
]