[
    {
        "about": "รับเหมางานก่อสร้างทุกชนิด",
        "id": "750323501653297",
        "location": {
            "city": "Chiang Mai",
            "country": "Thailand",
            "latitude": 18.64278,
            "longitude": 99.03513,
            "street": "35/1 หมู่ 4  ซอย 4 ตำบล อุโมงค์  อำเภอ เมือง",
            "zip": "51150"
        },
        "name": "ช่างหนึ่งรับเหมาก่อสร้างเชียงใหม่-ลำพูน",
        "phone": "0897591363"
    },
    {
        "about": "ชาวก่อสร้างเทคนิคยโสธร มากันเร้ว",
        "id": "110108832392885",
        "name": "ช่างก่อสร้าง วิทยาลัยเทคนิคยโสธร"
    },
    {
        "emails": [
            "kittimakratai22@gmail.com"
        ],
        "id": "452558274904623",
        "location": {
            "city": "Lamphun",
            "country": "Thailand",
            "latitude": 18.5811,
            "longitude": 99.0092,
            "zip": "51180"
        },
        "name": "ช่างมิตรรับเหมาก่อสร้างออกแบบต่อเติมเชียงใหม่ ลำพูน",
        "phone": "0826990425"
    },
    {
        "id": "128644497328194",
        "name": "สมาคมนิยมช่างศิลป์ ช่างกล ช่างก่อสร้าง"
    },
    {
        "about": "ดำเนินกิจกรรมส่งเสริมวิชาการ",
        "id": "489484904512577",
        "location": {
            "city": "Muang Phitsanulok",
            "country": "Thailand",
            "latitude": 16.8333,
            "longitude": 100.25,
            "zip": "ุ65000"
        },
        "name": "ชมรมช่างก่อสร้างน้อย"
    },
    {
        "id": "134663483254005",
        "name": "ช่างควบคุมงานก่อสร้าง"
    },
    {
        "about": "ช่างก่อสร้าง วิทยาลัยเทคนิคตาก ",
        "id": "101105353568583",
        "name": "ช่างก่อสร้าง วิทยาลัยเทคนิคตาก"
    },
    {
        "about": "รับเหมาก่อสร้าง ต่อเติมบ้าน รับสร้างแพ",
        "description": "ช่างพนมรับเหมาก่อสร้าง  บริการรับเหมาก่อสร้าง ตกแต่งต่อเติมบ้าน งานสร้างแพหรือรีสอร์ท งานซ่อมแซมต่างๆ \nยินดีให้คำปรึกษาเรื่องการก่อสร้างทุกรูปแบบเราใส่ใจความต้องการของลูกค้าเป็นหลัก ด้วยประสบการณ์มากกว่า 30 ปี\nและมีทีมงานที่พร้อมปฎิบัติหน้าที่ได้ทันที   งานดี มีคุณภาพ ราคาไม่แพง บริการด้วยใจ",
        "id": "1145330098817428",
        "location": {
            "city": "Amphoe Si Sawat",
            "country": "Thailand",
            "latitude": 14.6892,
            "longitude": 99.0275,
            "street": "53 ม.4 ต.หนองเป็ด",
            "zip": "71250"
        },
        "name": "ช่างพนมรับเหมาก่อสร้าง",
        "phone": "0807743398"
    },
    {
        "about": "ช่างก่อสร้าง",
        "id": "284064348457382",
        "name": "ช่าง ก่อสร้าง"
    },
    {
        "about": "ชมรมศิษย์เก่าช่างก่อสร้างอินทร   \n\nรักดีหามจั่ว รักชั่วหามเสา  ",
        "description": "ชมรมศิษย์เก่าช่างก่อสร้างอินทร \n  \n",
        "emails": [
            "http://www.indara.org"
        ],
        "id": "462393937114047",
        "location": {
            "city": "นนทบุรี",
            "street": "100/234  ซอย 9 หมู่บ้านลานทอง",
            "zip": "11120"
        },
        "name": "ชมรมศิษย์เก่าช่างก่อสร้างอินทร",
        "phone": "\u003c\u003cnot-applicable\u003e\u003e"
    },
    {
        "about": "เรามีความชำนานด้านก่อสร้างและพร้อมให้คำปรึกษา",
        "id": "459865584190785",
        "location": {
            "city": "Hua Hin",
            "country": "Thailand",
            "latitude": 12.4665203,
            "longitude": 99.9732666,
            "street": "21/8 ต.หนองแก อ.หัวหิน จ.ประจวบ",
            "zip": "77110"
        },
        "name": "ช่างเกตุ รับเหมาก่อสร้าง และซ่อมแซมตกแต่งภายใน",
        "phone": "0806609619"
    },
    {
        "about": "รับสร้างบ้าน อาคาร และ ซ่อมแซม ออกแบบ โดยช่างที่มีประสบการณ์ ราคาไม่แพง",
        "emails": [
            "station_q@hotmail.com"
        ],
        "id": "1573183146293594",
        "location": {
            "city": "Hat Yai",
            "country": "Thailand",
            "latitude": 7.0183843894932,
            "longitude": 100.49411712782,
            "street": "9/1 ซ.สุวรรณพงษี ถ.เพชรเกษม ต.หาดใหญ่ อ.หาดใหญ่ จ.สงขลา",
            "zip": "90110"
        },
        "name": "ช่าง - ก่อสร้างและตกแต่งภายใน หาดใหญ่ สงขลา",
        "phone": "0818200580"
    },
    {
        "about": "ขอบพระคุณทุกท่านที่ติดตามพวกเรา กสด ",
        "description": "line id : snkdor50~kakaoTalk id : xoxo2u\nphone number : 001-8210-4756-9870 ADMIN\u003c3\nยินดีต้อนรับด้วยไมตรีจิตคับทุกท่านที่เคราพ \nยินดีต้อนรับนักศึกษาน้องใหม่ทุกคนนะคับ\nยินดีต้อนรับพี่้น้องเพื่อน กสด ทุกคนคับ\n24 มิถุนายังคงมี เพราะผองเพื่อนพี่น้องมาร่วมใจ \nเลขที่ 76 ถ.ระนอง 2 แขวงถนนนครไชยศรี เขตดุสิต กรุงเทพฯ 10300\nโทรศัพท์ : 02-241-0099, 02-241-1317\nโทรสาร : 02-241-3648\nเว็บไซด์ : www.dstc.ac.th\nอีเมล์ dusit@dstc.ac.th / snk_dor50@hotmail.com\none thing which is Union is strength !!!",
        "emails": [
            "peerapong_god@hotmail.com"
        ],
        "id": "392310070880969",
        "location": {
            "city": "New York",
            "country": "United States",
            "latitude": 40.7167,
            "longitude": -74,
            "state": "NY",
            "zip": "56452313265"
        },
        "name": "Dusit con's Blue-yellow ช่างก่อสร้างดุสิต",
        "phone": "01021419121"
    },
    {
        "about": "^^\"",
        "id": "297077693653729",
        "location": {
            "street": "ถนนองค์การบริหารส่วนจังหวัด สาย 2 ตำบลในเมือง อำเภอเมืองชัยภูมิ จังหวัดชัยภูมิ",
            "zip": "36000"
        },
        "name": "ช่างก่อสร้างและโยธา วิทยาลัยเทคนิคชัยภูมิ",
        "phone": "0813752619"
    },
    {
        "about": "รับออกแบบสร้างบ้าน ต่อเติมบ้าน บนที่ดินของท่าน",
        "id": "224027397752389",
        "location": {
            "city": "Bangkok",
            "country": "Thailand",
            "latitude": 12.68189,
            "longitude": 100.92461,
            "street": "60/2ม.4 ต.แสมสาร อ.สัตหีบ จ.ชลบุรี",
            "zip": "20180"
        },
        "name": "รับเหมา ก่อสร้าง ช่างชร",
        "phone": "0908897623"
    },
    {
        "id": "413875045389270",
        "name": "ช่างก่อสร้างวิทยาลัยเทคนิคกระบี่"
    },
    {
        "id": "249453988420992",
        "location": {
            "city": "Bangkok",
            "country": "Thailand",
            "latitude": 13.9152803,
            "longitude": 100.5856171,
            "street": "ถ.ช่างอากาศอุทิศ ดอนเมือง",
            "zip": "10210"
        },
        "name": "กรรณ การช่าง วางท่อประปา รับเหมาก่อสร้าง",
        "phone": "66853226225"
    },
    {
        "id": "185013324909724",
        "name": "ช่างก่อสร้างดุสิต"
    },
    {
        "about": "รับเหมาก่อสร้าง ต่อเติม ในเขต จังหวัด ราชบุรี นครปฐม และ กาญจนบุรี k.สุรัตน์ 086-3466276",
        "emails": [
            "esi.surat@gmail.com"
        ],
        "id": "757645350951319",
        "location": {
            "city": "Ratchaburi",
            "country": "Thailand",
            "latitude": 13.82088,
            "longitude": 99.89023,
            "street": "บ้านโป่ง ราชบุรี",
            "zip": "70110"
        },
        "name": "ช่างสมศักดิ์ รับเหมาก่อสร้าง ต่อเติม ราชบุรีและจังหวัดใกล้เคียง",
        "phone": "0863466276"
    },
    {
        "about": "ความรู้ดี ฝีมือเด่น เน้นคุณธรรม ก้าวนำเทคโนโลยี",
        "description": "จัดการเรียนการสอน ระดับ ปวช. และ ระดับปวส. สาขางานช่างก่อสร้าง สาขางานช่างสำรวจ และสาขางานช่างโยธา",
        "id": "141908159213553",
        "location": {
            "city": "Maha Sarakham",
            "country": "Thailand",
            "street": "460  ถนนนครสวรรค์  ตำบลตลาด  อำเภอเมือง",
            "zip": "44000"
        },
        "name": "ช่างก่อสร้าง เทคนิคมหาสารคาม",
        "phone": "043-711403 ต่อ 123"
    },
    {
        "description": "เพจนี้ เป็นเพจสาธารณะ ใช้เป็นส่วนหนึ่งเพื่อใช้ในการประชาสัมพันธ์  ข่าวสารต่างๆ เรื่องราวต่างๆของพวกเรา ให้เป็นที่ประจักรสู่สาธารณชน ได้รับรู้",
        "id": "214926038649139",
        "location": {
            "street": "425 ถนนสรงประภา แขวงสีกัน เขตดอนเมือง กรุงเทพมหานคร",
            "zip": "10210"
        },
        "name": "ช่างก่อสร้างดอนเมือง"
    },
    {
        "about": "เชียงใหม่สหช่าง รับเหมาก่อสร้าง ออกแบบ ตกแต่ง ต่อเติม รีโนเวท ปรับปรุง  บ้าน อาคาร ",
        "id": "754717251253060",
        "location": {
            "city": "Chiang Mai",
            "country": "Thailand",
            "latitude": 18.82862573,
            "longitude": 98.98822252,
            "street": "6 หัสดิเสวี ซอย 2 ต.ช้างเผือก อ.เมือง",
            "zip": "50300"
        },
        "name": "เชียงใหม่สหช่าง รับเหมาก่อสร้าง ออกแบบ รีโนเวท ปรับปรุง บ้าน อาคาร ครบวงจร",
        "phone": "084-198-9996"
    },
    {
        "id": "183378895136775",
        "name": "ช่างก่อสร้าง วท.สท."
    },
    {
        "id": "375003182590289",
        "name": "ช่างก่อสร้าง เทคนิคหาดใหญ่"
    },
    {
        "description": " ก่อตั้งขึ้นเมื่อวันที่ 1 เมษายน 2480 ชื่อเดิมคือ โรงเรียนช่างไม้อุบลราชธานี รับนักเรียนที่สำเร็จชั้นประถมปีที่ 4 เรียน\nหลักสูตรอาชีวศึกษาชั้นต้น 3 ปี\n\n พ.ศ. 2498 กรมอาชีวศึกษาอนุมัติให้รวมโรงเรียนช่างไม้ ช่างโลหะ และช่างตัดผมเข้าเป็นโรงเรียนเดียวกัน แล้วเปลี่ยนชื่อเป็น โรงเรียนการช่างอุบลราชธานี\n\nพ.ศ. 2514 กรมอาชีวศึกษาอนุมัติให้เปลี่ยนชื่อใหม่เป็น โรงเรียนเทคนิคอุบลราชธานี \n\nพ.ศ. 2519 ได้รับการยกฐานะเป็น วิทยาลัยเทคนิคอุบลราชธานี \n\nปัจจุบันสถาบันการอาชีวศึกษาภาคตะวันออกเฉียงเหนือ 4 สังกัดสำนักงานคณะกรรมการการอาชีวศึกษา กระทรวงศึกษาธิการ \nมีพื้นที่ 84 ไร่ 3 งาน ตั้งอยู่เลขที่ 5 ถนนแจ้งสนิท อำเภอเมืองจังหวัดอุบลราชธานี \nหมายเลขโทรศัพท์ (045) 255047 หมายเลขโทรสาร 261077\n",
        "id": "552209294921866",
        "location": {
            "city": "อุบลราชธานี (Ubon Ratchathani)",
            "street": "5 ถนนแจ้งสนิท",
            "zip": "34000"
        },
        "name": "ช่างก่อสร้าง เทคนิคอุบลฯ"
    }
]