[
    {
        "id": "856423224382790",
        "location": {
            "city": "Phayao",
            "country": "Thailand",
            "latitude": 19.182044584322,
            "longitude": 99.897810844798
        },
        "name": "ออฟฟิต ช่างก่อสร้าง"
    },
    {
        "id": "862169593804693",
        "location": {
            "city": "Lampang",
            "country": "Thailand",
            "latitude": 18.286174413115,
            "longitude": 99.48300730437
        },
        "name": "วิทยาลัยเทคนิคลำปาง แผนกวิชาช่างก่อสร้าง"
    },
    {
        "id": "904914539606184",
        "location": {
            "city": "Pak Thong Chai",
            "country": "Thailand",
            "latitude": 14.673928333333,
            "longitude": 101.97033666667
        },
        "name": "แผนกวิชาช่างก่อสร้างและโยธา วิทยาลัยเทคนิคปักธงชัย"
    },
    {
        "id": "922936651099591",
        "location": {
            "city": "Nakhon Si Thammarat",
            "country": "Thailand",
            "latitude": 8.45305,
            "longitude": 99.96022
        },
        "name": "หน้าแผนก ช่างก่อสร้าง วิทยาลัยเทคนิคนครศรีธรรมราช"
    },
    {
        "id": "1014876255189074",
        "location": {
            "city": "Amphoe Muang Rat Buri",
            "country": "Thailand",
            "latitude": 13.517361716107,
            "longitude": 99.814770169417
        },
        "name": "วิทยาลัยเทคนิคราชบุรี แผนกช่างก่อสร้าง"
    },
    {
        "id": "1016976568314990",
        "location": {
            "city": "Ranong",
            "country": "Thailand",
            "latitude": 9.9890727715436,
            "longitude": 98.646325691183
        },
        "name": "แผนกช่างก่อสร้างที่มีหนุ่มหล่อสาวสวย"
    },
    {
        "id": "1415248098728749",
        "location": {
            "latitude": 16.45378935,
            "longitude": 100.64566855
        },
        "name": "กองช่างก่อสร้างเทศบาลตำบลไทรย้อย"
    },
    {
        "id": "1446896698964135",
        "location": {
            "city": "Saen Tung",
            "country": "Thailand",
            "latitude": 12.371875920968,
            "longitude": 102.39051411879,
            "street": "โค้งตาหวาน"
        },
        "name": "แผนกช่างก่อสร้าง วิทยาลัยเทคนิคตราด เขต2",
        "phone": "0984402823"
    },
    {
        "id": "1475960149290893",
        "location": {
            "city": "Muang Buriram",
            "country": "Thailand",
            "latitude": 14.996962426244,
            "longitude": 103.11705518524
        },
        "name": "แผนกช่างก่อสร้าง วิทยาลัยเทคนิคบุรีรัมย์"
    },
    {
        "id": "1506903262954041",
        "location": {
            "city": "Amphoe Muang Prachin Buri",
            "country": "Thailand",
            "latitude": 14.20709873496,
            "longitude": 101.39492460752
        },
        "name": "แผนกช่างก่อสร้างศูนย์รวมวัยรุ่นหน้าตาดี"
    },
    {
        "id": "628346627203418",
        "location": {
            "city": "Tak",
            "country": "Thailand",
            "latitude": 16.90543221777,
            "longitude": 99.122843714523
        },
        "name": "โรงงานเหนือ ช่างก่อสร้าง"
    },
    {
        "id": "574326039371904",
        "location": {
            "city": "Ubon Ratchathani",
            "country": "Thailand",
            "latitude": 15.2281,
            "longitude": 104.859
        },
        "name": "เเผนกช่างก่อสร้าง-สถาปัตย์วิทยาลัยเทคนิคอุบลราชธานี"
    },
    {
        "id": "578758385514517",
        "location": {
            "latitude": 14.8934743,
            "longitude": 102.1029688
        },
        "name": "ช.พัน.202กองร้อยทหารช่างก่อสร้างที่3 ค่ายสุรธรรมพิทักษ์"
    },
    {
        "id": "597300400295749",
        "location": {
            "latitude": 13.571283441667,
            "longitude": 99.760414392778,
            "street": "ค่ายบุรฉัตร"
        },
        "name": "กองร้อยทหารช่างก่อสร้างที่3 กองพันทหารช่างที่ 111"
    },
    {
        "id": "597445073606753",
        "location": {
            "latitude": 12.1923291,
            "longitude": 102.4679657
        },
        "name": "ห้องเขียนแบบช่างก่อสร้าง"
    },
    {
        "id": "637148763035424",
        "location": {
            "city": "Kuala Lumpur",
            "country": "Malaysia",
            "latitude": 14.048551144078,
            "longitude": 101.37607567012
        },
        "name": "ช่างก่อสร้างเทคนิคปราจีนบุรี ศูนย์รวมวัยรุ่นน่าตาดี"
    },
    {
        "id": "598326223554962",
        "location": {
            "latitude": 13.575632037999,
            "longitude": 99.754816473893
        },
        "name": "กองร้อยทหารช่างก่อสร้างที่ 2  กองพันทหารช่างที่112 กรมทหารช่างที่1"
    },
    {
        "id": "600255466731557",
        "location": {
            "city": "ราชบุรี",
            "latitude": 13.576534302,
            "longitude": 99.755645976
        },
        "name": "กองร้อยทหารช่างก่อสร้างที่๑กองพันทหารช่างที่๑๑๒กรมทหารช่างที่๑รักษาพระองค์"
    },
    {
        "id": "606585202698775",
        "location": {
            "city": "Muang Sara Buri",
            "country": "Thailand",
            "latitude": 14.53471607,
            "longitude": 100.91202436
        },
        "name": "ถิ่นสีน้ำเงิน\" แผนกวิชาช่างก่อสร้าง วิทลัยเทคนิคสระบุรี"
    },
    {
        "about": "รับเหมา ต่อเติม ก่อสร้างทาสี บ้าน ห้องเช่า อพาร์ทเม้นท์",
        "description": "ช่างนันท์ บริการ รับเหมา ต่อเติม ก่อสร้าง ทาสีบ้าน ห้องเช่า อพาร์ทเม้นท์ 085-257-4840,080-638-3945",
        "emails": [
            "nun.city99@gmail.com"
        ],
        "id": "1638938416374003",
        "location": {
            "city": "Bangkok",
            "country": "Thailand",
            "latitude": 13.6649399,
            "longitude": 100.4615326,
            "street": "31/1 ซอย สุภาพงษ1แยก3 ถนน ศรีนครินท์ แขวง หนองบอน เขตประเวศ กทม",
            "zip": "10250"
        },
        "name": "ช่างนันท์ บริการ รับเหมา ต่อเติม ก่อสร้าง ทาสีบ้าน ห้องเช่า อพาร์ทเม้นท์",
        "phone": "0852574840 0806383945"
    },
    {
        "id": "907996099224593",
        "location": {
            "city": "จ.กาญจนบุรี",
            "street": "28ม.2ต.รางสาลี่ อ.ท่าม่วง",
            "zip": "71110"
        },
        "name": "ช่างตั้ม  ก่อสร้าง",
        "phone": "0916109239"
    },
    {
        "id": "1050726698300934",
        "location": {
            "city": "Amphoe Pak Thong Chai",
            "country": "Thailand",
            "latitude": 14.7167,
            "longitude": 102.017,
            "street": "57  หมู่ 8",
            "zip": "30150"
        },
        "name": "ทีมช่างจักษ์ รับเหมาก่อสร้าง ต่อเติม ซ่อมแซม",
        "phone": "0954606754"
    },
    {
        "id": "1638840973055416",
        "name": "ช่างก่อสร้างเออ"
    },
    {
        "id": "1618895965022776",
        "name": "ช่างเขียวรับเหมาก่อสร้าง"
    },
    {
        "id": "1643196932602937",
        "name": "ช่างควบคุมงานก่อสร้างอาวุโส"
    }
]