[
    {
        "id": "141040219428802",
        "location": {
            "city": "Chiang Mai",
            "country": "Thailand",
            "latitude": 18.792250571429,
            "longitude": 98.983179714286
        },
        "name": "แผนกช่างก่อสร้าง"
    },
    {
        "id": "178906872304760",
        "location": {
            "city": "Prachuap Khiri Khan",
            "country": "Thailand",
            "latitude": 11.81134,
            "longitude": 99.79338
        },
        "name": "ช่างก่อสร้าง วิทลัยเทคนิคประจวบ"
    },
    {
        "id": "186829784806857",
        "location": {
            "city": "Bangkok",
            "country": "Thailand",
            "latitude": 13.70430486,
            "longitude": 100.54260107
        },
        "name": "โรงเรียนช่างก่อสร้างดุสิต"
    },
    {
        "id": "190096284435826",
        "location": {
            "latitude": 11.78778,
            "longitude": 99.80703
        },
        "name": "วิทลัยเทคนิคประจวบ \" ช่างก่อสร้าง \""
    },
    {
        "id": "191651480989677",
        "location": {
            "city": "Phuket",
            "country": "Thailand",
            "latitude": 7.895135,
            "longitude": 98.386422
        },
        "name": "แผนกวิชาช่างก่อสร้าง"
    },
    {
        "id": "192911077559145",
        "location": {
            "city": "Muang Chainat",
            "country": "Thailand",
            "latitude": 15.191435134852,
            "longitude": 100.12976991121
        },
        "name": "แผนกช่างก่อสร้าง วิทยาลัยเทคนิคชัยนาท"
    },
    {
        "id": "236939146379746",
        "location": {
            "latitude": 13.5744985,
            "longitude": 99.7426179
        },
        "name": "กองร้อยทหารช่างก่อสร้างที่ 3 กองพันทหารช่างที่ 602"
    },
    {
        "id": "199119406883474",
        "location": {
            "city": "Phrae",
            "country": "Thailand",
            "latitude": 18.137343,
            "longitude": 100.140877,
            "zip": "54000"
        },
        "name": "แผนกช่างก่อสร้าง"
    },
    {
        "id": "203098393207565",
        "location": {
            "city": "Lampang",
            "country": "Thailand",
            "latitude": 18.268851195479,
            "longitude": 99.474000865686,
            "zip": "52100"
        },
        "name": "สมาคามศิษย์เก่าช่างก่อสร้าง อุเทนถวาย ลำปาง"
    },
    {
        "id": "203439886515173",
        "location": {
            "city": "Nan",
            "country": "Thailand",
            "latitude": 18.76163941958,
            "longitude": 100.75747593142
        },
        "name": "บ้านลูกพี่ใหญ่ ช่างก่อสร้าง"
    },
    {
        "description": "แผนกป๋าหลอง",
        "id": "207521362786900",
        "location": {
            "city": "Chantaburi",
            "country": "Thailand",
            "latitude": 12.596985806452,
            "longitude": 102.09934370968
        },
        "name": "หลังแผนกช่างก่อสร้าง เทคนิคจันทบุรี"
    },
    {
        "id": "210658099069666",
        "location": {
            "city": "Ratchaburi",
            "country": "Thailand",
            "latitude": 13.53258851,
            "longitude": 99.80839155,
            "zip": "70000"
        },
        "name": "แผนก : ช่างก่อสร้าง"
    },
    {
        "id": "211252865691170",
        "location": {
            "city": "Trang",
            "country": "Thailand",
            "latitude": 7.51889835,
            "longitude": 99.6288976,
            "street": "Trang",
            "zip": "92000"
        },
        "name": "แผนกวิชาช่างก่อสร้าง วิทยาลัยเทคนิคตรัง"
    },
    {
        "id": "215096271837634",
        "location": {
            "city": "Udon Thani",
            "country": "Thailand",
            "latitude": 17.41411876,
            "longitude": 102.78864556,
            "zip": "41000"
        },
        "name": "แผนกช่างก่อสร้าง"
    },
    {
        "id": "218424384995538",
        "location": {
            "city": "Mae Hong Son",
            "country": "Thailand",
            "latitude": 19.29967,
            "longitude": 97.96573,
            "street": "วิทยาลัยการอาชีพนวมินทราชินีแม ่ฮ่องสอน"
        },
        "name": "ช่างก่อสร้าง"
    },
    {
        "id": "235989603239288",
        "location": {
            "city": "Nakhon Pathom",
            "country": "Thailand",
            "latitude": 13.8129529953,
            "longitude": 100.09902954102
        },
        "name": "วิทยาลัยเทคนิคนครปฐม \"ช่างก่อสร้าง\""
    },
    {
        "id": "731274803578936",
        "location": {
            "city": "ราชบุรี",
            "latitude": 13.5749377,
            "longitude": 99.7539396,
            "street": "ค่ายบุรฉัตร"
        },
        "name": "กองร้อยทหารช่างก่อสร้างที่๓"
    },
    {
        "about": "งานเกี่ยวกับวงการก่อสร้างทุกชนิด",
        "description": "เพจนี้มีไว้สำหรับผู้รับเหมาก่อสร้างและผู้ออกแบบงานก่อสร้างที่ชลบุรี  ได้มีโอกาสโชว์ผลงานแลกเปลี่ยนแนวความคิดซึ่งกันและกัน ยังสามารถติดต่องานกัน  รับสมัครคนงาน หรือ โฆษณา อหังสาริมทรัพย์  ต่างๆรวมทั้งวัสดุก่อสร้างชนิดใหม่ๆ  หรือการทำงานในรูปแบบใหม่ๆ ให้งานก่อสร้างทันสมัย  รวมทั้งสามารถรู้เท่าทัน  เจ้าของโครงการที่  ไม่ยอมจ่ายเงินหรือมีปัญหา  หรือผู้รับเหมาที่ทำงานแล้วทิ้งงานไป  เราจะได้มีข้อมูลต่างๆเหล่านี้พิจารณาในการทำงาน  หรือรับงาน  สำหรับช่างก่อสร้างขนาดเล็ก รับเฉพาะค่าแรงก็สามารถ หางานจากเพจนี้ได้เช่นเดียวกันครับ  เพจนี้ไม่ขอยุ่งเกี่ยวกับการเมืองทุกชนิดนะครับ  เราจะไม่คุยเรื่องการเมืองกันในเพจนี้",
        "emails": [
            "rapassit7241@gmail.com"
        ],
        "id": "641051092607632",
        "location": {
            "city": "จังหวัดชลบุรี"
        },
        "name": "ช่างรับเหมาก่อสร้างและออกแบบชลบุรี"
    },
    {
        "about": "รับเหมาก่อสร้าง ออกแบบตกแต่งภายใน",
        "description": "รับเหมาก่อสร้าง ออกแบบตกแต่งภายใน ภายนอก ออกแบบจัดสวน ต่อเติมครัว โรงรถ หลังคาโครงเหล็ก Construction Interior Design Home Improvement  เบอร์โทรติดต่อ ลั่นฟ้า ( ลูกชายช่างนุกูล ) 0818185112",
        "emails": [
            "lanfae46@gmail.com"
        ],
        "id": "100102663495930",
        "location": {
            "city": "Bangkok",
            "country": "Thailand",
            "latitude": 13.802611311012,
            "longitude": 100.72625758414,
            "street": "หมู่บ้านรินทร์ทอง ถนนรามคำแหง",
            "zip": "10540"
        },
        "name": "ช่างนุกูลรับเหมาก่อสร้างออกแบบตกแต่งภายใน",
        "phone": "0818185112"
    },
    {
        "about": "ช่างก่อสร้างแห่งประเทศไทย\nBuilding Construction Engineer Civil.\nสภาเด็กช่างก่อสร้าง",
        "description": "จะใครก็ช่างร้อยพ่อพันแม่ แต่ที่แน่ๆถ้าร่วมเพจกันแล้วเราจะมีพ่อองค์เดียวกันคือ พระวิษณุกรรม",
        "id": "521772311180719",
        "location": {
            "city": "ปราจีนบุรี",
            "street": "happy_tow_@hotmail.com",
            "zip": "25000"
        },
        "name": "ช่างก่อสร้างแห่งประเทศไทย",
        "phone": "0890967818"
    },
    {
        "about": "ขอต้อนรับทุกท่านด้วยไมตรีจิต",
        "description": "โรงเรียนช่างก่อสร้างดุสิต ตั้งอยู่เลขที่ 76 ซอยระนอง 2 \nโทรศัพท์ 02-241-1317  เปิดสอนทั้งหมด 5 สาขา วิชาดังนี้ \n-ช่างก่อสร้าง \n-ช่างสำรวจ \n-ช่างโยธา \n-ช่างเทคนิคสถาปัต \nและช่างเคหะภัณฑ์ \nเปิดสอนระดับ ปวช. และปวส. ภาคปกติ\nรถประจำทางที่ผ่าน 5 44 50 51 70 90 117 และรถไฟ",
        "id": "175164209161253",
        "name": "โรงเรียนช่างก่อสร้างดุสิต"
    },
    {
        "about": "ร้านค้าส่ง-ปลีก อุปกรณ์ก่อสร้าง ตกแต่ง ต่อเติมบ้าน ราคาถูก",
        "description": "\u003cscript\u003e\n  (function(i,s,o,g,r,a,m){i['GoogleAnalyticsObject']=r;i[r]=i[r]||function(){\n  (i[r].q=i[r].q||[]).push(arguments)},i[r].l=1*new Date();a=s.createElement(o),\n  m=s.getElementsByTagName(o)[0];a.async=1;a.src=g;m.parentNode.insertBefore(a,m)\n  })(window,document,'script','//www.google-analytics.com/analytics.js','ga');\n\n  ga('create', 'UA-55293412-1', 'auto');\n  ga('send', 'pageview');\n\n\u003c/script\u003e",
        "id": "551077735039121",
        "location": {
            "city": "Ubon Ratchathani",
            "country": "Thailand",
            "latitude": 15.234884253505,
            "longitude": 104.86976537948,
            "street": "ตลาด 5",
            "zip": "34000"
        },
        "name": "ศูนย์รวมวัสดุก่อสร้าง เครื่องมือช่าง ไฟฟ้า สี ประปา ราคาถูก Save House",
        "phone": "045317464"
    },
    {
        "about": "รับเหมาก่อสร้าง",
        "description": "รับเหมาก่อสร้าง ต่อเติม ซ่อมแซมบ้าน ราคาเป็นกันเอง\nประสบการณ์ช่างมากกว่า 30 ปี \nติดต่อ ช่างแอ็ด 088-934-5466, 081-455-1955\nต.ไร่ขิง อ.สามพราน จ.นครปฐม",
        "emails": [
            "drummer_kaw@hotmail.com"
        ],
        "id": "173488452735776",
        "location": {
            "street": "ต.ไร่ขิง อ.สามพราน จ.นครปฐม"
        },
        "name": "ช่างแอ๊ด รับเหมาก่อสร้าง",
        "phone": " 088-934-5466, 081-455-1955"
    },
    {
        "id": "470984599592993",
        "location": {
            "city": "Pathum Thani",
            "country": "Thailand",
            "street": "79หมู่5ต.บ้านกลาง อ.เมือง",
            "zip": "12000"
        },
        "name": "ช่างก่อสร้างปทุมธานี"
    },
    {
        "about": "รับตกแต่งภายใน และบริหารโครงการ",
        "description": "ประเมินราคา ทีมช่างตกแต่งภายใน รับทำ กั้นห้องโครงไม้ โครงเหล็ก โครงสังกะสี กรุวัสดุต่างๆ ไม้อัด ไม้MDF ปิดทับด้วยลามิเนต หรือโฟไมก้า Laminate Formica งานพื้น งานปูพื้นไม้จริง พื้นไม้ปาเก้เข้าลิ้น รับ ขัด ทาเคลือบยูริเทน  ปูกระเบื้อง ฝ้ายิปซั่ม ฝ้าหลุม ฝ้าไม้ คิ้ว บัว ทำสีไม้ธรรมชาติ  ไฟฟ้า ติดโคมดาวน์ไลท์ โคมแสงสว่าง โคมประดับตกแต่ง โคมกลางห้อง โคมไฟระย้า หลอด Fluorescent หลอดT5  เดินสาย วางท่อ ติดตั้งสวิทช์ ติดตั้งปลั๊ก สายทีวี งานระบบ กรุผนัง งานไม้ งานกระจก งานอลูมิเนียม งานปิดผิวไม้วีเนียร์ Veneer งานปิดผิวโฟเมก้า Formica   เฟอร์นิเจอร์บิวท์อิน เฟอร์นิเจอร์ลอยตัว จัดเข้าชุด จัดบรรยากาศภายใน ตามความชอบ รสนิยม  งบประมาณ และรับออกแบบ ดูแล งานทำป้ายโฆษณา ป้ายหน้าหมู่บ้าน ป้ายBillboard โครงป้ายต่างๆ จัดบูธ งานโครงการ  Construction Interior  Home Improvement Contractor Sign advertising Design เบอร์โทรติดต่อ วสันต์ 0840421318,0852334242 meartprobuilt@gmail.com www.meartprobuilt.com\nและผลงานล่าสุด http://www.facebook.com/changtoktang \n\n\nผมเป็นผู้รับเหมารายย่อย ผมขอฝากช่วยดูงานที่เกี่ยวข้องกับ ทีมตกแต่งภายใน  ผมรับ ประเมินราคา รับทำ ตกแต่งภายใน ก่อสร้าง กั้นห้อง กรุผนัง ฝ้าไม้ ฝ้าหลุม ฝ้ายิปซั่ม พื้นไม้จริง ไม้แดง ไม้สัก ไม้มะค่า บันได ราวบันได  พื้นปาเก้ พื้นปูนขัดมัน ทาเคลือบผิว ปูนสี Earth Color พื้นลามิเนต ไฟฟ้า น้ำดี น้ำทิ้ง และเฟอร์นิเจอร์บิวท์อิน ตู้เสื้อผ้า ตู้กรุผนัง ตู้เคาน์เตอร์ ชุดครัว บ้าน โรงแรม คอนโดมิเนียม สำนักงาน ร้านค้า ร้านกาแฟ มีแบบแล้วหรือยังไม่มีแบบก็ติดต่อมาได้นะครับ\nขอแสดงความนับถือ\nนายวสันต์ 084-0421318,085-2334242 www.meartprobuilt.com\nและผลงานล่าสุดhttp://www.facebook.com/changtoktang\n",
        "emails": [
            "meartprobuilt@gmail.com"
        ],
        "id": "109951212381266",
        "location": {
            "city": "กรุงเทพ นนทบุรี",
            "zip": "11140"
        },
        "name": "ช่างรับเหมาก่อสร้างตกแต่งภายใน",
        "phone": "084-0421318, 099-0952095"
    }
]