[
    {
        "id": "276173282546146",
        "name": "แผนกวิชาช่างก่อสร้างโยธา วท.ชร."
    },
    {
        "id": "951433078255007",
        "name": "สาขาช่างก่อสร้างและตกแต่งภายใน"
    },
    {
        "id": "416771201861044",
        "name": "Electric Power ช่างก่อสร้าง"
    },
    {
        "id": "629818543782577",
        "name": "แผนกวิชาช่างก่อสร้าง เทคนิคชัยภูมิ"
    },
    {
        "id": "138081093200912",
        "name": "สาขาวิชา ช่างก่อสร้าง รุ่นที่ 2"
    },
    {
        "id": "1618009681814289",
        "name": "สาขาวิชาช่างก่อสร้าง  รุ่นที่ 17"
    },
    {
        "id": "142212166129687",
        "name": "วิทยาลัยเทคนิคนครปฐม(ช่างก่อสร้าง)"
    },
    {
        "id": "824265751020751",
        "name": "สาขาวิชา  ช่างก่อสร้าง"
    },
    {
        "about": "เพื่อชาติ เพื่อประเทศไทย เพื่อในหลวง เพื่อพ่อแม่",
        "id": "292157680822669",
        "name": "สมาคมเด็กช่างก่อสร้าง"
    },
    {
        "id": "524863061023034",
        "name": "เคยครับ เผนกช่างก่อสร้าง"
    },
    {
        "id": "155688667944609",
        "name": "วิทยาลัยเทคนิคหนองคาย ช่างก่อสร้าง"
    },
    {
        "id": "205397586141716",
        "name": "แผนกวิชาช่างก่อสร้าง"
    },
    {
        "about": "รับเหมา ต่อเติม ติดต่อ0892634453",
        "description": "รับเหมาก่อสร้าง ต่อเติมบ้าน",
        "id": "408309199343233",
        "location": {
            "city": "Lampang",
            "country": "Thailand",
            "latitude": 18.269780236875,
            "longitude": 99.454382476567,
            "zip": "52100"
        },
        "name": "ช่าง ผล รับเหมาก่อสร้าง ต่อเติมบ้าน",
        "phone": "0892634453"
    },
    {
        "about": "ให้คำปรึกษาในการสร้างบ้าน รับเหมาต่อเติม ปรับปรุง ให้บริการงานก่อสร้างครบวงจร",
        "description": "ทีมช่างผู้มีประสบการณ์ ได้รับความไว้วางใจเป็นหนึ่งในทีมงาน Home Pro อยุธยา เรามีทีมให้คำปรึกษาตั้งแต่เขียนแบบบ้าน ยื่นกู้แบงค์ ออกแบบตกแต่งภายใน งานสี งานไม้ งานเหล็ก งานกระเบื้อง งานต่อเติม สระว่ายน้ำ โบสถ์ หอพัก หมู่บ้าน\n\nนอกจากทีมช่างฝีมือดี เรายังมีสินค้าคุณภาพราคากันเองจากร้านมิตรเจริญอยุธยาวัสดุก่อสร้าง ส่งตรงให้ถึงบ้านของท่าน พร้อมบริการด้วยใจไม่ทิ้งงาน สนใจติดต่อทีมงานช่างดี 091-379-8881\n\n",
        "id": "398314256940326",
        "location": {
            "city": "Ayutthaya",
            "country": "Thailand",
            "latitude": 14.34342,
            "longitude": 100.56622,
            "street": "ช่างก่อสร้างครบวงจร อยุธยา",
            "zip": "13000"
        },
        "name": "ช่างดี ดูแลบ้านคุณด้วยใจไม่ทิ้งงาน",
        "phone": "0913798881, 0802141941"
    },
    {
        "id": "402893239862935",
        "location": {
            "city": "Prachin",
            "country": "Thailand",
            "latitude": 14.04852485,
            "longitude": 101.37614197,
            "street": "แผนกช่างก่อสร้างเทคนิคปราจีนบุรี"
        },
        "name": "ร่มโพธิ์ร่มไทร จุดสงบจิตใจ หลังแผนกช่างก่อสร้าง"
    },
    {
        "id": "403089519857624",
        "location": {
            "city": "Phitsanulok",
            "country": "Thailand",
            "latitude": 16.811412,
            "longitude": 100.2714503
        },
        "name": "แผนกช่างก่อสร้าง เทคนิคพิษณุโลก"
    },
    {
        "id": "403598949742524",
        "location": {
            "city": "Chacherngsao",
            "country": "Thailand",
            "latitude": 13.69131950386,
            "longitude": 101.08016192349
        },
        "name": "ช็อปช่างก่อสร้างเทคนิคแปดริ้ว"
    },
    {
        "id": "412801402156744",
        "location": {
            "latitude": 19.749525988839,
            "longitude": 99.138971021035
        },
        "name": "บจ.ช่างอนันต์ รับเหมาก่อสร้าง"
    },
    {
        "id": "415013828601125",
        "location": {
            "city": "Bangkok",
            "country": "Thailand",
            "latitude": 13.602737,
            "longitude": 100.322584
        },
        "name": "รวมช่างก่อสร้างทุกประเภท"
    },
    {
        "id": "415173078676503",
        "location": {
            "city": "Yala",
            "country": "Thailand",
            "latitude": 6.54278,
            "longitude": 101.284,
            "zip": "95000"
        },
        "name": "แผนกช่างก่อสร้าง วิทยาลัยเทคนิคยะลา"
    },
    {
        "id": "418096034972581",
        "location": {
            "city": "Yala",
            "country": "Thailand",
            "latitude": 6.550612,
            "longitude": 101.283932
        },
        "name": "แผนกช่างก่อสร้าง เทคนิคยะลา"
    },
    {
        "id": "418122265059048",
        "location": {
            "city": "Kanchanaburi",
            "country": "Thailand",
            "latitude": 14.0244678,
            "longitude": 99.5329798,
            "street": "ซอยกรุงศรี",
            "zip": "7100000"
        },
        "name": "ห้องนอนสาวช่างก่อสร้าง ที่มีสีฟ้าทั้งห้อง"
    },
    {
        "id": "419645198147947",
        "location": {
            "city": "Phra Phutthabat",
            "country": "Thailand",
            "latitude": 14.724139,
            "longitude": 100.7995205
        },
        "name": "แผนกช่างก่อสร้าง"
    },
    {
        "id": "345950282148683",
        "location": {
            "city": "Chiang Rai",
            "country": "Thailand",
            "latitude": 19.903200860154,
            "longitude": 99.826179267932
        },
        "name": "คณะศึกษาวิชาช่างก่อสร้าง+โยธา"
    },
    {
        "id": "321193504693181",
        "location": {
            "city": "Bangkok",
            "country": "Thailand",
            "latitude": 13.789725263158,
            "longitude": 100.38901842105
        },
        "name": "โรงเรียนช่างก่อสร้าง"
    }
]