[
    {
        "description": "รับเหมาต่อเติมทุกชนิด ในเขตกรุงเทพฯ ,ปริมณฑล , และต่างจังหวัด งานฝ้า,ฉาบเรียบ,ฝ้าทีบาร์,งานเหล็ก,งานหลังคา,งานประตูม้วน,งานกันสาด,และต่อเติมทั่วไป โดยช่างฝีมือมีคุณภาพ ราคาย่อมเยา",
        "general_info": "225 หมู่บ้านสินทวีกรีนวิลล์ 2 ต.บ้านคลองสวน อ.พระสมุทรเจดีย์ จ.สมุทรปราการ 10290 \nสอบถามข้อมูลเพิ่มเติม โทร 082-200-9317 (เพชร)และ 086-942-8704 (เก๋)",
        "id": "1019644984730584",
        "name": "รับเหมาก่อสร้าง by ช่างเพชร",
        "phone": "082-200-9317 "
    },
    {
        "about": "วิทยาลัยเทคนิคนครราชสีมา",
        "id": "253736164778629",
        "location": {
            "city": "โคราช",
            "street": "นครราชสีมา",
            "zip": "30000"
        },
        "name": "ช.ส ช่างก่อสร้าง   โคราช"
    },
    {
        "id": "1420730798186128",
        "name": "ช่าง ก่อสร้าง"
    },
    {
        "about": "เพจนี้ สำหรับแนะนำ\nพี่ น้อง เราชาวช่างก่อสร้าง \nฝากรูปมาได้ @รำพึง รำพัน",
        "id": "400363800113114",
        "name": "ช่างก่อสร้าง วท.บร."
    },
    {
        "about": "ช่างก่อสร้างเชียงใหม่ มืออาชีพ ไม่ทิ้งงาน ราคาไม่เเพงฃ\n086-9126463,090-3208869",
        "id": "1610523772516634",
        "location": {
            "city": "Chiang Mai",
            "country": "Thailand",
            "latitude": 18.7883224,
            "longitude": 98.9618912,
            "street": "27 ถนนสนามบินเก่า ต สุเทพ",
            "zip": "50000"
        },
        "name": "ช่างก่อสร้างเชียงใหม่ มืออาชีพ ไม่ทิ้งงาน ราคาไม่เเพง",
        "phone": "0869126463"
    },
    {
        "about": "หน้าสนามกีฬาราชนาวีสัตหีบ กม.5",
        "id": "149030935292148",
        "location": {
            "city": "Ban Sattahip",
            "country": "Thailand",
            "latitude": 12.68189,
            "longitude": 100.92461,
            "street": "114/314-317 ตำลพลูตาหลวง",
            "zip": "20180"
        },
        "name": "ร้านกิตติฮาร์ดแวร์ จำหน่ายวัสดุก่อสร้าง เหล็ก ไฟฟ้า ประปา สี เครื่องมือช่าง",
        "phone": "038247376"
    },
    {
        "about": "แชร์ ข่าวสารและกิจกรรม และวิทยาการณ์ ให้แก่ผู้ที่สนใจ",
        "id": "945728725484401",
        "location": {
            "city": "แขวงหนองแขม เขตหนองแขม กรุงเทพ",
            "street": "101",
            "zip": "10160"
        },
        "name": "ช่างก่อสร้าง อุตสาหกรรมหมู่บ้านครู - ชกอ"
    },
    {
        "emails": [
            "krc.consul@gmail.com"
        ],
        "id": "776337992465373",
        "location": {
            "zip": "90000"
        },
        "name": "สำนักงานควบคุมการก่อสร้างโครงการพัฒนาเมืองในพื้นที่ชุมชนเขารูปช้าง"
    },
    {
        "about": "รับเหมาก่อสร้างบ้าน อาคาร วางผังปักหมุดตอกเสาเข็ม ต่อเติมโครงหลังคา",
        "id": "711019085684777",
        "location": {
            "city": "Pathum Thani",
            "country": "Thailand",
            "latitude": 14.019345,
            "longitude": 100.53432,
            "zip": "12000"
        },
        "name": "รับเหมาก่อสร้าง ต่อเติม บ้าน อาคาร  - ช่างมอส 081 769 0188",
        "phone": "0817690178"
    },
    {
        "about": "รับสร้างบ้านคุณภาพ, ก่อสร้างอาคารทั่วไป โดยวิศวกรโยธา",
        "id": "639552132831000",
        "location": {
            "city": "Amphoe Muang Suphan Buri",
            "country": "Thailand",
            "latitude": 14.48069,
            "longitude": 100.13099,
            "street": "ต.โพธิ์พระยา อ.เมืองฯ จ.สุพรรรณบุรี",
            "zip": "72000"
        },
        "name": "ช่างบอล รับสร้างบ้านคุณภาพ, ก่อสร้างทั่วไป",
        "phone": "0875908187"
    },
    {
        "id": "299473256808873",
        "name": "ชุมนุมช่างก่อสร้างบางปู"
    },
    {
        "id": "1493777004249631",
        "name": "ช่างก่อสร้าง รหัส 3701052 ห้อง ๒"
    },
    {
        "about": "ติดตั้งกระเบื้อง หิน ซ่อมแซมที่อยู่อาศัยขอให้บอก",
        "description": "ใครเป็นช่างเข้ามาแลกเปลี่ยนเทคนิคข้อมูลวิธีการทำงาน เพื่อพัฒนาฝีมือช่างของเราได้",
        "emails": [
            "sanmeung@outlook.com"
        ],
        "id": "834596833257416",
        "name": "ช่างก่อสร้าง",
        "phone": "0818142023"
    },
    {
        "id": "192530037446232",
        "name": "ช่างก่อสร้างโยธา"
    },
    {
        "id": "1515916565357090",
        "name": "รับเหมาก่อสร้างทั่วไป โดยทีมงานช่างต้อย",
        "phone": "0857409129"
    },
    {
        "id": "485646804943312",
        "name": "ช่าง.ก่อสร้าง 76"
    },
    {
        "id": "785775834854381",
        "name": "ช่าง ก่อสร้าง 78"
    },
    {
        "id": "1614917648776147",
        "name": "ช่างก่อสร้าง กลุ่ม3-4"
    },
    {
        "description": "เชิญลงผลงานการก่อสร้างทุกประเภทงาน ชื่อ เบอร์โทร เพื่อให้ผู้สนใจสามารถติดต่อได้ง่ายนะครับ",
        "id": "1107553195937650",
        "location": {
            "city": "Nakhon Sawan",
            "country": "Thailand",
            "latitude": 15.7133,
            "longitude": 100.135,
            "street": "อ.เมืองนครสวรรค์",
            "zip": "60000"
        },
        "name": "ศูนย์รวมช่างก่อสร้าง นครสวรรค์",
        "phone": "0922531974"
    },
    {
        "about": "รับเหมาก่อสร้าง. โดยหจก.เครือรุ่งโรจน์(ช่างเอ็ม) โทร 086-1667957 086-3301583",
        "description": "รับสร้างบ้าน อาคาร โรงงาน ออกแบบบ้าน เขียนแบบแปลนบ้านโดยวิศวกร",
        "emails": [
            "krr-c@hotmail.com"
        ],
        "id": "546734448827173",
        "location": {
            "city": "จ.ราชบุรี",
            "street": "123/1 ม.3 ต.ดอนตะโก อ.เมือง",
            "zip": "70000"
        },
        "name": "รับเหมาก่อสร้างราชบุรี บ้าน อาคาร โรงงาน ต่อเติม เขียนแบบ ออกแบบ ช่างเอ็ม",
        "phone": "0861667957"
    },
    {
        "about": "รับเหมาสร้างบ้าน ต่อเติม ตกแต่ง โดยช่างที่ชำนาญการ",
        "id": "464439463718791",
        "location": {
            "city": "Chumphon",
            "country": "Thailand",
            "latitude": 10.5045204,
            "longitude": 99.1867905,
            "street": "ชุมพร",
            "zip": "86120"
        },
        "name": "รับเหมาก่อสร้างต่อเติมบ้านโดย ช่างนก - ชุมพร",
        "phone": "0897289284"
    },
    {
        "id": "1478782315779232",
        "name": "ช่าง.ก่อสร้าง 22ปี"
    },
    {
        "about": "ราคากันเอง รับประกันงานทุกชิ้น",
        "id": "515628575262293",
        "location": {
            "city": "เมืองระยอง",
            "street": "ระยอง",
            "zip": "21000"
        },
        "name": "ช่างก้าน รับเหมา ก่อสร้าง/ต่อเติม",
        "phone": "0811561263"
    },
    {
        "id": "189987204522876",
        "name": "แผนกวิชาช่างก่อสร้าง, แผนกวิชาโยธา  วิทยาลัยเทคนิคยโสธร"
    },
    {
        "emails": [
            "thesun_ut63@gmail.com"
        ],
        "id": "1458689347711479",
        "location": {
            "city": "อำเภอเมือง จังหวัดสกลนคร",
            "street": "คุณนิวัฒน์ อภัยจิตร 1410/3 ถนนกำจัดภัย",
            "zip": "47000"
        },
        "name": "ชมรมศิษย์เก่าโรงเรียนช่างก่อสร้างอุเทนถวาย สกลนคร",
        "phone": "0810603538"
    }
]