[
    {
        "id": "132755643470864",
        "location": {
            "city": "Bangkok",
            "country": "Thailand",
            "latitude": 13.78582,
            "longitude": 100.5310211,
            "street": "76 ระนอง 2",
            "zip": "10300"
        },
        "name": "โรงเรียนช่างก่อสร้างดุสิต ( ก.ส.ด. )",
        "phone": "0891174397"
    },
    {
        "id": "514236055262235",
        "location": {
            "city": "Suphan Buri",
            "country": "Thailand",
            "latitude": 14.472265382265,
            "longitude": 100.11296358089,
            "zip": "72000"
        },
        "name": "แผนกช่างก่อสร้าง-โยธา วิทยาลัยเทคนิคสุพรรณบุรี"
    },
    {
        "id": "665787180114093",
        "location": {
            "city": "Bangkok",
            "country": "Thailand",
            "latitude": 13.741737088581,
            "longitude": 100.53090757058,
            "street": "225 ถนนพญาไท เขตปทุมวัน",
            "zip": "10330"
        },
        "name": "โรงเรียนช่างก่อสร้างอุเทนถวาย"
    },
    {
        "id": "197020197063115",
        "location": {
            "city": "Muang Sara Buri",
            "country": "Thailand",
            "latitude": 14.534785557466,
            "longitude": 100.91163860897,
            "zip": "18000"
        },
        "name": "แผนกช่างก่อสร้าง วิทยาลัยเทคนิคสระบุรี"
    },
    {
        "about": "www.76ranong2.org",
        "id": "196896013673253",
        "location": {
            "city": "Bangkok",
            "country": "Thailand",
            "latitude": 13.78582,
            "longitude": 100.5310211,
            "street": "76 ถนนระนอง2",
            "zip": "10300"
        },
        "name": "ช่างก่อสร้างดุสิต"
    },
    {
        "about": "ข้อมูล/ ข่าวสาร/ ช่างก่อสร้าง วิทยาลัยเทคนิคปราจีนบุรี",
        "description": "ปี 2481 โรงเรียนที่เป็นแหล่งกำเนิดวิทยาลัยเทคนิคปราจีนบุรี ทั้ง 2 โรงเรียน คือ โรงเรียนช่างไม้ปราจีนและโรงเรียนช่างทอและตัดเย็บ โรงเรียนรวมกันเมื่อปี 2510 และให้ชื่อโรงเรียน ว่า โรงเรียนการช่างปราจีนบุรี ขณะนั้น อาจารย์ใหญ่ฝ่ายการช่างปราจีนคือท่านอาจารย์ เฉลิม สมบัติทวี และอาจารย์ใหญ่ฝ่ายการช่างสตรี คือท่านอาจารย์อัฐธีตา อุณหเลขกะ กรมอาชีวศึกษาได้มอบหมายให้ ท่านอาจารย์ เฉลิม สมบัติทวี เป็นอาจารย์ใหญ่\n\n    ฝ่ายการช่างสตรี สมัยที่จัดการเรียนการสอน มศ.4 ถึง มศ.6 นั้น เมื่อนักเรียนอยู่ มศ.6 จะแยกเรียนตามความถนัดเป็น 2 สาขาวิชา ได้แก่ แผนกผ้าและเครื่องแต่งกาย แผนกอาหารและโภชนาการ ขณะเรียน มศ.4,5 ทุกคนจะได้เรียนเหมือนกันหมดทุกวิชา ซึ่งก็จะมีทั้งเรียนตัดเย็บเสื้อผ้า และการเรียนวิชาอาหารและโภชนาการ\n\n    สำหรับนักเรียนช่างชายนั้นเรียนวิชาช่างก่อสร้างสาขาเดียว จึงไม่มีปัญหาอะไร เมื่อขึ้น มศ.6(เฉพาะของการช่างสตรี เมื่อขึ้น มศ.6 ครูจะต้องพยายามชี้ให้ความสำคัญของการเรียนวิชาผ้าและเครื่องแต่งกายเพื่อการเฉลี่ยนักเรียน มศ.6 ให้มีจำนวนเท่า ๆ กันทั้งแผนกผ้าและแผนกอาหาร)",
        "id": "133307123501032",
        "location": {
            "city": "Prachin Buri",
            "country": "Thailand",
            "latitude": 14.047632398556,
            "longitude": 101.37636179176,
            "zip": "25000"
        },
        "name": "ช่างก่อสร้าง ปราจีนบุรี"
    },
    {
        "id": "315406288577850",
        "location": {
            "city": "Rayong",
            "country": "Thailand",
            "latitude": 12.667034082565,
            "longitude": 101.27176040737,
            "street": "วิทยาลัยเทคนิคระยอง",
            "zip": "21000"
        },
        "name": "แผนกช่างก่อสร้าง เทคนิคระยอง"
    },
    {
        "id": "1542517339326499",
        "location": {
            "city": "Nakhon Nayok",
            "country": "Thailand",
            "latitude": 14.204891436667,
            "longitude": 101.206125605
        },
        "name": "ช่างก่อสร้าง เทคนิคนครนายก"
    },
    {
        "id": "225751727547735",
        "location": {
            "city": "Muang Roi Et",
            "country": "Thailand",
            "latitude": 16.051572120629,
            "longitude": 103.65668408663,
            "zip": "45000"
        },
        "name": "แผนกช่างก่อสร้าง  วิทยาลัยเทคนิคร้อยเอ็ด"
    },
    {
        "id": "272498769544096",
        "location": {
            "city": "Kanchanaburi",
            "country": "Thailand",
            "latitude": 14.030040554172,
            "located_in": "179137542128445",
            "longitude": 99.547391905068,
            "zip": "71000"
        },
        "name": "แผนกช่างก่อสร้าง วิทยาลัยเทคนิคกาญจนบุรี"
    },
    {
        "id": "164946667022483",
        "location": {
            "city": "Nakhon Ratchasima",
            "country": "Thailand",
            "latitude": 14.986748649486,
            "longitude": 102.11816096208
        },
        "name": "แผนกช่างก่อสร้าง เทคโนราชมงคล โคราช"
    },
    {
        "id": "146070005551946",
        "location": {
            "city": "Muang Roi Et",
            "country": "Thailand",
            "latitude": 16.0513947,
            "longitude": 103.6566582
        },
        "name": "ห้องเขียนแบบแผนกช่างก่อสร้าง"
    },
    {
        "id": "167966810031367",
        "location": {
            "city": "Nakhon Sawan",
            "country": "Thailand",
            "latitude": 15.690197,
            "longitude": 100.117032
        },
        "name": "วิทยาลัยอาชีวศึกษานครสวรรค์ แผนกช่างก่อสร้าง"
    },
    {
        "id": "170555383055804",
        "location": {
            "city": "Yasothon",
            "country": "Thailand",
            "latitude": 15.814424995208,
            "longitude": 104.12791146405,
            "zip": "35000"
        },
        "name": "ห้องเขียนแบบ แผนกช่างก่อสร้าง"
    },
    {
        "id": "172043409636101",
        "location": {
            "latitude": 8.1502839345511,
            "longitude": 98.930774331093
        },
        "name": "วิทยาลัยเทคนิคกระบี่หน้่า แผนก ช่างก่อสร้าง"
    },
    {
        "id": "172789089490791",
        "location": {
            "city": "Surat Thani",
            "country": "Thailand",
            "latitude": 9.1358286462302,
            "longitude": 99.33019498989,
            "zip": "84000"
        },
        "name": "แผนกช่างก่อสร้าง"
    },
    {
        "id": "173279009446512",
        "location": {
            "city": "Bangkok",
            "country": "Thailand",
            "latitude": 13.7415709,
            "longitude": 100.5320758
        },
        "name": "ห้องปฏิบัติการวิศวกรรมปฐพี โรงเรียนช่างก่อสร้างอุเทนถวาย"
    },
    {
        "id": "174641006033165",
        "location": {
            "city": "Nakhon Pathom",
            "country": "Thailand",
            "latitude": 13.814742282295,
            "longitude": 100.09951848891
        },
        "name": "แผนกวิชา ช่างก่อสร้าง วิทยาลัยเทคนิคนครปฐม"
    },
    {
        "id": "163895687086309",
        "location": {
            "latitude": 10.534122085658,
            "longitude": 99.290528955411
        },
        "name": "แผนกช่างก่อสร้างเทคนิคชุมพร"
    },
    {
        "id": "158211467848518",
        "location": {
            "city": "Amphoe Muang Nam",
            "country": "Thailand",
            "latitude": 18.8031061,
            "longitude": 100.7865259,
            "street": "39/1",
            "zip": "55000"
        },
        "name": "แผนกวิชาช่างก่อสร้าง Rmutl.nan"
    },
    {
        "id": "157588807654338",
        "location": {
            "city": "Uthai Thani",
            "country": "Thailand",
            "latitude": 15.366297,
            "longitude": 100.045496,
            "zip": "61000"
        },
        "name": "ห้องน้ำช่างก่อสร้าง วท อุทัยธานี"
    },
    {
        "id": "153154011692536",
        "location": {
            "city": "Muang Pitsanulok",
            "country": "Thailand",
            "latitude": 16.8333,
            "longitude": 100.25
        },
        "name": "กองร้อยทหารช่างก่อสร้างที่ 1 กองพันทหารช่างที่ 302"
    },
    {
        "id": "152374361634027",
        "location": {
            "city": "Ratchaburi",
            "country": "Thailand",
            "latitude": 13.6227086,
            "longitude": 99.6072628
        },
        "name": "ห้องเรียนโยธา\u0026สถาปัตยกรรม เด็กช่างก่อสร้าง"
    },
    {
        "id": "197348623772020",
        "location": {
            "city": "Chiang Rai",
            "country": "Thailand",
            "latitude": 19.903178857658,
            "longitude": 99.82626166204
        },
        "name": "แผนกวิชาช่างก่อสร้าง วิทยาลัยเทคนิคเชียงราย"
    },
    {
        "id": "145444278985978",
        "location": {
            "city": "Maha Sarakam",
            "country": "Thailand",
            "latitude": 16.187245447167,
            "longitude": 103.29807439711,
            "street": "Nakhon Sawan 46"
        },
        "name": "แผนกช่างก่อสร้าง ว.เทคนิคสารคาม"
    }
]