[
    {
        "about": "ก่อสร้างนะจ่ะ",
        "id": "1529465600634140",
        "name": "ช่างก่อสร้าง วิทยาลัยเทคนิคนครนายก"
    },
    {
        "id": "373642756017251",
        "name": "สมาคมศิษย์เก่าคณะวิชาช่างก่อสร้างระนอง"
    },
    {
        "id": "492395400876484",
        "name": "แผนกวิชาช่างก่อสร้าง เทคนิคอุทัยธานี"
    },
    {
        "id": "404656403075394",
        "name": "ช่างก่อสร้าง  ช่างก่ออิฐ + ฉาบบปูน"
    },
    {
        "id": "252270591642354",
        "name": "ทีมงานช่างพอง\u0026ช่างนันต์ ก่อสร้างครบวงจร",
        "phone": "0856048429"
    },
    {
        "id": "382572081811748",
        "location": {
            "city": "Bangkok",
            "country": "Thailand",
            "latitude": 14.008060083738,
            "longitude": 100.55835485468,
            "zip": "12000"
        },
        "name": "วิทยาลัยเทคนิคปทุมธานี. สาขาช่างก่อสร้าง"
    },
    {
        "id": "397115287036317",
        "location": {
            "city": "Bangkok",
            "country": "Thailand",
            "latitude": 14.0457579585,
            "longitude": 100.658184148
        },
        "name": "แผนกช่างก่อสร้างปทุมธานี"
    },
    {
        "id": "394586907397330",
        "location": {
            "city": "Ban Na Jomtian",
            "country": "Thailand",
            "latitude": 12.808538333333,
            "longitude": 100.91856333333
        },
        "name": "โรงปูน ช่างก่อสร้างเทคนิคสัตหีบ"
    },
    {
        "id": "393779287409525",
        "location": {
            "city": "Bangkok",
            "country": "Thailand",
            "latitude": 13.766603348381,
            "longitude": 100.54264332581
        },
        "name": "โรงเรียนช่างก่อสร้างดุสิต"
    },
    {
        "id": "392864150820305",
        "location": {
            "city": "Phrae",
            "country": "Thailand",
            "latitude": 18.13231132,
            "longitude": 100.13423912
        },
        "name": "อาคารงานไม้ช่างก่อสร้าง วิทยาลัยเทคนิคแพร่"
    },
    {
        "id": "392447720934531",
        "location": {
            "city": "Nakhon Nayok",
            "country": "Thailand",
            "latitude": 14.20474245,
            "longitude": 101.2061624
        },
        "name": "แผนกช่างก่อสร้าง เทคนิคครยก"
    },
    {
        "id": "387461118113401",
        "location": {
            "city": "Chok Chai",
            "country": "Thailand",
            "latitude": 14.785712786528,
            "longitude": 102.16424703598
        },
        "name": "บริษัทช่างก่อสร้าง"
    },
    {
        "id": "384184141656908",
        "location": {
            "city": "Udon Thani",
            "country": "Thailand",
            "latitude": 17.418065625381,
            "longitude": 102.79193666024,
            "zip": "41000"
        },
        "name": "แผนกวิชาช่างก่อสร้าง-โยธา วิทยาลัยเทคนิคอุดรธานี"
    },
    {
        "id": "383763325075635",
        "location": {
            "latitude": 13.5770613,
            "longitude": 99.7564202
        },
        "name": "กองร้อยทหารช่างก่อสร้างที่2กองพันทหารช่างที่112กรมทหารช่างที่1รักษาพระองค์"
    },
    {
        "id": "382826001908363",
        "location": {
            "city": "Amphoe Si Koraphum",
            "country": "Thailand",
            "latitude": 14.95,
            "longitude": 103.783,
            "zip": "32110"
        },
        "name": "แผนกวิชาช่างก่อสร้างศีขรภูมิ"
    },
    {
        "id": "690298937657994",
        "name": "ช่างก่อสร้างblacklist"
    },
    {
        "about": "รับเหมาก่อสร้างท่าเทียบเรือ งานเขื่อน ",
        "id": "435179123315556",
        "location": {
            "city": "อำเภอเมืองสมุทรปราการ",
            "street": "ต.ท้ายบ้าน",
            "zip": "10280"
        },
        "name": "ช่างโต้ง รับเหมาก่อสร้าง",
        "phone": "0891592649"
    },
    {
        "about": "วัสดุก่อสร้าง ส่งฟรี",
        "id": "203805699776791",
        "name": "ช่างนะนานาภัณฑ์ วัสดุก่อสร้าง"
    },
    {
        "id": "955970681096374",
        "location": {
            "city": "กำแพงเพชร",
            "street": "2/2 ม.3 ต.หนองปลิง อ.เมืองกำแพงเพชร",
            "zip": "62000"
        },
        "name": "ช่างสามารถก่อสร้าง",
        "phone": "0864458662"
    },
    {
        "id": "635154099963976",
        "name": "ช่างดอย   สนใจติดต่องานก่อสร้าง รับเหมา"
    },
    {
        "id": "747773541978429",
        "name": "กองช่าง ฝ่ายแบบแผน และ ก่อสร้าง",
        "phone": "054228565"
    },
    {
        "id": "773206696097305",
        "location": {
            "city": "Sawankhalok",
            "country": "Thailand",
            "latitude": 17.3086,
            "longitude": 99.8342,
            "street": "อำเภอสวรรคโลก จังหวัดสุโขทัย",
            "zip": "64110"
        },
        "name": "ช่างแจ้ : รับเหมาก่อสร้างและต่อเติมบ้าน"
    },
    {
        "about": "สนใจติดต่อ  085-0893697  , 082-3357554",
        "id": "884599781616493",
        "name": "ช่างดร  รับเหมาก่อสร้าง  ทุกชนิด โดยช่างผู้ชำนาญงาน"
    },
    {
        "id": "714069121968258",
        "name": "ช่างวันชัย  รับเหมาก่อสร้าง  ผลงานนำหน้า   ราคาตามหลัง"
    },
    {
        "about": "รับเหมาก่อสร้าง ต่อเติมบ้าน งานโครงเหล็ก โครงหลังคา ไฟฟ้าประปา ราคาเป็นกันเอง",
        "id": "130135880479933",
        "location": {
            "city": "Bangkok",
            "country": "Thailand",
            "latitude": 13.9269505,
            "longitude": 100.6373062,
            "street": "ถ.สายไหม",
            "zip": "10220"
        },
        "name": "ช่างวันรับเหมาก่อสร้าง",
        "phone": "0816959076"
    }
]