[
    {
        "about": "รับเหมาก่อสร้าง",
        "description": "มีเรื่องจะสอบถามราคาหรือจะให้ไปทำที่ไหน ติดต่อได้ที่ 0828057692,0937811600(ราคาเป็นกันเองไม่แพงอย่างที่คิด)",
        "id": "663299343814853",
        "location": {
            "street": "มอ.ซอยพิเศษ"
        },
        "name": "ช่างวิวัฒน์รับเหมาก่อสร้าง- เฉพาะในสุราษฎร์ธานี"
    },
    {
        "id": "422794634571009",
        "name": "ปวช.1 ช่างก่อสร้าง"
    },
    {
        "about": "เพื่อเปนการศึกษา สาขางานก่อสร้างและงานวิศกรรม",
        "id": "312427138881552",
        "name": "ล่ะอ่อนน้อย บ่าวช่างก่อสร้าง"
    },
    {
        "id": "349504908566445",
        "location": {
            "city": "Hat Yai",
            "country": "Thailand",
            "latitude": 7.035205625,
            "longitude": 100.502987345
        },
        "name": "แผนกช่างก่อสร้าง  วท.หาดใหญ่"
    },
    {
        "id": "349774011787848",
        "location": {
            "latitude": 18.008187777778,
            "longitude": 103.08333
        },
        "name": "กองทรัพย์วัสดุก่อสร้าง ต.ชุมช้าง อ.โพนพิสัย จ.หนองคาย"
    },
    {
        "id": "352745431458977",
        "location": {
            "city": "Bangkok",
            "country": "Thailand",
            "latitude": 13.8211713,
            "longitude": 100.5145437,
            "zip": "10800"
        },
        "name": "ตึก42แผนกช่างก่อสร้าง"
    },
    {
        "id": "353423208074371",
        "location": {
            "city": "Bangkok",
            "country": "Thailand",
            "latitude": 13.921958134153,
            "longitude": 100.64187777563,
            "zip": "10220"
        },
        "name": "บ.เฉลี่ยวการช่างและวัสดุก่อสร้าง จำกัด"
    },
    {
        "id": "441179306059555",
        "location": {
            "city": "นครราชสีมา",
            "latitude": 14.897613333333,
            "longitude": 102.10298333333
        },
        "name": "กองร้อยทหารช่างก่อสร้างที่2กองพันทหารช่างที่202"
    },
    {
        "id": "375325732551314",
        "location": {
            "city": "Muang Sara Buri",
            "country": "Thailand",
            "latitude": 14.534975104879,
            "longitude": 100.91142684662,
            "zip": "18000"
        },
        "name": "แผนกวิชา ช่างก่อสร้าง"
    },
    {
        "id": "621566381303690",
        "location": {
            "city": "Prachin",
            "country": "Thailand",
            "latitude": 14.04855666,
            "longitude": 101.37604265
        },
        "name": "แผนกวิชาช่างก่อสร้างเทคนิคปราจีน"
    },
    {
        "id": "543061872429671",
        "location": {
            "city": "Non Buri",
            "country": "Thailand",
            "latitude": 16.71266,
            "longitude": 103.52041,
            "street": "มหาวิทยาลัยเทคโนโลยีพระจอมเกล้าพระนครเหนือ"
        },
        "name": "ชมรมศิษย์เก่าช่างก่อสร้างเทคนิคไทย-เยอรมัน"
    },
    {
        "id": "554013794610534",
        "location": {
            "city": "Chiang Mai",
            "country": "Thailand",
            "latitude": 18.795917290778,
            "longitude": 98.978149083689,
            "street": "Huai Kaeo Road"
        },
        "name": "หน้า แผนก ช่างก่อสร้าง ตีนดอย"
    },
    {
        "id": "555025297912986",
        "location": {
            "city": "เมืองราชบุรี",
            "latitude": 13.5750845,
            "longitude": 99.755104125,
            "street": "ค่ายบุรฉัตร"
        },
        "name": "กองร้อยทหารช่างก่อสร้างที่2"
    },
    {
        "id": "573089256062711",
        "location": {
            "city": "Ban Kluai",
            "country": "Thailand",
            "latitude": 17.007482800525,
            "longitude": 99.788025506184
        },
        "name": "วิทยาลัยเทคนิคสุโขทัย ช่างก่อสร้าง"
    },
    {
        "id": "573525492740636",
        "location": {
            "city": "Surat Thani",
            "country": "Thailand",
            "latitude": 9.1358290475156,
            "longitude": 99.330703444088
        },
        "name": "แผนกช่างก่อสร้าง \"เทวดา\""
    },
    {
        "id": "597913893661283",
        "location": {
            "city": "Bangkok",
            "country": "Thailand",
            "latitude": 13.92027759552,
            "longitude": 100.51027679443
        },
        "name": "หมู่บ้านลานทอง ชมรมศิษย์เก่าช่างก่อสร้างอินทร"
    },
    {
        "id": "434924329928835",
        "location": {
            "city": "Nakhon Pathom",
            "country": "Thailand",
            "latitude": 13.8993869,
            "longitude": 100.1576658,
            "street": "ต. พระประโทน"
        },
        "name": "วิทลัยเทคนิคนครปฐม แผนก ช่างก่อสร้าง"
    },
    {
        "id": "836738756447105",
        "location": {
            "city": "Chaiyaphum",
            "country": "Thailand",
            "latitude": 15.8,
            "longitude": 102.033,
            "street": "วิทยาลัยเทคนิชัยภูมิ",
            "zip": "36000"
        },
        "name": "แผนกช่างก่อสร้าง"
    },
    {
        "id": "519722141527388",
        "location": {
            "city": "Kalasim",
            "country": "Thailand"
        },
        "name": "ช่างก่อสร้าง"
    },
    {
        "about": "รับเหมาก่อสร้าง ต่อเติมบ้าน ภายนอกภายใน",
        "id": "1583207138634954",
        "name": "ช่างบวนรับเหมาก่อสร้าง"
    },
    {
        "id": "1073106779367176",
        "name": "ช่างควบคุมงานก่อสร้าง Foreman"
    },
    {
        "id": "917237931644966",
        "name": "ช่างเทคนิค การเคมี ก่อสร้าง"
    },
    {
        "id": "872647789515881",
        "name": "ช่างก่อสร้าง ช.3"
    },
    {
        "id": "432649430256580",
        "name": "ช่างก่อสร้าง  สาขางานโยธา"
    },
    {
        "id": "514444525385726",
        "location": {
            "city": "Bangkok",
            "country": "Thailand"
        },
        "name": "ช่างก่อสร้าง   เทคโนโลยีปิ่นมณฑล(ช่างกลปิ่นเกล้า)"
    }
]