[
    {
        "id": "824818450950844",
        "name": "ช่างก่อสร้าง คนสร้างเมือง"
    },
    {
        "about": " จำหน่าย เครื่องมือช่าง/ไฟฟ้า/ประปา/ห้องน้ำ/- พร้อมจัดส่ง",
        "description": "จำหน่าย อุปกรณ์ก่อสร้าง  ผลิตภัณฑ์สีภายในภายนอก  / อุปกรณ์ไฟฟ้า ปลั๊ก สวิท สายไฟ ภายในบ้าน / อุปกรณ์ห้องน้ำฝักบัว สายชำระ ก๊อกน้ำ / อุปกรณ์อีเลคโทรนิค / อุปกรณ์ท่อประปาข้อต่อต่าง / เครื่องมือช่างงานหนักงานเบา เช่นสว่าน เครื่องแย๊ก แท่นตัดเหล็ก ใบตัดต่าง หินเจีย ชุดบล๊อก ปแจ แท่นตัดกะเบื้อง รับซ่อมเครื่องมือช่างทุกชนิด / บริการจัดหาเครื่องมือช่างพิเศษทุกชนิดในราคาถูก มีบริการจัดส่งทั่วประเทศ \nสนง.ใหญ๋ ร้านก้าวหน้าเจริญทรัพย์ฮาร์ดแวร์ 304/743-744 ซอยพหลโยธิน49/1 ถนนพหลโยธิน แขวงตลาดบางเขน เขตหลักสี่ กทม.   087-4807650 094-5465575 02-5796413",
        "emails": [
            "a_supercar9@hotmail.com"
        ],
        "id": "1424298647817908",
        "location": {
            "city": "หลักสี่",
            "street": "340/743 ม.2 ซอยพหลโยธิน49/1 ถนนพหลโยธิน แขวงตลาดบางเขน",
            "zip": "10210"
        },
        "name": "เครื่องมือช่าง/อุปกรณ์ก่อสร้าง/ไฟฟ้า/ประปา/ห้องน้ำ - ออนไลท์",
        "phone": "025796413"
    },
    {
        "id": "905992149484818",
        "location": {
            "city": "Samut Sakhon",
            "country": "Thailand"
        },
        "name": "แผนกช่างก่อสร้าง วิทยาลัยเทคนิคสมุทรสาคร ( บ้านบ่อ )"
    },
    {
        "id": "1485739568419963",
        "name": "แผนกวิชาช่างก่อสร้าง วิทยาลัยเทคนิคชุมพร"
    },
    {
        "id": "629729607038720",
        "location": {
            "city": "Phuket",
            "country": "Thailand",
            "latitude": 7.8956869603809,
            "longitude": 98.386197490166,
            "zip": "83000"
        },
        "name": "Ptc. แผนกวิชาช่างก่อสร้าง"
    },
    {
        "id": "792792774144833",
        "location": {
            "city": "Ban Photharam",
            "country": "Thailand",
            "latitude": 13.68266935,
            "longitude": 99.82636705
        },
        "name": "บ้านขจร ช่างก่อสร้าง"
    },
    {
        "id": "815016305208589",
        "location": {
            "latitude": 14.9449279,
            "longitude": 103.81060348
        },
        "name": "แผนกช่างก่อสร้าง วก.ศีขรภูมิ"
    },
    {
        "id": "804920499556105",
        "location": {
            "city": "Bangkok",
            "country": "Thailand",
            "latitude": 14.021002642087,
            "longitude": 100.53929474205
        },
        "name": "แผนกวิชาช่างก่อสร้างและโยธา วิทยาลัยเทคนิคปทุมธานี"
    },
    {
        "id": "792477607539088",
        "location": {
            "city": "ท่าปลา",
            "latitude": 17.7689207,
            "longitude": 100.3023721
        },
        "name": "เเผนกช่างก่อสร้าง วิทยาลัยเทคนิคอุตรดิตถ์"
    },
    {
        "id": "777694565660829",
        "location": {
            "city": "Ban Pa Phayom",
            "country": "Thailand",
            "latitude": 7.812995,
            "longitude": 99.9522983
        },
        "name": "แผนกช่างก่อสร้าง \"เทคนิคป่าพะยอม\""
    },
    {
        "id": "904915076201597",
        "location": {
            "city": "Pua",
            "country": "Thailand",
            "latitude": 19.179348672109,
            "longitude": 100.88711782667
        },
        "name": "แผนกช่างก่อสร้าง วิทยาลัยการอาชีพปัว"
    },
    {
        "id": "1395917117402792",
        "location": {
            "city": "Surin",
            "country": "Thailand",
            "latitude": 14.8833,
            "longitude": 103.483
        },
        "name": "เเผนกช่างก่อสร้าง"
    },
    {
        "id": "1403939616573334",
        "location": {
            "city": "Amphoe U Thai",
            "country": "Thailand",
            "latitude": 14.332876670638,
            "longitude": 100.62908875318
        },
        "name": "วิทยาลัยแห่งหนึ่งย่านบึงพระรามที่มีนักเรียนหญิงช่างก่อสร้างสวยที่สุด"
    },
    {
        "id": "1416738218632752",
        "location": {
            "latitude": 15.0003795,
            "longitude": 100.8617716
        },
        "name": "แผนกวิชาช่างก่อสร้าง วิทยาลัยเทคนิคลพบุรี แหางที่ 2"
    },
    {
        "id": "1478254672404334",
        "location": {
            "city": "Samut Sakhon",
            "country": "Thailand",
            "latitude": 13.515497460043,
            "longitude": 100.1817458869
        },
        "name": "แผนกช่างก่อสร้าง วิทยาลัยเทคนิคสมุทรสาคร 2 - บ้านบ่อ"
    },
    {
        "id": "1482730578608854",
        "location": {
            "city": "Bangkok",
            "country": "Thailand",
            "latitude": 13.859937521642,
            "longitude": 100.51433351832,
            "zip": "11000"
        },
        "name": "ใต้สะพานบีทีเอสท่าอิฐ นั่งจิบเบียร์กับช่างก่อสร้าง"
    },
    {
        "id": "1484091605211792",
        "location": {
            "city": "Ratchaburi",
            "country": "Thailand",
            "latitude": 13.620589,
            "longitude": 99.589484
        },
        "name": "แผนกช่างก่อสร้าง-โยธา@MCRU"
    },
    {
        "id": "1509358465980685",
        "location": {
            "city": "Nungba",
            "latitude": 8.834689,
            "longitude": 0.094133
        },
        "name": "แผนกช่างก่อสร้าง เทคนิคประจวบฯ"
    },
    {
        "id": "688001697994321",
        "location": {
            "city": "Chon Buri",
            "country": "Thailand",
            "latitude": 13.3667,
            "longitude": 100.983,
            "street": "33 หมู่5 ต.ดอนหัวฬ่อ อ.เมือง ชลบุรี",
            "zip": "20000"
        },
        "name": "รวมช่างก่อสร้างอมตะชลบุรี",
        "phone": "0877421665"
    },
    {
        "id": "674272466029489",
        "location": {
            "city": "Ayutthaya",
            "country": "Thailand",
            "latitude": 14.35903285,
            "longitude": 100.562783
        },
        "name": "แผนกช่างก่อสร้าง วิทยาลัยเทคนิคพระนครศรีอยุธยา"
    },
    {
        "id": "658629904256365",
        "location": {
            "city": "Bangkok",
            "country": "Thailand",
            "latitude": 13.75395,
            "longitude": 100.50224,
            "street": "ก่อสร้าง ชส."
        },
        "name": "แผนกช่างก่อสร้างสระบุรี - ชส.",
        "phone": "0858656946"
    },
    {
        "id": "645391715491999",
        "location": {
            "latitude": 14.901380357143,
            "longitude": 102.10816107143
        },
        "name": "กองร้อยทหารช่างก่อสร้างที่ 3"
    },
    {
        "id": "639541532841528",
        "location": {
            "city": "Amphoe Hat Yai",
            "country": "Thailand",
            "latitude": 6.995103174708,
            "longitude": 100.48659798798
        },
        "name": "แผนกช่างก่อสร้าง วิทยาลัยการอาชีพหลวงประธานราษฎร์นิกร"
    },
    {
        "id": "635737799807941",
        "location": {
            "city": "Phetchabun",
            "country": "Thailand",
            "latitude": 16.436748902913,
            "longitude": 101.15259008139
        },
        "name": "ฝ่ายช่างก่อสร้าง ศูนย์พัฒนาฝีมือแรงงานจังหวัดเพชรบูรณ์"
    },
    {
        "id": "613034368825545",
        "location": {
            "city": "Songkhla",
            "country": "Thailand",
            "latitude": 7.1990339870383,
            "longitude": 100.60323491693
        },
        "name": "แผนกวิชาช่างก่อสร้าง สถาบันเทคโนโลยีราชมงคล วิทยาเขตภาคใต้"
    }
]