[
    {
        "id": "1378510942469026",
        "location": {
            "city": "Lop Buri",
            "country": "Thailand",
            "latitude": 15.03869,
            "longitude": 100.77381,
            "street": "ลพบุรี",
            "zip": "15120"
        },
        "name": "ช่างสมชาย บัวสวรรค์ เฟอร์นิเจอร์"
    },
    {
        "about": "ธรรมาสน์หวาย ลายพัดยศ ลายขาสิงห์",
        "id": "119408311563197",
        "location": {
            "city": "Maha Sarakham",
            "country": "Thailand",
            "street": "74 หมู่ 5 บ้านท่าเจริญ ต.ลาดพัฒนา",
            "zip": "44000"
        },
        "name": "ช่างหล่อเฟอร์นิเจอร์ - หวายแท้Furniture Wai",
        "phone": "087-863-0505"
    },
    {
        "id": "764197176951234",
        "location": {
            "city": "Nonthaburi",
            "country": "Thailand",
            "latitude": 13.8665152,
            "longitude": 100.4799805,
            "street": "บางใหญ",
            "zip": "11140"
        },
        "name": "ช่างแดง เฟอร์นิเจอร์",
        "phone": "0926499355"
    },
    {
        "about": "ยินดีให้บริการและปรึกษาได้ 24 ชม.ครับ",
        "emails": [
            "craftsman.decor1974@yahoo.com"
        ],
        "id": "484329255054789",
        "location": {
            "city": "Chiang Mai",
            "country": "Thailand",
            "latitude": 18.7903,
            "longitude": 98.9817,
            "street": "เชียงใหม่ ลำพูน",
            "zip": "50000"
        },
        "name": "ช่างเฟอร์นิเจอร์เชียงใหม่ ตกแต่งภายในและบูธแสดงสินค้า 0960565065",
        "phone": "0960565065"
    },
    {
        "about": "รับออกแบบ - สั่งทำ ตู้อลูมิเนียมทุกชนิด ราคาปลีก - ส่ง ",
        "id": "140156969484746",
        "name": "ส.รวมช่าง เฟอร์นิเจอร์"
    },
    {
        "id": "710107645671028",
        "location": {
            "city": "Ubon Ratchathani",
            "country": "Thailand",
            "latitude": 15.36575,
            "longitude": 104.89258,
            "street": "อ.เมือง จ.อุบลราชธานี",
            "zip": "34000"
        },
        "name": "ช่างพินเฟอร์นิเจอร์ อุบลราชธานี",
        "phone": "0880427714"
    },
    {
        "id": "523151424532367",
        "name": "ช่าง..เฟอร์นิเจอร์"
    },
    {
        "id": "1383763278618182",
        "location": {
            "city": "Prachuap Khiri Khan",
            "country": "Thailand",
            "latitude": 11.8167,
            "longitude": 99.8,
            "street": "ต.หัวหิน อ.หัวหิน จ.ประจวบคีรีขันธ์",
            "zip": "77110"
        },
        "name": "ช่างล่า เฟอร์นิเจอร์ รับทำเฟอร์นิเจอร์ไม้ บิ้วอิน",
        "phone": "0926513014"
    },
    {
        "about": "ช่างแดง ช่างสีเชียงใหม่ ",
        "description": "รับเหมาทาสีทุกชนิด ประสบการกว่า 30 ปี ทั้งอาคาร บ้าน  ตึก ซ่อมสีทั้งภายนอกภายใน\nหรืองานเฟอร์นิเจอร์  พ้นๆทาๆเรารับประกันงาน  ทุกชนิด ราคากันเอง ",
        "emails": [
            "nooook__elec__b.f@hotmail.com"
        ],
        "id": "135799129948334",
        "location": {
            "city": "Chiang Mai",
            "country": "Thailand",
            "latitude": 18.74287,
            "longitude": 98.88195,
            "street": "70 หมู่ 2 ต.หนองควาย อ.หางดง",
            "zip": "50230"
        },
        "name": "ช่างแดงรับเหมาทาสี เชียงใหม่ สีปูนใหม่ปูนเก่าสีไม้เฟอร์นิเจอร์ทุกชนิด",
        "phone": "0833254054"
    },
    {
        "id": "423906711060259",
        "location": {
            "city": "Klaeng",
            "country": "Thailand",
            "street": "thailand",
            "zip": "21000"
        },
        "name": "ช่างหนุ่มเฟอร์นิเจอร์ราคาถูก",
        "phone": "0800021925"
    },
    {
        "id": "541812495968020",
        "location": {
            "city": "Suphan Buri",
            "country": "Thailand",
            "latitude": 14.4667,
            "longitude": 100.117,
            "street": "43/2",
            "zip": "72120"
        },
        "name": "ช่างดำทำโต๊ะ เฟอร์นิเจอร์",
        "phone": "0901625918"
    },
    {
        "about": "จำหน่ายและรับสั่งทำเฟอร์นิเจอร์ไม้แท้ สวย  ราคาเป็นกันเอง\n\n",
        "description": "จำหน่ายและรับสั่งทำเฟอร์นิเจอร์ไม้แท้ สวย ราคาเป็นกันเอง\n# เตียงนอน โต๊ะอาหาร โซฟาไม้ ชุดรับแขก ชุดไม้ธรรมชาติ เก้าอี้ฮ่องเต้ เก้าอี้ แหย่ง ตู้ ต่าง ชั้นวางของ โต๊ะบัญชี โต๊ะหมู่ กรอบรูปไม้่ นาฬิกาไม้ ราวตากผ้า เคาน์เตอร์ บาร์เบียร์ เป็นต้น#\n\nสนใจติดต่อ\nช่างเหน่ง 089-9300433\nจ่ายุทธ 086-0397675 Line ID : Yongyut454\n\nร้านตั้งอยู่แยกแก่งคอย อ.บ้านนา จ.นครนายก ตรงข้ามกับ รร.มาลาสวรรค์",
        "emails": [
            "ktook11@gmail.com"
        ],
        "id": "164002357110241",
        "location": {
            "city": "Prachin Buri",
            "country": "Thailand",
            "street": "อ. บ้านนา",
            "zip": "26110"
        },
        "name": "ร้านช่างเหน่งเฟอร์นิเจอร์",
        "phone": "087-744-9004"
    },
    {
        "about": "ธนิญา",
        "id": "635319509813099",
        "name": "ธนิญา เฟอร์นิเจอร์ ช่างแอ็ด"
    },
    {
        "id": "316582941875905",
        "location": {
            "city": "Bangkok",
            "country": "Thailand",
            "latitude": 19.38645,
            "longitude": 100.76728,
            "street": "หมู่บ้านศรีเพชร",
            "zip": "55160"
        },
        "name": "ช่างโจ งานเฟอร์นิเจอร์ไม้ บิ้วอิน",
        "phone": "0914016284"
    },
    {
        "about": "รับทำเฟอร์นิเจอร์ เคาน์เตอร์ บูทกาแฟ คีออส ราคาถูก",
        "emails": [
            "vdecorationgroup@gmail.com"
        ],
        "id": "252851854894633",
        "location": {
            "city": "Samut Prakan",
            "country": "Thailand",
            "latitude": 13.644678350505,
            "longitude": 100.63717961311,
            "street": "439/4-6 ม.5 ถนนศรีนครินทร์ ต.สำโรงเหนือ",
            "zip": "10270"
        },
        "name": "รับทำเฟอร์นิเจอร์ รับทำเคาน์เตอร์ รับทำบูทกาแฟ ช่างพล",
        "phone": "0899906889"
    },
    {
        "id": "282830198574549",
        "location": {
            "city": "อำเภอเมืองกระบี่",
            "street": "78/70 ถ.กระบี่-เขาทอง ต.ปากน้ำ อ.เมือง จ.กระบี่",
            "zip": "81000"
        },
        "name": "ช่างยัน เฟอร์นิเจอร์ไม้",
        "phone": "0860200714"
    },
    {
        "id": "149769248689789",
        "location": {
            "city": "Uttaradit",
            "country": "Thailand",
            "latitude": 17.6311,
            "longitude": 100.101,
            "street": "10/5บ้านไผ่ล้อม ต.ไผ่ล้อม อ.ลับแล  จ.อุตรดิตถ์",
            "zip": "53210"
        },
        "name": "ช่างตั้มรับเหมาก่อสร้างตกแต่งภายในและรับทำเฟอร์นิเจอร์",
        "phone": "0853392985"
    },
    {
        "about": "เป็นร้านเฟอร์นิเจอร์ไม้สัก",
        "description": "รับทำ-ซ่อม:เฟอร์นิเจอร์ไม้ทุกชนิด เช่น ไม้สัก ไม้มะค้า ไม้ประดู้ เเละไม้อื้นๆ\n(ที่เป็นไม้จริง) และท่านยังสามารถออกเเบบเฟอร์นิเจอร์ในมุมของท่านได้ \nราคาเป็นกันเอง สนใจหรือสอบถามได้ที่เบอร์ 02-8924800 หรือ เบอร์โทรศัพท์ \n08-9776-7245",
        "emails": [
            "bigcol123a@hotmail.com"
        ],
        "id": "490810434342734",
        "location": {
            "street": "36/14 ม.2 ถ.บางบอน5 เขตบางบอน กรุงเทพ",
            "zip": "10150"
        },
        "name": "ช่างเดชเฟอร์นิเจอร์",
        "phone": "089-7767-245หรือ 09-1072-5790"
    },
    {
        "about": "รับบลิวอิน..ติดตั้งบูท..แต่งหน้าร้าน..ตู้ลอยโชว์สินค้า\n0873383308     0868738330  สมาน..ช่างกุ้ง..\nId   k.saman06\n",
        "id": "1660457064178419",
        "name": "ช่างสมาน  เฟอร์นิเจอร์",
        "phone": "0868738330"
    },
    {
        "description": "- รับทำเฟอร์นิเจอร์ บิลท์อินโดยช่างมืออาชีพ\n- ช่างอยู่ จ. นครสวรรค์สามารถรับงาน จ.ใกล้เคียงได้\n- ราคาเป้นกันเอง. สนใจติดต่อหน้าเฟสได้เลยค้ะ \n ,,ขอบคุณน้ะค้ะ :)",
        "id": "199900696822784",
        "name": "ช่างเด่น รับทำเฟอร์นิเจอร์ บิลท์อิน"
    },
    {
        "description": "ติดต่อ ช่างเน็ต เบอร์ 086-318-4060 080-227-9229",
        "id": "221466821221195",
        "name": "ช่างเน็ต รับทำเฟอร์นิเจอร์ 086-3184060,080-2279229"
    },
    {
        "id": "1044092162290420",
        "name": "ช่างเฟอร์นิเจอร์ตกแต่งภายใน"
    },
    {
        "id": "1415629692097961",
        "location": {
            "city": "Phitsanulok",
            "country": "Thailand",
            "latitude": 16.8158,
            "longitude": 100.264,
            "street": "71 หมู่ 4 ต. พลายชุมพล  อ.เมือง  จ.พิษณุโลก",
            "zip": "65000"
        },
        "name": "ช่างเล็กเฟอร์นิเจอร์    กับทีมช่างมืออาชีพ",
        "phone": "0812062657"
    },
    {
        "id": "208746009241849",
        "name": "ช่างหนุ่มเฟอร์นิเจอร์"
    },
    {
        "id": "874242689322850",
        "name": "หัวหน้า(ช่างเฟอร์นิเจอร์)"
    }
]