[
    {
        "about": "รับตกแต่งภายใน งานเฟอร์นิเจอร์ บิวอิน ด้วยทีมช่างมืออาชีพ ราคาเป็นกันเอง",
        "id": "716860981709687",
        "location": {
            "city": "Songkhla",
            "country": "Thailand",
            "latitude": 7.0152,
            "longitude": 100.39974,
            "street": "หาดใหญ่",
            "zip": "90110"
        },
        "name": "ช่างเฟอร์นิเจอร์หาดใหญ่",
        "phone": "0831900747"
    },
    {
        "about": "เฟอร์นิเจอร์ ราคาพิเศษ คุณภาพดีเกินราคา !!!",
        "id": "1635180380027089",
        "location": {
            "city": "Chiang Mai",
            "country": "Thailand",
            "latitude": 18.7903,
            "longitude": 98.9817,
            "street": "294 ถ.ช้างม่อย อ.เมือง",
            "zip": "50300"
        },
        "name": "ราเชน เฟอร์นิเจอร์",
        "phone": "053-251243"
    },
    {
        "id": "907595269258267",
        "location": {
            "city": "Amphoe Mukdahan",
            "country": "Thailand",
            "latitude": 16.5328,
            "longitude": 104.64282,
            "street": "117 ถ.พิทักษ์สันติราษฎร์",
            "zip": "49000"
        },
        "name": "ร้านช่างจิตร เฟอร์นิเจอร์",
        "phone": "081-544-9912 ช่างจิต / 085-749-4479 ช่างดิว"
    },
    {
        "id": "263089137232912",
        "location": {
            "city": "เมืองเพชรบุรี",
            "latitude": 13.1202954,
            "longitude": 99.9616009,
            "street": "หนองโสน"
        },
        "name": "ช่างทำ เฟอร์นิเจอร์"
    },
    {
        "about": "ช่างหลิ่ว บิ้วอิน รับตกแต่งภายในทุกชนิด สนใจติดต่อ 081-6544632",
        "id": "836342123097018",
        "location": {
            "city": "Nonthaburi",
            "country": "Thailand",
            "latitude": 13.93621,
            "longitude": 100.47408,
            "street": "18/17 หมู่ 5 ต.บางพูด อ.ปากเกร็ด",
            "zip": "11120"
        },
        "name": "ช่างหลิ่ว เฟอร์นิเจอร์ นนทบุรี",
        "phone": "0816544632"
    },
    {
        "id": "137293339787807",
        "location": {
            "city": "Chonburi",
            "country": "Thailand",
            "latitude": 13.45144,
            "longitude": 101.242,
            "street": "32 หมู่ 6 ตำบลบ้านช้าง",
            "zip": "20140"
        },
        "name": "เฟอร์นิเจอร์ไม้",
        "phone": "086-8407292"
    },
    {
        "id": "119964631681030",
        "location": {
            "city": "Chiang Rai",
            "country": "Thailand",
            "latitude": 19.9,
            "longitude": 99.8333,
            "street": "185 หมู่ 6 ต.เกาะช้าง อ.แม่ยาย จ.เชียงราย",
            "zip": "57130"
        },
        "name": "ป่าซาง เฟอร์นิเจอร์",
        "phone": "0846134255"
    },
    {
        "id": "692725717528804",
        "location": {
            "city": "Bangkok",
            "country": "Thailand",
            "latitude": 13.9060097,
            "longitude": 100.6990662,
            "street": "69 หนองระแหง คลองสามวา สามวาตะวันตก",
            "zip": "10520"
        },
        "name": "ชมรม ช่างเฟอร์นิเจอร์",
        "phone": "0911139277"
    },
    {
        "id": "211473015669828",
        "location": {
            "city": "Surat Thani",
            "country": "Thailand",
            "latitude": 9.1025705080047,
            "longitude": 99.309509823726,
            "zip": "84000"
        },
        "name": "ช้างเฟอร์นิเจอร์ ข้างๆโลตัสสุราษ"
    },
    {
        "about": "จำหน่ายเฟอร์นิเจอร์-เครื่องใช้สำนักงาน เครื่องครัว เครื่องนอนฯลฯ ",
        "description": "จำหน่ายเฟอร์นิเจอร์ไม้-เหล็ก-พลาสติก \nเครื่องใช้สำนักงาน : โต๊ะคอมพ์ไม้-เหล็ก ลิ้นชัก ตู้เก็บเอกสาร เก้าอี้ ตู้วางทีวี  \n\nเครื่องครัว : ตู้กับข้าวเล็ก-ใหญ่ ซิงค์ล้างจาน เก้าอี้ ชั้นวางเครื่องดื่ม โต๊ะอาหาร \n\nเครื่องนอน : เตียงเดี่ยว เตียงสองชั้น เตียงพับ เตียงริมชายหาด ที่นอนสปริง ใยมะพร้าว ยางพารา ที่นอนปิคนิค โซฟา ผ้าห่ม ผ้าปูที่นอน หมอน \n\nอื่นๆ : มุ้ง เสื่อน้ำมันเนื้อธรรมดา-ดูราฟรอร์ม ฯลฯ\nราวเเขวนผ้า ตู้รองเท้า",
        "emails": [
            "silseree@gmail.com"
        ],
        "id": "1608107636077889",
        "location": {
            "city": "Bangkok",
            "country": "Thailand",
            "latitude": 13.75531568,
            "longitude": 100.47532514,
            "street": "962/11-12 ถ.พรานนก เเขวงบ้างช่างหล่อ เขตบางกอกน้อย",
            "zip": "10700"
        },
        "name": "ศิลป์เสรี เฟอร์นิเจอร์",
        "phone": "061-656-9951"
    },
    {
        "about": "ออกแบบติดตั้งเฟอร์นิเจอบิ้วอินโดยช่างมืออาชีพ\n0867748347",
        "id": "346356315556004",
        "location": {
            "city": "Bangkok",
            "country": "Thailand",
            "latitude": 13.60599,
            "longitude": 100.41691,
            "street": "43/69ถนนพระรา2 แสมดำ บางขุนเทียน",
            "zip": "10150"
        },
        "name": "บิวท์อิน เฟอร์นิเจอร์ช่างปิยะ",
        "phone": "0867748347"
    },
    {
        "about": "รับตกแต่งภายในบ้านหรืองานเฟอร์ทุกชนิด",
        "id": "765446683539184",
        "location": {
            "city": "Amphoe Sawang Daen Din",
            "country": "Thailand",
            "latitude": 17.46773,
            "longitude": 103.40662,
            "street": "อำเภอสว่างแดนดิน จังหวัดสกลนคร",
            "zip": "47110"
        },
        "name": "ช่างหนูแดง ถนัดเฟอร์นิเจอร์",
        "phone": "0892523506"
    },
    {
        "about": "*ตกแต่งภายใน รับทำเฟอร์นิเจอร์ Built-in  แข็งแรง ทนทาน คุ้มค่า โดยช่างผู้ชำนาญกว่า 20 ปี*",
        "emails": [
            "sjamefurniturethai@gmail.com"
        ],
        "id": "298165996973982",
        "location": {
            "city": "Bangkok",
            "country": "Thailand",
            "latitude": 13.916103845819,
            "longitude": 100.58356761932,
            "street": "479 ถนนช่างอากาศอุทิศ ดอนเมือง ดอนเมือง กรุงเทพฯ",
            "zip": "10210"
        },
        "name": "เอส.เจมส์ เฟอร์นิเจอร์",
        "phone": "0895095152"
    },
    {
        "id": "403721049831432",
        "location": {
            "city": "Rayong",
            "country": "Thailand",
            "latitude": 12.6742,
            "longitude": 101.279,
            "street": "หนองบอน",
            "zip": "21180"
        },
        "name": "รับทำเฟอร์นิเจอร์ไม้ By ช่างโป้ง",
        "phone": "0618261856"
    },
    {
        "about": "ร้านขายเฟอร์นิเจอร์ไม้แท้ สามารถสั่งทำตามแบบที่ต้องการได้",
        "id": "542515029140223",
        "location": {
            "city": "Prachin",
            "country": "Thailand",
            "latitude": 13.87621,
            "longitude": 101.54413,
            "street": "อ. ศรีมหาโพธิ์",
            "zip": "25140"
        },
        "name": "ร้านช่างเหน่งเฟอร์นิเจอร์ไม้",
        "phone": "0977449004"
    },
    {
        "about": "รับเหมาตกแต่งภายใน ออกแบบภายใน จัดสวน ต่อเติมบ้าน",
        "emails": [
            "salimy93@hotmail.com"
        ],
        "id": "770268719654616",
        "location": {
            "city": "Chiang Mai",
            "country": "Thailand",
            "latitude": 18.74005,
            "longitude": 98.95965,
            "street": "422/9 ถ.ช้างคลาน ต.ช้างคลาน อ.เมือง จ.เชียงใหม่",
            "zip": "50100"
        },
        "name": "เวียงพิงค์เฟอร์นิเจอร์และตกแต่งภายใน",
        "phone": "0841509786 ,0817244778"
    },
    {
        "id": "739612529441577",
        "location": {
            "city": "Bangkok",
            "country": "Thailand",
            "latitude": 13.85247,
            "longitude": 100.73933,
            "street": "เอื้ออาทรหทัยราษฎร์ อาคาร31ชั้น1ห้อง668/5 แขวงบางชัน เขตคลองสามวา ถนนหทัยราษฎร์ 10510",
            "zip": "10510"
        },
        "name": "รับตกแต่งเฟอร์นิเจอร์ บิวท์อิน By ช่างแกะ",
        "phone": "0890061431"
    },
    {
        "about": "รับทำเฟอร์นิเจอร์ บิ้วอิน ติดต่อ 081-3662747",
        "id": "271407122994143",
        "location": {
            "city": "Bangkok",
            "country": "Thailand",
            "latitude": 18.83117,
            "longitude": 98.95191,
            "street": "74 ซ.20 ถ.โซตนา ต.ช้างเผือก อ.เมือง จ.เชียงใหม่",
            "zip": "50300"
        },
        "name": "รับทำเฟอร์นิเจอร์เชียงใหม่",
        "phone": "0813662747"
    },
    {
        "id": "839846119462199",
        "location": {
            "city": "Amphoe Phunphin",
            "country": "Thailand",
            "latitude": 9.11667,
            "longitude": 99.2,
            "street": "กม.18 ต.ท่าโรงช้าง อ.พุนพิน",
            "zip": "84130"
        },
        "name": "ร้านนิกรเฟอร์นิเจอร์ กม18  ท่าโรงช้างพุนพิน",
        "phone": "0865958817"
    }
]