[
    {
        "about": "รับทำ/จำหน่ายงานไม้",
        "emails": [
            "mungkornfurniture@gmail.com"
        ],
        "id": "322873971130864",
        "location": {
            "city": "Chiang Mai",
            "country": "Thailand",
            "latitude": 18.78966,
            "longitude": 98.9844,
            "street": "บ้านโป่งน้ำร้อน ต.แม่เจดีย์ใหม่ อ.เวียงป่าเป้า"
        },
        "name": "เฟอร์นิเจอร์ไม้จริงเวียงป่าเป้า โดย ช่างโจ"
    },
    {
        "id": "1135106799850421",
        "name": "ช่างเก่งเฟอร์นิเจอร์"
    },
    {
        "about": "รับเหมา ทำเฟอร์นิเจอร์ เชียงใหม่",
        "description": "รับเหมา ทำเฟอร์นิเจอร์ งานไม้ชนิดต่างๆ\nตู้ เตียง เคาเตอร์ ฯลฯ \n\nที่อยู่ ต.สันพระเนตร อ.สันทราย จ.เชียงใหม่ \n\ninbox เข้ามาสอบถามได้ หรือ ติดต่อที่เบอร์โทร 081-5319639",
        "id": "1526865647558293",
        "location": {
            "city": "Chiang Mai",
            "country": "Thailand",
            "latitude": 18.87994,
            "longitude": 99.06539,
            "street": "ต.สันพระเนตร อ.สันทราย",
            "zip": "50210"
        },
        "name": "เฟอร์นิเจอร์ เชียงใหม่ - ช่างเพ็ชร",
        "phone": "081-5319636"
    },
    {
        "about": "จำหน่าย แคร่-สินค้าจากไม้ไผ่ ทั้งปลีกและส่งสนใจติดต่อได้ที่\nTel.094-9704468    083-7409238\nLine: immortal-4468\nFacebook : Immortal Nanza'a",
        "id": "666204283471536",
        "location": {
            "city": "Ubon Ratchathani",
            "country": "Thailand",
            "latitude": 15.13359,
            "longitude": 104.73783,
            "street": "101 หมู่ 19 ต.บุ่งหวาย อ.วารินชำราบ จ.อุบลราชธานี",
            "zip": "34310"
        },
        "name": "ช่างนะการค้า - บุ่งหวายเฟอร์นิเจอร์ไม้ไผ่ ทั้งปลีก-ส่ง",
        "phone": "0949704468"
    },
    {
        "about": "จำหน่าย โต๊ะ ตู้ เตียง เฟอร์นิเจอร์ต่างๆ และรับตกแต่งภายใน ทุกๆสถานที่",
        "id": "189436348054210",
        "name": "สนใจงานเฟอร์นิเจอร์ ตกแต่งภายใน กับช่างชำนาญงานมากว่า20ปี"
    },
    {
        "id": "323582817830424",
        "location": {
            "city": "Chon Buri",
            "country": "Thailand",
            "latitude": 13.36899,
            "longitude": 100.9957,
            "street": "4/1 ม.6 ต.หนองข้างคอก อ.เมือง จ.ชลบุรี",
            "zip": "20000"
        },
        "name": "ช่างเช้า เฟอร์นิเจอร์-รับออกแบบบิ้วท์อินภายในและภายนอก",
        "phone": "0813858538"
    },
    {
        "about": "ช่างหมี เฟอร์นิเจอร์",
        "id": "1615085882090831",
        "name": "ช่างหมี เฟอร์นิเจอร์"
    },
    {
        "id": "818041068217640",
        "name": "ช่างบอยเฟอร์นิเจอร์ ตกแต่งภายใน โต้ะตู้เตียงเก้าอี้และ บิวน์อินท์"
    },
    {
        "about": "รับออกแบบตกแต่งภายในอาคาร หน้าร้านในร้าน ในห้างสรรพสินค้าทุกชนิท  เบอร์ติดต่อ 0850528681",
        "id": "845744682187186",
        "name": "ช่างอ้วน เฟอร์นิเจอร์ รับออกแบบ ตกแต่งภายในบ้านทุกชนิด"
    },
    {
        "id": "788127417921903",
        "name": "ช่างโฮมเฟอร์นิเจอร์"
    },
    {
        "about": "รับงานทั่วพัทยา. และกรุงเทพ.  ราคาคุยกันได้  เปนกันเอง",
        "id": "853366141392417",
        "name": "ช่างเอเฟอร์นิเจอร์"
    },
    {
        "id": "869108903119189",
        "name": "ช่างแดง เฟอร์นิเจอร์"
    },
    {
        "description": "Furniture accessory for build in room. รับทำเฟอร์นิเจอร์ตกแต่งภายในทุกชนิด เฟอร์นิเจอร์ติดผนัง ตู้ เตียงนอน เค้าเตอร์ บาร์ ชุดห้องครัว ฝ้า และอื่นๆ ทำจากไม้อักสัก และอื่นๆ สามารถเลือกสีได้เอง เลือกไม้ได้เอง",
        "id": "407248422723711",
        "location": {
            "city": "Surat",
            "country": "Thailand",
            "latitude": 9.09412,
            "longitude": 99.40221,
            "street": "อ.กาญจนดิษฐ์",
            "zip": "84290"
        },
        "name": "ช่างโรจน์ รับทำเฟอร์นิเจอร์ ตกแต่งภายในทุกชนิด",
        "phone": "081-9560712"
    },
    {
        "about": "รับทำเฟอร์นิเจอร์\nสนใจสอบถามรายละเอียดได้ที่ \nTEL : 0865612105 ช่างชาญ\nTEL : 0859793652 ช่างผอม\nID Line : chann.08 (ช่างชาญ)\n",
        "description": "รับทำเฟอร์นิเจอร์ โดยช่างชาญ และ ช่างผอม ซึ่งมีประสบการณ์มากกว่า19ปี\nราคาจะขึ้นอยู่กับความยากง่าย และราคาของไม้ที่สั่งแต่ละชนิด\nสนใจสอบถามรายละเอียดได้ที่ \nTEL : 0865612105 ช่างชาญ\nTEL : 0859793652 ช่างผอม\nID Line : chann.08 (ช่างชาญ)",
        "emails": [
            "chann.08@hotmail.com"
        ],
        "id": "354080174684965",
        "location": {
            "city": "Bangkok",
            "country": "Thailand",
            "latitude": 13.8145599,
            "longitude": 100.5262299,
            "street": "275/25-26 ซ.ไสวสุวรรณ ถ.ประชาราษฎร์สาย1 เขต/แขวงบางซื่อ",
            "zip": "10800"
        },
        "name": "รับทำเฟอร์นิเจอร์ โดย ช่างผอม และช่างชาญ"
    },
    {
        "about": "จำหน่ายเฟอร์นิเจอร์ และอื่นๆมากมาย จำหน่ายปลีก-ส่ง สินค้าคุณภาพ ราคโรงงาน",
        "description": "ร้านทองแสงการช่าง \nจำหน่ายเฟอร์นิเจอร์ ตู้เสื้อผ้า ตู้โชว์ โต๊ะทำงาน เก้าอี้สำนักงาน โต๊ะเครื่องแป้ง เตียง ที่นอน ตู้กับข้าว ชั้นอเนกประสงค์ และสินค้าอื่นๆมากมาย จำหน่ายปลีก-ส่ง สินค้าคุณภาพ ราคาโรงงาน เปิดบริการทุกวัน \n\nสนใจติดต่อร้านทองแสงการช่าง ใกล้ตลาดไท ถ.พหลโยธิน กม.45 ตรงข้ามปั๊ม Esso  โทร 0-2529-1225 และ 090-912-4145 ",
        "id": "1653537418221216",
        "location": {
            "city": "คลองหลวง",
            "street": "22/2 หมู่12 ถ.พหลโยธิน",
            "zip": "12120"
        },
        "name": "ทองแสงการช่าง จำหน่ายเฟอร์นิเจอร์",
        "phone": "025291225, 090-9124145"
    },
    {
        "id": "858051414276441",
        "location": {
            "city": "Nan",
            "country": "Thailand",
            "latitude": 18.7833,
            "longitude": 100.783,
            "street": "บ้านพร้าว ต. พระธาตุ  อ.เชียงกลาง จ.น่าน",
            "zip": "55160"
        },
        "name": "ช่างเพชร เฟอร์นิเจอร์  จ.น่าน",
        "phone": "0861965774"
    },
    {
        "id": "1433529153627510",
        "name": "ช่างเทียน  เฟอร์นิเจอร์  เตาปูน"
    },
    {
        "description": "รับตกแต่งภายใน ที่มีช่างเฟอร์นิเจอร์ชำนาญงานกว่า 20 ปี คอยทุกๆท่านยู่ครับ",
        "id": "243218899037166",
        "name": "โรงงานช่างคำเฟอร์นิเจอร์"
    },
    {
        "about": "We are professionar  built-in furniture.\n(เราเป็นมืออาชีพด้านงานเฟอร์นิเจอร์)",
        "id": "739256642791908",
        "location": {
            "city": "Chiang Mai",
            "country": "Thailand",
            "latitude": 18.74287,
            "longitude": 98.88195,
            "street": "หางดง",
            "zip": "50230"
        },
        "name": "ทีมงานช่างสุทัศน์ เฟอร์นิเจอร์",
        "phone": "0818837826"
    },
    {
        "id": "950719124994322",
        "name": "ช่างสีเฟอร์นิเจอร์.บางกรวย.นนทบุรี"
    },
    {
        "about": "ทำเบาะเฟอร์นิเจอร์ทุกชนิด กรุงเทพ",
        "emails": [
            "serm102@hotmail.com"
        ],
        "id": "743720058992254",
        "location": {
            "city": "Bangkok",
            "country": "Thailand",
            "latitude": 13.6710434,
            "longitude": 100.5061493,
            "street": "113 ประชาอุทิศ",
            "zip": "10140"
        },
        "name": "ช่างเบาะ เฟอร์นิเจอร์ ฟองน้ำ เบาะลอย เปลี่ยนผ้าหุ้มเบาะ เบาะรถยนต์",
        "phone": "0863166406"
    },
    {
        "about": "ออกแบบตกแต่งภายใน",
        "emails": [
            "vizardoss.skt@gmail.com"
        ],
        "id": "481930358496837",
        "name": "สุรินทร์การช่างเฟอร์นิเจอร์ (ตอง ใบตอง)",
        "phone": "081-692-5081 "
    },
    {
        "id": "182415102093251",
        "name": "ร้านบ้านช่าง เฟอร์นิเจอร์ไม้พาเลท ราคาถูก"
    },
    {
        "id": "393583874149110",
        "location": {
            "city": "Surat Thani",
            "country": "Thailand",
            "latitude": 9.1077633,
            "longitude": 99.3726501,
            "street": "63/116",
            "zip": "84000"
        },
        "name": "ช่างเปิ้ล รับออกแบบตกแต่งเฟอร์นิเจอร์ งานไม้ทุกชนิด",
        "phone": "0895908257"
    },
    {
        "id": "841655425947772",
        "name": "ช่างออกแบบ และ ช่างทำเฟอร์นิเจอร์"
    }
]