[
    {
        "id": "154077124748500",
        "location": {
            "city": "Bangkok",
            "country": "Thailand",
            "latitude": 13.711056808564,
            "longitude": 100.57919025421
        },
        "name": "ร้านช่างหน่องเฟอร์นิเจอร์"
    },
    {
        "about": "ต่อเติมบ้าน ตกแต่งภายใน ",
        "id": "442756462570975",
        "location": {
            "city": "Nakhon Si Thammarat",
            "country": "Thailand",
            "latitude": 8.29492,
            "longitude": 99.9944611,
            "street": "บ้านดอนแตระ.ต.ทางพูน ม.3 อ.เฉลิมพระเกียรติ จ.นครศรีธรรมราช"
        },
        "name": "เฟอร์นิเจอร์.เคลื่อนที่.ช่างไม้ ช่างสีโดยช่างอ้อมและทีมงาน",
        "phone": "0841831649.0618534423"
    },
    {
        "id": "447649295401248",
        "location": {
            "city": "Napa",
            "country": "Thailand",
            "latitude": 13.37201113088,
            "longitude": 101.02594576272
        },
        "name": "ช่างจรัญเฟอร์นิเจอร์"
    },
    {
        "id": "451346578365770",
        "location": {
            "city": "Nonthaburi",
            "country": "Thailand",
            "latitude": 13.8700933,
            "longitude": 100.5095749,
            "street": "นนทบุรี46 แยก11",
            "zip": "11000"
        },
        "name": "ช่างสุริยา เฟอร์นิเจอร์"
    },
    {
        "id": "456541867735484",
        "location": {
            "city": "Chiang Mai",
            "country": "Thailand",
            "latitude": 18.831302186785,
            "longitude": 99.044059740862
        },
        "name": "Home ช่างเอ๋ เฟอร์นิเจอร์"
    },
    {
        "id": "463472097056157",
        "location": {
            "latitude": 17.436786331253,
            "longitude": 102.73848342719
        },
        "name": "ช่างเติ้น เฟอร์นิเจอร์"
    },
    {
        "id": "373445409451491",
        "location": {
            "city": "Chaiyaphum",
            "country": "Thailand",
            "latitude": 15.932023333333,
            "longitude": 102.029035
        },
        "name": "บ้าน ช่างหรั่ง เฟอร์นิเจอร์"
    },
    {
        "id": "385590454958348",
        "location": {
            "city": "เชียงใหม่",
            "latitude": 18.69786333,
            "longitude": 98.896115,
            "street": "91/1 ม.3 น้ำแพร่ หางดง"
        },
        "name": "ธุระกิจท้องถิ่น สีเฟอร์นิเจอร์ ตน้ำแพร่ อหางดง ช่างตรี เดียร์ มอส",
        "phone": "0821885867"
    },
    {
        "id": "437973233044803",
        "location": {
            "city": "พัทลุง ไทย",
            "latitude": 7.489762,
            "longitude": 100.1949485
        },
        "name": "ร้านช่างปานเฟอร์นิเจอร์",
        "phone": "074843829"
    },
    {
        "id": "377497952391937",
        "location": {
            "city": "Bangkok",
            "country": "Thailand",
            "latitude": 13.7132502,
            "longitude": 100.5738907,
            "street": "ถนน อาจณรงค์",
            "zip": "10110"
        },
        "name": "ช่างหน่อง เฟอร์นิเจอร์"
    },
    {
        "id": "379912018755854",
        "location": {
            "city": "Taphan Hin",
            "country": "Thailand",
            "latitude": 16.206459403053,
            "longitude": 100.41672583679
        },
        "name": "บ้านช่างแกะ เฟอร์นิเจอร์"
    },
    {
        "id": "380073498826715",
        "location": {
            "latitude": 15.13975845,
            "longitude": 104.74366505
        },
        "name": "ร้านช่างดิษฐ์ เฟอร์นิเจอร์ไม้ไผ่"
    },
    {
        "id": "382267035191763",
        "location": {
            "city": "That Phanom",
            "country": "Thailand",
            "latitude": 16.939478544534,
            "longitude": 104.72072473737
        },
        "name": "ช้างเฟอร์นิเจอร์ธาตุพนม"
    },
    {
        "id": "393965480693003",
        "location": {
            "latitude": 15.034202247133,
            "longitude": 102.10661444387
        },
        "name": "บ้านช่างนุ้ยเฟอร์นิเจอร์กะเจ้เอี้ยงขายของชำ ณ จอหอ"
    },
    {
        "id": "394110190638730",
        "location": {
            "city": "Phatthalung",
            "country": "Thailand",
            "latitude": 7.6386116470865,
            "longitude": 100.06214213228,
            "zip": "93000"
        },
        "name": "โรงงานช่างไก่ รับเหมาเฟอร์นิเจอร์ตกแต่งภายใน ควนกรวด"
    },
    {
        "id": "402943443179015",
        "location": {
            "city": "Chiang Mai",
            "country": "Thailand",
            "latitude": 18.78966,
            "longitude": 98.9844,
            "street": "ถนน ช้างม่อย"
        },
        "name": "พ.เรืองรองเฟอร์นิเจอร์"
    },
    {
        "id": "406032746235201",
        "location": {
            "latitude": 14.163888871348,
            "longitude": 100.51333598793,
            "street": "1 หมู่ 2 ต.ช้างใหญ่ อ.บางไทร จ.พระนครศรีอยุธยา"
        },
        "name": "ร้านเฟอร์นิเจอร์เครื่องไม้ราคาถูก",
        "phone": "0935715771"
    },
    {
        "id": "434518176716621",
        "location": {
            "city": "Nakhon Ratchasima",
            "country": "Thailand",
            "latitude": 14.922058957968,
            "longitude": 102.10277117429,
            "street": "บ้านหนองไผ่ ต.โพธิ์กลาง",
            "zip": "30000"
        },
        "name": "ช่างจิตต์เฟอร์นิเจอร์"
    },
    {
        "id": "427854054054452",
        "location": {
            "latitude": 7.4899189,
            "longitude": 100.1952672
        },
        "name": "ร้านช่างปานเฟอร์นิเจอร์"
    },
    {
        "id": "417095831747160",
        "location": {
            "city": "Nong Saeng",
            "country": "Thailand",
            "latitude": 17.428483702076,
            "longitude": 104.7611214477
        },
        "name": "ช่างเล็กเฟอร์นิเจอร์",
        "phone": "0856597174"
    },
    {
        "id": "415725881955846",
        "location": {
            "city": "Chon Buri",
            "country": "Thailand",
            "latitude": 13.3667,
            "longitude": 100.983
        },
        "name": "บ้านขี้เหล้า ช่างเฟอร์นิเจอร์"
    },
    {
        "id": "411242655706450",
        "location": {
            "latitude": 14.707541000191,
            "longitude": 100.29913309962
        },
        "name": "บ้านช่างลำจวน เอี่ยมเอก เฟอร์นิเจอร์ อ.แสวงหา จ.อ่างทอง"
    },
    {
        "id": "407846599410868",
        "location": {
            "city": "Buriram",
            "country": "Thailand",
            "latitude": 14.98597221,
            "longitude": 103.11896658,
            "street": "463/2 ม.3 บ้านโคกหัวช้าง ต.อิสาณ",
            "zip": "31000"
        },
        "name": "ร้านเค.เจ. เฟอร์นิเจอร์"
    },
    {
        "id": "407657916015835",
        "location": {
            "city": "Nakhon Sawan",
            "country": "Thailand",
            "latitude": 15.69065,
            "longitude": 100.11414,
            "street": "ต.มหาโพธิ"
        },
        "name": "บ้านช่างโนต เฟอร์นิเจอร์"
    },
    {
        "id": "702786306495523",
        "location": {
            "latitude": 14.93705056,
            "longitude": 101.838051366
        },
        "name": "โรงงาน ช่างนัด เฟอร์นิเจอร์"
    }
]