[
    {
        "id": "834529733327872",
        "name": "ช่างใหญ่ธนกิจรุ่งเรืองเฟอร์นิเจอร์"
    },
    {
        "id": "932947150092394",
        "location": {
            "city": "Surat Thani",
            "country": "Thailand",
            "latitude": 9.09542,
            "longitude": 99.3073,
            "street": "218/161 ต.ตลาด อ.เมือง จ. สุราษฎร์ธานี",
            "zip": "84000"
        },
        "name": "รับประกอบเฟอร์นิเจอร์ ขนย้ายและซ่อมโดยทีมช่างมืออาชีพ",
        "phone": "0919841644"
    },
    {
        "about": "รับเหมาทำเฟอร์นิเจอร์บิ้วอิน/วอร์คอิน ตกแต่งภายใน บ้าน อาคาร คอนโด หอพัก",
        "id": "695906540434396",
        "name": "เฟอร์นิเจอร์ตกแต่งภายใน/ช่างธวัช 0862117353"
    },
    {
        "id": "666322176838371",
        "name": "รับทำงานตกแต่งภายในเฟอร์นิเจอร์ติดต่อ0894607204 ช่างต้อมงานดีราคาถูก"
    },
    {
        "id": "974013272663423",
        "location": {
            "city": "Bangkok",
            "country": "Thailand",
            "latitude": 13.652165,
            "longitude": 100.3555609,
            "street": "ถนนบางบอน5 ตรงข้ามกับบางบอน5 Racing Shop"
        },
        "name": "ร้านช่างเดชเฟอร์นิเจอร์",
        "phone": "0897767245"
    },
    {
        "id": "1182525238431523",
        "name": "พนักงานขับรถ  ช่างเฟอร์นิเจอร์เรือ"
    },
    {
        "id": "341387362737325",
        "name": "ช่างรัต  รับจัดบูทงานต่าง  ต่อเติมงานเฟอร์นิเจอร์"
    },
    {
        "about": "รับงานเฟอร์นิเจอร์ ที่เกียวกับไม้ทุกชนิด",
        "id": "1613430268887846",
        "name": "Nam \u0026third เฟอร์นิเจอร์ 0946643330 ช่างเติ๊ร์ด"
    },
    {
        "id": "342114529253415",
        "location": {
            "street": "เพชรบูรณ์",
            "zip": "67210"
        },
        "name": "ทีมงานช่างอ๊อด การไฟฟ้า และติตั้งเฟอร์นิเจอร์ชุดครัวจากโฮมโปร",
        "phone": "0808989245"
    },
    {
        "id": "1596662253882367",
        "name": "รับตกแต่งภายในเฟอร์นิเจอร์Built inโดยช่างผู้ชำนาญกว่า30ปี"
    },
    {
        "id": "410495469065627",
        "location": {
            "city": "Trang",
            "country": "Thailand",
            "latitude": 7.8133501121867,
            "longitude": 99.609802880211,
            "zip": "92130"
        },
        "name": "บ้านช่างสมชาย เฟอร์นิเจอร์"
    },
    {
        "id": "455875187843149",
        "location": {
            "city": "Ban Pluak Daeng",
            "country": "Thailand",
            "latitude": 13.030884400954,
            "longitude": 101.10783227729
        },
        "name": "เมืองช้างเฟอร์นิเจอร์"
    },
    {
        "about": "รับทำงานเฟอร์นิเจอร์ไม้ทุกชนิด ",
        "id": "544110689071048",
        "location": {
            "city": "Hua Hin",
            "country": "Thailand",
            "latitude": 11.8189402,
            "longitude": 99.7849426,
            "street": "ประจวบคีรีขันธ์",
            "zip": "77110"
        },
        "name": "ช่างล่า เฟอร์นิเจอร์",
        "phone": "0613486863"
    },
    {
        "id": "534354679952783",
        "location": {
            "city": "Thap Khang",
            "country": "Thailand",
            "latitude": 13.195251979259,
            "longitude": 99.834534679237
        },
        "name": "บ้านช่างพอ เฟอร์นิเจอร์"
    },
    {
        "id": "539926466159685",
        "location": {
            "latitude": 20.225599000286,
            "longitude": 99.915268085897
        },
        "name": "บ้านช่างรอด เฟอร์นิเจอร์"
    },
    {
        "id": "518002324893178",
        "location": {
            "latitude": 13.843642689202,
            "longitude": 100.1208411354
        },
        "name": "มาส่งช่างเฟอร์นิเจอร์"
    },
    {
        "id": "511907342211144",
        "location": {
            "city": "Si Maha Phot",
            "country": "Thailand",
            "latitude": 13.949697730131,
            "longitude": 101.51132938452
        },
        "name": "ร้านช่างเหน่งเฟอร์นิเจอร์ แยกโคกขวาง"
    },
    {
        "id": "508519405920792",
        "location": {
            "city": "Nong Chok",
            "latitude": 13.881696709805,
            "longitude": 100.8660767102,
            "street": "Soi Chinda-la-o"
        },
        "name": "บึงปรง โรงเฟอร์นิเจอร์ \"ช่างจ่อย\""
    },
    {
        "id": "490799744296456",
        "location": {
            "city": "Amphoe Ko Chang",
            "country": "Thailand",
            "latitude": 12.053422,
            "longitude": 102.295809
        },
        "name": "ร้านเจริญเฟอร์นิเจอร์ เกาะช้าง"
    },
    {
        "id": "472482562865113",
        "location": {
            "city": "Nakhon Sawan",
            "country": "Thailand",
            "latitude": 15.827269749521,
            "longitude": 100.08070548482
        },
        "name": "บ้านช่างโนต เฟอร์นิเจอร์"
    },
    {
        "id": "472231086176315",
        "location": {
            "latitude": 15.034258850091,
            "longitude": 102.10647692997
        },
        "name": "บริษัท ช่างนุ้ยเฟอร์นิเจอร์"
    },
    {
        "id": "467120920032267",
        "location": {
            "city": "Nakhon Sawan",
            "country": "Thailand",
            "latitude": 15.8271789,
            "longitude": 100.0806056
        },
        "name": "บ้านช่างโนต เฟอร์นิเจอร์"
    },
    {
        "id": "677916388951170",
        "location": {
            "city": "Amphoe Muang Sakhon Nakhon",
            "country": "Thailand",
            "latitude": 17.25400109,
            "longitude": 104.17654353,
            "street": "69 / 6 ต.ท่าแร่  อ.เมือง จ.สกล"
        },
        "name": "บ้านช่างนิด เฟอร์นิเจอร์"
    },
    {
        "id": "610412035665001",
        "location": {
            "city": "Chai Badan",
            "country": "Thailand",
            "latitude": 15.072541174817,
            "longitude": 101.05385751383,
            "zip": "15230"
        },
        "name": "บ้านช่างเสริฐ เฟอร์นิเจอร์ at อ.ท่าหลวง จ.ลพบุรี"
    },
    {
        "id": "632197526876334",
        "location": {
            "city": "Ubon Ratchathani",
            "country": "Thailand",
            "latitude": 15.172552108765,
            "longitude": 104.79567718506
        },
        "name": "ช่างดอนเฟอร์นิเจอร์"
    }
]