[
    {
        "about": "รับเหมาทำเฟอร์นิเจอร์ บิ้วอิน ตกแต่งภายใน",
        "id": "148115162047201",
        "location": {
            "city": "Lat Krabang",
            "country": "Thailand",
            "latitude": 13.7237396,
            "longitude": 100.7895966,
            "street": "31 ซอยลาดกระบัง24",
            "zip": "10520"
        },
        "name": "ช่างจองเฟอร์นิเจอร์ - ช่างอ้วน",
        "phone": "0860531806"
    },
    {
        "about": "รับตกแต่งภายใน บ้าน สำนักงาน งานบิวท์อิน โดยช่างที่มีประสบการณ์",
        "description": "รับออกแบบตกแต่งภายใน จะงานเล๊กงานใหญ่ ยินดีบริการ ครับผม ",
        "emails": [
            "sweet_scissor@hotmail.com"
        ],
        "id": "1438773569668243",
        "location": {
            "city": "Hat Yai",
            "country": "Thailand",
            "street": "150/27",
            "zip": "90110"
        },
        "name": "ช่างเฟอร์นิเจอร์ หาดใหญ่",
        "phone": "0850777091"
    },
    {
        "id": "687153888036657",
        "name": "ศูนย์รวมช่างเฟอร์นิเจอร์ประเทศไทย"
    },
    {
        "id": "1501710536788223",
        "name": "ช่างดำ เฟอร์นิเจอร์"
    },
    {
        "about": "รับทำเฟอร์นิเจอร์ไม้ # ตู้ โต๊ะ เก้าอี้ โซฟา เตียง  #",
        "id": "147201538797967",
        "location": {
            "city": "Bangkok",
            "country": "Thailand",
            "latitude": 13.8076801,
            "longitude": 100.5303726,
            "street": "908/10 ซ. 18 ถ.กรุงเทพ-นนทบุรี บางซื่อ",
            "zip": "10800"
        },
        "name": "ช่างโจ เฟอร์นิเจอร์",
        "phone": "094 498 7912"
    },
    {
        "about": "รับทำเฟอร์นิเจอร์บิ้วท์อิน บิ้วท์อินห้องครัว บิ้วท์อินห้องนอน บิ้วท์อินห้องรับแขก",
        "description": "ช่างเฟอร์นิเจอร์บิ้วท์อิน รับทำเฟอร์นิเจอร์บิ้วท์อิน บิ้วท์อินห้องครัว บิ้วท์อินห้องนอน บิ้วท์อินห้องรับแขก ราคาถูก",
        "emails": [
            "fbpattaya2014@gmail.com"
        ],
        "id": "356643487837842",
        "location": {
            "city": "Pattaya",
            "country": "Thailand",
            "latitude": 12.921447675945,
            "longitude": 100.87570846081,
            "street": "504/462 Moo 10 South Pattaya Soi 18",
            "zip": "20150"
        },
        "name": "ช่างเฟอร์นิเจอร์ บิ้วท์อิน พัทยา",
        "phone": "081-8705421, 085-0955810"
    },
    {
        "id": "381820385355777",
        "location": {
            "street": "สงขลา"
        },
        "name": "ช่างบอล  เฟอร์นิเจอร์",
        "phone": "0816080975"
    },
    {
        "about": "ซ่อมงานไม้ทุกชนิด เช่น โต๊ะ เก้าอี้ เตียง และอื่นๆ เกี่ยวกับงานไม้",
        "id": "272661722855261",
        "name": "รับซ่อมเฟอร์นิเจอร์ ช่างดีน"
    },
    {
        "id": "442990179237966",
        "location": {
            "city": "Amphoe Phan",
            "country": "Thailand",
            "latitude": 19.8912697,
            "longitude": 99.8329773,
            "street": "เชียงราย",
            "zip": "57120"
        },
        "name": "ช่างสมพงษ์เฟอร์นิเจอร์",
        "phone": "0862000119"
    },
    {
        "about": "เข้ามาดูเฟอร์นิเจอร์สวยๆ กันได้\n",
        "id": "594989503904630",
        "location": {
            "city": "Bangkok",
            "country": "Thailand",
            "latitude": 13.89633,
            "longitude": 100.63934,
            "street": "203/130",
            "zip": "10220"
        },
        "name": "ช่างจิ๋วเฟอร์นิเจอร์",
        "phone": "\u003c\u003cnot-applicable\u003e\u003e"
    },
    {
        "id": "879206662105488",
        "name": "ช่างเฟอร์นิเจอร์"
    },
    {
        "about": "รับทำเฟอร์นิเจอร์ทั้งในและนอกสถานที่",
        "id": "1461400877445956",
        "name": "ช่างรักเฟอร์นิเจอร์"
    },
    {
        "about": "รับตกแต่งภายใน เฟอร์นิเจอร์บิ้วอิน พร้อมให้คำปรึกษา",
        "id": "273264372789385",
        "location": {
            "city": "พัทลุง",
            "street": "202 ม.5 ถ.ชัยบุรี ต.ปรางหมู่ อ.เมือง จ.พัทลุง",
            "zip": "93000"
        },
        "name": "ช่างไก่ เฟอร์นิเจอร์",
        "phone": "0612364635"
    },
    {
        "about": "มันเป็นส่วนนื่งของชีวิดฉัน",
        "id": "881649478556853",
        "location": {
            "city": "Phra Pradaeng",
            "country": "Thailand",
            "street": "สมุทรปราการ"
        },
        "name": "ช่างบันไทยเฟอร์นิเจอร์",
        "phone": "0948519280"
    },
    {
        "id": "630257290378518",
        "name": "ช่างเฟอร์นิเจอร์"
    },
    {
        "about": "ผลิตและจำหน่ายเฟอร์นิเจอร์เครื่องไม้ทุกชนิด",
        "id": "1653302324884194",
        "location": {
            "city": "Chanthaburi",
            "country": "Thailand",
            "latitude": 12.6,
            "longitude": 102.15,
            "street": "490 ม.12 ต.สะตอน อ.สอยดาว จ. จันทบุรี",
            "zip": "22180"
        },
        "name": "ช่างชิตเฟอร์นิเจอร์ - สวนส้ม",
        "phone": "0926125387"
    },
    {
        "about": "รับเหมา รับทำ รับตกแต่ง งานไม้มุกชนิด ทั่วไทย",
        "id": "385745821615136",
        "name": "ช่างกุล เฟอร์นิเจอร์"
    },
    {
        "about": "รับทำเฟอร์นิเจอร์บิ้วอินภายในบ้าน,คอนโด,หอพัก,โรงแรม,รีสอร์ท",
        "emails": [
            "changcharun@hotmail.com"
        ],
        "id": "604720559671682",
        "location": {
            "city": "อ.เมือง จ.ชลบุรี",
            "street": "42/6 หมู่7 ตำบล นาป่า"
        },
        "name": "ช่างจรัญเฟอร์นิเจอร์",
        "phone": "081-863-6074 , 086-068-5343"
    },
    {
        "about": "แหล่งพบปะของช่างเฟอร์นิเจอร์ผู้รับเหมากับนักออกแบบหรือเจ้าของโดยตรง",
        "emails": [
            "tapledesign@gmail.com"
        ],
        "id": "762789643836478",
        "location": {
            "city": "Phuket",
            "country": "Thailand",
            "latitude": 8.07059,
            "longitude": 98.35697,
            "street": "อันดามันถลาง",
            "zip": "83110"
        },
        "name": "ภูเก็ต ช่างเฟอร์นิเจอร์และตกแต่งภายใน",
        "phone": "0897861972"
    },
    {
        "about": "ตั่งอยู่ที่ อ.หางดง เชียงใหม่",
        "id": "665985003447880",
        "name": "ช่างคำหลวงเฟอร์นิเจอร์"
    },
    {
        "about": "จำหน่าย ไม้กลึง ลูกนั่ง โต๊ะกินข้าว และเฟอร์นิเจอร์ทั่วไป",
        "id": "261176240700340",
        "name": "ช่างรงค์  เฟอร์นิเจอร์"
    },
    {
        "id": "614398008598964",
        "name": "ช่างเฟอร์นิเจอร์"
    },
    {
        "about": "รับออกแบบ/ให้คำปรึกษา/ประเมินราคาเกี่ยวกับเฟอร์นิเจอร์Built-in",
        "emails": [
            "gasme542@hotmail.com"
        ],
        "id": "713871142026047",
        "location": {
            "city": "Nonthaburi",
            "country": "Thailand",
            "latitude": 13.8655739,
            "longitude": 100.481636,
            "street": "9/89",
            "zip": "11000"
        },
        "name": "ช่างแก๊ดเฟอร์นิเจอร์",
        "phone": "091-414-2915"
    },
    {
        "about": "Tell people more about your page (255 character maximum)",
        "id": "171063176307903",
        "location": {
            "city": "Lampoon",
            "country": "Thailand",
            "street": "150/1 บ้านสะแล่ง ต.มะเขือแจ้ อ.เมือง จ.ลำพูน",
            "zip": "51000"
        },
        "name": "ช่างหลวงเฟอร์นิเจอร์ Furniture and design",
        "phone": "0914356174"
    },
    {
        "about": "รับทาสีภายใน และตกแต่งเฟอร์นิเจอร์ ราคาคุยกันได้ (ช่างเอส)\nติดต่อ โทร  061-606-5652 , 090-780-7776\nID line : set.\n",
        "id": "899622366798426",
        "name": "ช่างรับเหมา ทำสีภายในและตกแต่งสีเฟอร์นิเจอร์"
    }
]