[
    {
        "about": "รับออกแบบและติดตั้งงานหลังคา กันสาด ต่อเติม ฯลฯ",
        "description": "- รับออกแบบ ติดตั้ง และให้คำปรึกษางานต่อเติม\n- หลังคา กันสาด โพลี่โปร่งแสง/เมทัลชีท/ดีไลท์, รางน้ำฝน, ผ้าใบไวนิล, โครงสร้างไม้/เหล็ก/อลูมิเนียม/สแตนเลส ฯลฯ\n- ตกแต่งภายในและภายนอก พร้อมเสนองานแบบ 3D\n- รับเหมาก่อสร้างตึกและอาคารพาณิชย์",
        "id": "1543457519261271",
        "location": {
            "city": "Khon Kaen",
            "country": "Thailand",
            "latitude": 16.4333,
            "longitude": 102.833,
            "zip": "40000"
        },
        "name": "ส.สมศักดิ์การช่างขอนแก่น หลังคา กันสาด รางน้ำ ประตู รั้ว งานเหล็กทุกชนิด",
        "phone": "084-786-8345, 085-659-0203"
    },
    {
        "about": "รับต่อเติมบ้าน,เทพื้น,มุ้งลวด,งานทุกประเภท ติดต่อTell.095-4598048 ; 0934828810",
        "emails": [
            "sangartid-554@hotmail.com"
        ],
        "id": "1387956911458838",
        "location": {
            "city": "Bangkok",
            "country": "Thailand",
            "latitude": 14.35793,
            "longitude": 100.70099,
            "street": "5/985 ม.4หมู่บ้านดีดีแลนด์ ต.อุทัย อ.อุทัย จ.อยุธยา",
            "zip": "13210"
        },
        "name": "ช่างแสง รับเหมาต่อเติมบ้าน มุ้งลวด กันสาด",
        "phone": "0934828810"
    },
    {
        "about": "บจก. ทวีเกียรติการช่าง\nผ้าใบ กันสาด เต๊นท์ โครงหลังคา\nTel: 081-8449551",
        "description": "บริษัท ทวีเกียรติการช่าง จำกัด\nจำหน่าย ออกแบบ ติดตั้ง ผ้าใบ กันสาด เต๊นท์ โครงหลังคา\nผ้าใบกันแดด กันฝน ผ้าใบชักรอก พร้อมเหล็กค้ำ ติดหน้าร้าน\nผ้าใบโฆษณา กันสาดอลูมิเนียม เต๊นท์ ผ้าใบคลุมสินค้า ประตูม้วน",
        "emails": [
            "taweekiatcanvas@gmail.com"
        ],
        "id": "174557582749257",
        "location": {
            "city": "Rangsit",
            "country": "Thailand",
            "latitude": 13.991144058921,
            "longitude": 100.60643790049,
            "zip": "12130"
        },
        "name": "ทวีเกียรติการช่าง กันสาด-ผ้าใบ",
        "phone": "081-8449551, 089-1200409, 089-9671794"
    },
    {
        "id": "1453718408202699",
        "location": {
            "city": "Samut Prakan",
            "country": "Thailand",
            "latitude": 13.54812,
            "longitude": 100.68051,
            "street": "ซอยมังกร-นาคดี ถนนเทพารักษ์ ตำบลแพรกษาใหม่  อำเภอเมืองสมุทรปราการ",
            "zip": "10280"
        },
        "name": "เหล็กดัด กันสาด โครงหลังคา งานเหล็กทุกชนิด P.D การช่าง",
        "phone": "0811003132"
    },
    {
        "id": "712494925521672",
        "location": {
            "city": "Amphoe Mae Chaem",
            "country": "Thailand",
            "latitude": 18.5014,
            "longitude": 98.3611,
            "street": "33/2 หมู่ 10 ต.ช่างเคิ่ง",
            "zip": "50270"
        },
        "name": "ช่างตุ๋ย รับเหมา ต่อเติมบ้าน งานฝ้าเพดาน กันสาด  กระจก อลูมิเนียม ฯลฯ",
        "phone": "0904346576"
    },
    {
        "about": "รับทำงานเหล็กดัด สเตนเลส ทุกประเภท โครหลังคา",
        "id": "243149042538331",
        "location": {
            "city": "กรุงเทพมหานคร",
            "street": "578 ถนนบางบอน 5 แขวงเขตบางบอน",
            "zip": "10150"
        },
        "name": "เกศ การช่าง รับทำงานแสตนเลส โครงหลังคา เหล็กดัด มุ้งลวด กันสาด",
        "phone": "02-4875083 Fax 02-8113557 มือถือ 080-8749887,085-1883473,084-5593851"
    },
    {
        "about": "รับติดตั้งผ้าใบ อุปกรณ์กันเเดด กันฝน ตั้งเต้น ต่อเติมร้านค้า ราคากันเอง บริการดุจญาติมิตร",
        "id": "1635534893325267",
        "location": {
            "city": "Amphoe Ban Pong",
            "country": "Thailand",
            "latitude": 13.5047197,
            "longitude": 99.7939072,
            "street": "จังหวัดราชบุรี",
            "zip": "70110"
        },
        "name": "ช่างเบล ผ้าใบ เต้น กันสาด เมทัลชีท",
        "phone": "0879042432"
    },
    {
        "about": "ธงชัยการช่าง รับทำ เหล็กดัด มุ้งลวด กระจก อลูมิเนียม กันสาด ประตูม้วน โครงหลังคา",
        "id": "838515129549525",
        "location": {
            "city": "Amphoe Khlong Luang",
            "country": "Thailand",
            "latitude": 14.06583,
            "longitude": 100.64215,
            "street": "26/164 กฤษณาเฮาส์ หมู่6 ต.คลองสาม",
            "zip": "12120"
        },
        "name": "ธงชัยการช่าง เหล็กดัด มุ้งลวด อลูมิเนียม กระจก กันสาด",
        "phone": "0867419532"
    },
    {
        "about": "รับติดตั้ง งานกระจกและอลูมิเนียม งานตกแต่งเพิ่มเติมทั้งภายนอกและภายใน",
        "description": "งานติดตั้ง งานกระจกและอลูมิเนียมราคาถูกที่สุด\nบริการงาน บานกระจก อลูมิเนียม บานกระทุ้ง บานเลื่อน บานสวิง ฝ้าฉาบเรียบ ฝ้าทีบาร์ เหล็กดัด มุ้งลวด รางน้ำฝน กันสาด\n\nสนใจติดต่อสอบถาม\n\n081-7111913\nline ID: 0881671953\n",
        "emails": [
            "yong.0881671953@gmail.com"
        ],
        "id": "1585773158326487",
        "location": {
            "city": "Muang Samut Prakan",
            "country": "Thailand",
            "street": "1584/334 ถ.รถรางสายเก่า ต.สำโรงเหนือ อ.เมืองสมุทรปราการ จ.สมุทรปราการ",
            "zip": "10270"
        },
        "name": "ยงเจริญการช่าง สมุทรปราการ งานกระจกและอลูมิเนียม ฝ้าทีบาร์ เหล็กดัด กันสาด",
        "phone": "0881671953"
    },
    {
        "id": "1475780786004598",
        "location": {
            "city": "Pisanuloke",
            "country": "Thailand",
            "latitude": 16.44207,
            "longitude": 99.49592,
            "street": "90/5 ม.2 ต.พลายชุมพล อ.เมือง จ.พิษณุโลก",
            "zip": "62000"
        },
        "name": "รับทำประตูเหล็กดัด  หน้าต่างพร้อมมุ้งลวด ประตูม้วน กันสาด ศักดิ์ชัยการช่าง",
        "phone": "0871995657"
    },
    {
        "about": "รับทำโครงหลังคา เหล็กดัด กันสาด ประตูม้วน มุ้งลวด โดย ณรงค์การช่าง พิษณุโลก",
        "id": "734857479992718",
        "location": {
            "city": "Phitsanulok",
            "country": "Thailand",
            "latitude": 16.8158,
            "longitude": 100.264,
            "street": "บ้านพักส่วนสนามบิน",
            "zip": "65000"
        },
        "name": "รับทำโครงหลังคา เหล็กดัด กันสาด ประตูม้วน มุ้งลวด โดย ณรงค์การช่าง พิษณุโลก",
        "phone": "084-6202939"
    },
    {
        "about": "รับทำ ประตูเหล็กดัด หลังคากันสาด ประตูม้วน มุ้งลวด สนามเด็กเล่น และงานเหล็กทุกชนิด ",
        "id": "499651726840540",
        "location": {
            "city": "Yasothon",
            "country": "Thailand",
            "latitude": 15.651492544211,
            "longitude": 104.31343172351,
            "street": "721/2 ต. ลุมพุก อ. คำเขื่อนเเก้ว จ. ยโสธร",
            "zip": "35110"
        },
        "name": "ร้านประเสริฐการช่าง รับทำ เหล็กดัด หลังคากันสาด ประตูเหล็กดัด ประตูม้วน",
        "phone": "089718734608971672650943587175"
    },
    {
        "id": "147342992124366",
        "location": {
            "city": "สะบ้าย้อย",
            "latitude": 6.6343621,
            "longitude": 101.0184477,
            "street": "เปียน"
        },
        "name": "ช่างกร ระไมล์ รับทำงานเหล็ก กันสาดทุกชนิด"
    },
    {
        "id": "729007090472230",
        "location": {
            "city": "Amphoe Muang Songkhla",
            "country": "Thailand",
            "latitude": 7.1619269927099,
            "longitude": 100.59411343662,
            "street": "131/135 หมู่ 8 ถ.30เมตร ต.เขารูปช้าง",
            "zip": "90000"
        },
        "name": "เอส.ซี.กันสาด - ข้างโรงเรียนดาวนายร้อย",
        "phone": "0819590032"
    },
    {
        "id": "623035837730040",
        "location": {
            "latitude": 6.634335,
            "longitude": 101.01826,
            "street": "ระไมล์"
        },
        "name": "ช่างกร ระไมล์ รับทำประตูเหล็กดัดกันสาดและงานเหล็กทุกชนิด"
    },
    {
        "id": "533108063513310",
        "location": {
            "city": "Pathum Thani",
            "country": "Thailand",
            "latitude": 13.9658298,
            "longitude": 100.5340881,
            "street": "63/181 ต.ลำลูกกา",
            "zip": "12150"
        },
        "name": "เอดี การช่าง เหล็กดัด มุ้งลวด กันสาด",
        "phone": "0916063068"
    },
    {
        "id": "460600337315615",
        "location": {
            "city": "Bangkok",
            "country": "Thailand",
            "latitude": 13.82202,
            "longitude": 100.50487
        },
        "name": "ร้านช่างผ้าใบ-กันสาด"
    },
    {
        "id": "434100820022242",
        "location": {
            "city": "สะบ้าย้อย",
            "latitude": 6.634369995,
            "longitude": 101.018409055,
            "street": "ระไมล์"
        },
        "name": "ช่างกร ระไมล์,รับทำงานเหล็ก กันสาดประตูหน้าต่างเกี่ยวกับเหล็กทุกชนิด",
        "phone": "0860323563"
    },
    {
        "id": "358354161034834",
        "location": {
            "city": "Ban Thai",
            "country": "Thailand",
            "latitude": 12.635765073333,
            "longitude": 102.09630502333
        },
        "name": "ร้าน ป.การช่าง รับทำงานแสตนเลส ทุกชนิด โครงหลังคา กันสาด"
    },
    {
        "id": "271553246346661",
        "location": {
            "city": "Chiang Mai",
            "country": "Thailand",
            "latitude": 18.78603,
            "longitude": 99.02265,
            "street": "212/4หมู่ที่7 ต.หนองผึ้ง อ.สารภี จ.เชียงใหม่",
            "zip": "50000"
        },
        "name": "รุ่งโรจน์การช่างรับทำกันสาดและงานเหล็ก",
        "phone": "0898558541"
    },
    {
        "about": "ผ้าใบแดดกันฝนและโครงหลังคาเหล็กเมทัลชีทมีหลายสีให้เลือกมีบริการหลังการติดตั้ง\n",
        "id": "1459192561059790",
        "location": {
            "city": "Amphoe Ban Pong",
            "country": "Thailand",
            "latitude": 13.5047197,
            "longitude": 99.7939072,
            "street": "ราชบุรี",
            "zip": "70110"
        },
        "name": "ผ้าใบกันสาด-ช่างบาส",
        "phone": "0871703715"
    },
    {
        "id": "1422167711443334",
        "location": {
            "city": "Khon Kaen",
            "country": "Thailand",
            "latitude": 16.4333,
            "longitude": 102.833,
            "street": "12 หมู่1 บ.สงเปือย ต.สงเปือย. อ.ภูเวียง จ.ขอนแก่น",
            "zip": "40150"
        },
        "name": "ติดตั้งรางนำ้ฝน\u0026ผ้าใบกันสาด ช่างเตื้ย",
        "phone": "086"
    },
    {
        "id": "392395470931737",
        "location": {
            "city": "Chiang Rai",
            "country": "Thailand",
            "latitude": 19.9,
            "longitude": 99.8333,
            "street": "แม่สาย",
            "zip": "57130"
        },
        "name": "กันสาดผ้าใบ การช่าง บริการทั่วภาคเหนือ",
        "phone": "084-6878837"
    },
    {
        "id": "558501110955985",
        "location": {
            "city": "Thai Chang",
            "country": "Thailand",
            "latitude": 8.11667,
            "longitude": 98.6,
            "street": "50/2หมู่ 4ต.ควน อ.ประนาเราะ  จ.ปัตตานี",
            "zip": "94000"
        },
        "name": "ช่างเอ็กซ์ เหล็กดัด กันสาด ราคาเป็นกันเอง ต่อรองกันได้",
        "phone": "0844100748"
    }
]