[
    {
        "id": "1491352771145133",
        "location": {
            "city": "Rawai",
            "country": "Thailand",
            "latitude": 7.77969,
            "longitude": 98.32542,
            "street": "ซอยช่างเหล็ก"
        },
        "name": "โลกใบนี้ของผม"
    },
    {
        "id": "1495365550683179",
        "location": {
            "latitude": 14.29344012,
            "longitude": 100.46789241
        },
        "name": "วัดช่างเหล็ก"
    },
    {
        "id": "1498736947019741",
        "location": {
            "latitude": 14.294820388348,
            "longitude": 100.46538079816
        },
        "name": "บ้านสุขสุสร ต.ช่างเหล็ก"
    },
    {
        "id": "1505168883035679",
        "location": {
            "city": "HIN NGOM",
            "latitude": 17.952677571188,
            "longitude": 102.84060959511,
            "street": "136 หมู1บ้านหินโงม"
        },
        "name": "บ้านอั๋น นครหิน ช่างเหล็ก"
    },
    {
        "id": "836937046366313",
        "location": {
            "city": "Sena",
            "country": "Thailand",
            "latitude": 14.271165037927,
            "longitude": 100.43017478665
        },
        "name": "ที่พักสายตรวจตำบลช่างเหล็ก"
    },
    {
        "id": "1524010397829508",
        "location": {
            "city": "Bangkok",
            "country": "Thailand",
            "latitude": 13.695666666667,
            "longitude": 100.51883333333
        },
        "name": "บ้านสกุลช่างเหล็ก"
    },
    {
        "id": "714590201903825",
        "location": {
            "latitude": 14.260933552882,
            "longitude": 100.44268115433,
            "street": "22/1 ม.4 ต.ช่างเหล็ก อ.บางไทร จ.อยุธยา"
        },
        "name": "My Home Ying\u0026tie"
    },
    {
        "id": "728910817189559",
        "location": {
            "latitude": 14.276664187854,
            "longitude": 100.45758039937
        },
        "name": "สภาตำบลช่างเหล็ก"
    },
    {
        "id": "740292162704831",
        "location": {
            "latitude": 10.161045852214,
            "longitude": 98.963116054665,
            "street": "สวี"
        },
        "name": "บ้านสี่พี่น้อง\"ทองช่างเหล็ก\""
    },
    {
        "id": "745491135572328",
        "location": {
            "city": "Bangkok",
            "country": "Thailand",
            "latitude": 13.767257,
            "longitude": 100.449182,
            "street": "ฉิมพลี1 วัดช่างเหล็ก"
        },
        "name": "บ้านเต้ที่มีแต่คนหล่อๆเต็มไปหมด"
    },
    {
        "id": "750949641624611",
        "location": {
            "city": "Bangkok",
            "country": "Thailand",
            "latitude": 13.791678864522,
            "longitude": 100.63619264411
        },
        "name": "บ้านตาหนึ่ง ช่างเหล็กดัด"
    },
    {
        "id": "773831685966875",
        "location": {
            "latitude": 8.0268070707098,
            "longitude": 98.401389420033
        },
        "name": "ร้านบ่าวช่างเหล็ก น้ำตกบางแพ"
    },
    {
        "id": "778284848855166",
        "location": {
            "city": "ยุดยา",
            "latitude": 14.295886308209,
            "longitude": 100.46602911125,
            "street": "ช่างเหล็ก"
        },
        "name": "บ้านริมน้ำ ช่างเหล็ก"
    },
    {
        "id": "779732768776855",
        "location": {
            "city": "Bangkok",
            "country": "Thailand",
            "latitude": 13.77413978,
            "longitude": 100.45350134
        },
        "name": "โรงเรียนวัดชื่อดังฝั่งย่านวัดช่างเหล็กที่มีอินเตอร์เน้ตแรงแบบเด้ดอ้ะๆ"
    },
    {
        "id": "795716840447406",
        "location": {
            "city": "Wat Bot",
            "country": "Thailand",
            "latitude": 16.99252,
            "longitude": 100.3094925
        },
        "name": "เอ๋ตามสั่ง หน้าวัดช่างเหล็ก"
    },
    {
        "id": "800686683309975",
        "location": {
            "city": "Phuket",
            "country": "Thailand",
            "latitude": 7.88921851,
            "longitude": 98.39343764
        },
        "name": "เก่งช่างเหล็ก"
    },
    {
        "id": "839829112764404",
        "location": {
            "city": "จักราช",
            "latitude": 15.068891601082,
            "longitude": 102.3956958577,
            "street": "บ้านดอน_อ,จักราช_จ,นครราชสีมา"
        },
        "name": "ร้านโอ้ทีมช่างเหล็ก",
        "phone": "0818823545"
    },
    {
        "id": "862180380512528",
        "location": {
            "city": "อยุธยา",
            "latitude": 14.2957539,
            "longitude": 100.4661583,
            "street": "ช่างเหล็ก"
        },
        "name": "บ้านเซฟกับอิม"
    },
    {
        "id": "862708747114018",
        "location": {
            "city": "Bangkok",
            "country": "Thailand",
            "latitude": 13.7723415,
            "longitude": 100.4529176
        },
        "name": "บ้านน้องปันจิเด็ก ตลิ่งชัน วัดช่างเหล็ก"
    },
    {
        "id": "866380076718505",
        "location": {
            "latitude": 14.343833,
            "longitude": 100.922133
        },
        "name": "บ้านหนองช่างเหล็ก"
    },
    {
        "id": "868535653161882",
        "location": {
            "city": "Ban Soeng Sang",
            "country": "Thailand",
            "latitude": 14.3298561,
            "longitude": 102.44561026,
            "zip": "30330"
        },
        "name": "\"บ้านช่างเหล็ก\"บ้านหนองปรือ อ.เสิงสาง จ.นครราชสีมา(โคราช)"
    },
    {
        "id": "878571735486472",
        "location": {
            "latitude": 14.29462481,
            "longitude": 100.46821045667
        },
        "name": "ร้านเจ๊เพ็ญค้าส่ง - ช่างเหล็ก"
    },
    {
        "id": "919573478129468",
        "location": {
            "city": "Phathalung",
            "country": "Thailand",
            "latitude": 7.61667,
            "longitude": 100.083
        },
        "name": "ร้านช่างศักดิ์ ช่างเหล็ก"
    },
    {
        "id": "940603312617375",
        "location": {
            "city": "Bangkok",
            "country": "Thailand",
            "latitude": 13.77297643,
            "longitude": 100.4524691
        },
        "name": "บ้านน้องเอิ๊กคนสวยที่สุดในซ.วัดช่างเหล็ก"
    },
    {
        "description": "อยากเจอตามมา",
        "id": "1014408555253704",
        "location": {
            "city": "Bangkok",
            "country": "Thailand",
            "latitude": 13.779278676957,
            "longitude": 100.45126539655
        },
        "name": "ฉิมพลี1ซอยวัดช่างเหล็ก"
    }
]