[
    {
        "id": "253490128172393",
        "location": {
            "latitude": 14.293573712118,
            "longitude": 100.46904074168
        },
        "name": "โรงเรียนวัดช่างเหล็ก ตำบล แคตก อำเภอบางไทร พระนครศรีอยุธยา"
    },
    {
        "id": "224430457759620",
        "location": {
            "city": "Bangkok",
            "country": "Thailand",
            "latitude": 13.77281924711,
            "longitude": 100.45238412926,
            "zip": "10170"
        },
        "name": "7-11วัดช่างเหล็ก"
    },
    {
        "id": "224421934380854",
        "location": {
            "city": "Bangkok",
            "country": "Thailand",
            "latitude": 13.7770025,
            "longitude": 100.4506875
        },
        "name": "โรงเรียนวัดช่างเหล็ก"
    },
    {
        "id": "220551291430385",
        "location": {
            "city": "Nong Khae",
            "country": "Thailand",
            "latitude": 14.33714,
            "longitude": 100.87113
        },
        "name": "บ้านหนองช่างเหล็ก"
    },
    {
        "id": "216997785068517",
        "location": {
            "city": "Bangkok",
            "country": "Thailand",
            "latitude": 13.778913333333,
            "longitude": 100.44714166667,
            "zip": "10170"
        },
        "name": "บ้านหญิง ณ วัดช่างเหล็ก"
    },
    {
        "id": "216819301793410",
        "location": {
            "latitude": 16.981465714286,
            "longitude": 100.28417
        },
        "name": "วัดช่างเหล็ก"
    },
    {
        "id": "210481559133091",
        "location": {
            "latitude": 14.293851004927,
            "longitude": 100.46989216479
        },
        "name": "โรงพยาบาลส่งเสริมสุขภาพตำบลช่างเหล็ก"
    },
    {
        "id": "209563159208642",
        "location": {
            "latitude": 14.2659039,
            "longitude": 100.4499336
        },
        "name": "12/2 ม4 ตช่างเหล็ก อบางไทร จพระนครศรีอยุธยา"
    },
    {
        "id": "304552246376693",
        "location": {
            "city": "Bangkok",
            "country": "Thailand",
            "latitude": 13.777795407177,
            "longitude": 100.45245299308,
            "zip": "10170"
        },
        "name": "วัดช่างเหล็ก เขตตลิ่งชัน"
    },
    {
        "id": "255236057886754",
        "location": {
            "latitude": 14.3050684,
            "longitude": 100.4936592
        },
        "name": "รร.วัดช่างเหล็ก"
    },
    {
        "id": "255726851262343",
        "location": {
            "city": "Srimahapho",
            "country": "Thailand",
            "latitude": 13.941262,
            "longitude": 101.550214
        },
        "name": "บ้านช่างเหล็ก\"หมู่บ้านพฤกษา The Master เขาดิน @ปราจีนบุรี\""
    },
    {
        "id": "257508224422456",
        "location": {
            "city": "ช่างเหล็ก, บางไทร",
            "latitude": 14.261806192821,
            "longitude": 100.44728047224,
            "street": "หมู่ 4 โรงหลวง"
        },
        "name": "ซอยหมาดุ"
    },
    {
        "id": "263161027106634",
        "location": {
            "city": "Bangkok",
            "country": "Thailand",
            "latitude": 13.773379190897,
            "longitude": 100.45378371124,
            "zip": "10170"
        },
        "name": "ตลาดเช้าวัดช่างเหล็ก"
    },
    {
        "id": "272665236225558",
        "location": {
            "latitude": 14.291952232609,
            "longitude": 100.46652569285
        },
        "name": "บ้านเจ๊เก๋า วัดช่างเหล็ก"
    },
    {
        "id": "273139209530503",
        "location": {
            "city": "Tha Sen",
            "country": "Thailand",
            "latitude": 13.038970575838,
            "longitude": 99.936335532601
        },
        "name": "ส.ช่างเหล็ก"
    },
    {
        "id": "274955952674479",
        "location": {
            "latitude": 14.77005,
            "longitude": 104.24433,
            "street": "ทางหลวงชนบท หมายเลข 3016"
        },
        "name": "วัดบ้านตะเคียนช่างเหล็ก"
    },
    {
        "id": "278583022337019",
        "location": {
            "city": "Amphoe Phaisali",
            "country": "Thailand",
            "latitude": 15.592985772542,
            "longitude": 100.65235722819
        },
        "name": "บ้านเพชรประดิษฐ์ - สกุลช่างเหล็ก นครสวรรค์"
    },
    {
        "id": "307372232719762",
        "location": {
            "city": "Sena",
            "country": "Thailand",
            "latitude": 14.293568333333,
            "longitude": 100.46575666667,
            "street": "ช่างเหล็ก"
        },
        "name": "ร้านก๊วยเตี๋ยวป้านอม ช่างเหล็ก"
    },
    {
        "id": "307228056013732",
        "location": {
            "latitude": 14.3061802,
            "longitude": 100.4926504
        },
        "name": "วัดช่างเหล็ก"
    },
    {
        "id": "306987612755900",
        "location": {
            "latitude": 14.265648953179,
            "longitude": 100.44335510054
        },
        "name": "ร้านตัดผมประจำหมู่บ้านโรงหลวง ตำบลช่างเหล็ก อำเภอบางไทร"
    },
    {
        "id": "303040706569748",
        "location": {
            "latitude": 14.339708061889,
            "longitude": 100.92395377345
        },
        "name": "บ้านหนองช่างเหล็ก"
    },
    {
        "id": "301568256696276",
        "location": {
            "city": "Amphoe Si Racha",
            "country": "Thailand",
            "latitude": 13.098588228167,
            "longitude": 101.00959989637
        },
        "name": "อู่ตาพจน์ตำนานช่างเหล็กเลยสี่แยกต้นโพธิ์มาใครไม่รุจักก็บ้าแล้ว"
    },
    {
        "id": "296346890464795",
        "location": {
            "latitude": 14.295888939988,
            "longitude": 100.46609378492
        },
        "name": "ช่างเหล็ก,พระนครศรีอยุธยา"
    },
    {
        "id": "290219871142146",
        "location": {
            "latitude": 18.053634449947,
            "longitude": 99.810583843949
        },
        "name": "บ้านช่างเหล็ก  อ.ลอง จ.แพร่"
    },
    {
        "id": "290063791102171",
        "location": {
            "city": "Kanchanaburi",
            "country": "Thailand",
            "latitude": 14.033976368291,
            "longitude": 99.530265563587,
            "zip": "71000"
        },
        "name": "บ้านเสี่ย นิก บ้านช่างเหล็ก\u0026น้องน้ำมนต์"
    }
]