[
    {
        "id": "222585624601775",
        "location": {
            "city": "Wat Bot",
            "country": "Thailand",
            "latitude": 16.99273785,
            "longitude": 100.31028733,
            "zip": "65160"
        },
        "name": "วัดช่างเหล็ก อ.วัดโบสถ์ จ.พิษณุโลก"
    },
    {
        "id": "243219122462085",
        "location": {
            "city": "Sena",
            "country": "Thailand",
            "latitude": 14.3239497068,
            "longitude": 100.447516758
        },
        "name": "วัดช่างเหล็ก"
    },
    {
        "id": "177118685746080",
        "location": {
            "city": "Bangkok",
            "country": "Thailand",
            "latitude": 13.773604656829,
            "longitude": 100.45395759975,
            "zip": "10170"
        },
        "name": "โรงเรียนวัดช่างเหล็ก เขตตลิ่งชั่น"
    },
    {
        "id": "453950774669617",
        "location": {
            "latitude": 14.305923379075,
            "longitude": 100.47893593147
        },
        "name": "วัดช่างเหล็ก @ บางไทร"
    },
    {
        "id": "405763379499081",
        "location": {
            "latitude": 14.773617810816,
            "longitude": 104.24013486913
        },
        "name": "โรงเรียนบ้านตะเคียนช่างเหล็ก"
    },
    {
        "id": "1547260522190057",
        "location": {
            "city": "Bangkok",
            "country": "Thailand",
            "latitude": 13.7737839,
            "longitude": 100.45402185,
            "street": "Soi Chim Phli 1"
        },
        "name": "วัดช่างเหล็ก ก.กทม."
    },
    {
        "id": "523322871074884",
        "location": {
            "city": "Bangkok",
            "country": "Thailand",
            "latitude": 13.779162140585,
            "longitude": 100.45182631814,
            "zip": "10170"
        },
        "name": "ปากซอยวัดช่างเหล็ก"
    },
    {
        "id": "1464414863783908",
        "location": {
            "latitude": 14.293381050794,
            "longitude": 100.46817026795
        },
        "name": "วัดช่างเหล็ก ต.ช่างเหล็ก อ.บางไทร จ.พระนครศรีอยุธยา"
    },
    {
        "id": "1389301884660246",
        "location": {
            "city": "พระนครศรีอยุธยา",
            "latitude": 14.29413462,
            "longitude": 100.469243955,
            "street": "บางไทร"
        },
        "name": "โรงเรียนวัดช่างเหล็ก - พิบูลเกรียติ"
    },
    {
        "id": "568896966546587",
        "location": {
            "city": "Taling Chan",
            "country": "Thailand",
            "latitude": 13.7806748,
            "longitude": 100.4540498
        },
        "name": "ท่าน้ำวัดช่างเหล็ก"
    },
    {
        "id": "623343567745206",
        "location": {
            "city": "Wat Bot",
            "country": "Thailand",
            "latitude": 16.991838333333,
            "longitude": 100.31056666667
        },
        "name": "วัดช่างเหล็ก อ.วัดโบสถ์ จ.พิษณ"
    },
    {
        "id": "166780320152976",
        "location": {
            "city": "Nong Khae",
            "country": "Thailand",
            "latitude": 14.341967675,
            "longitude": 100.928557795
        },
        "name": "บ้านหนองช่างเหล็ก ตำบลหนองสรวง อำเภอวิหารแดง จังหวัดสระบุรี"
    },
    {
        "id": "124784407639207",
        "location": {
            "latitude": 14.3295182,
            "longitude": 100.4828333
        },
        "name": "วัดช่างเหล็ก บางไทร อยุธยา"
    },
    {
        "about": "ทีมงานเราพร้อมเสมอ เพื่อสิ่งที่คุณต้องการ",
        "description": "รับทำ ‼\n# งานเหล็กดัดหน้าต่าง ประตูบ้าน ทุกชนิด ลายโมเดิร์น ลายอิตาลี่\n# งานรั้วเหล็ก รั้วไม้ \n# กันสาด \n# โครงหลังคา\n# รางน้ำ",
        "id": "474033482777941",
        "location": {
            "city": "San Pa Tong",
            "country": "Thailand",
            "latitude": 18.6332493,
            "longitude": 98.8987122,
            "street": "เชียงใหม่-ฝาง",
            "zip": "50120"
        },
        "name": "เปี๊ยกช่างเหล็ก",
        "phone": "ติดต่อพี่จอย 086-9204173 // 085-6940507 เปี๊ยก"
    },
    {
        "id": "745395698826548",
        "location": {
            "city": "Wat Bot",
            "country": "Thailand",
            "latitude": 16.992373902546,
            "longitude": 100.30966616725,
            "zip": "65160"
        },
        "name": "วัดช่างเหล็ก อ.วัดโบสถ์ พิษณุโลก"
    },
    {
        "id": "149093068589046",
        "location": {
            "latitude": 14.339239366667,
            "longitude": 100.92232118333
        },
        "name": "บ้านหนองช่างเหล็ก วัดสหกรณ์"
    },
    {
        "id": "1486330594917841",
        "location": {
            "city": "Wat Bot",
            "country": "Thailand",
            "latitude": 16.9908011,
            "longitude": 100.31005616,
            "zip": "65160"
        },
        "name": "วัดช่างเหล็ก ตท้อแท้ อวัดโบสถ์ จพิษณุโลก"
    },
    {
        "id": "175155392665819",
        "location": {
            "city": "Bangkok",
            "country": "Thailand",
            "latitude": 13.772126859998,
            "longitude": 100.4555244931,
            "zip": "10170"
        },
        "name": "วัดช่างเหล็ก(ริมคลองชักพระ)"
    }
]