[
    {
        "id": "315224285272755",
        "location": {
            "latitude": 14.296015747143,
            "longitude": 100.46576861429
        },
        "name": "ตำบลช่างเหล็ก อำเภอบางไทร จ.พระนครศรีอยุธยา"
    },
    {
        "id": "287633804742482",
        "location": {
            "city": "Bangkok",
            "country": "Thailand",
            "latitude": 13.7746521,
            "longitude": 100.4523767
        },
        "name": "วัดช่างเหล็ก..หน้าวัดริมน้ำ"
    },
    {
        "id": "166043296926343",
        "location": {
            "latitude": 14.260978633551,
            "longitude": 100.44263587342,
            "street": "22/1 ม.4 ต.บ้านช่างเหล็ก อ.บางไทร จ.อยุธยา 13110"
        },
        "name": "My Home - Ying\u0026tie"
    },
    {
        "about": "*คอกสุนัขบางแก้ว จำหน่ายลูกบางแก้ว สายพันธุ์แท้ สายเลือดดี บางไทร อยุธยา",
        "id": "160232257654800",
        "location": {
            "city": "Amphoe Phra Nakhon Si Ayutthaya",
            "country": "Thailand",
            "latitude": 14.35,
            "longitude": 100.55,
            "street": "ต.ช่างเหล็ก อ.บางไทร จ.พระนครศรีอยุธยา",
            "zip": "13190"
        },
        "name": "โฮจุน บางแก้ว อโยธยา",
        "phone": "0843396749"
    },
    {
        "id": "149724948538072",
        "location": {
            "latitude": 14.752547567568,
            "longitude": 104.22361972973
        },
        "name": "วัดตะเคียนช่างเหล็ก"
    },
    {
        "id": "142484199262299",
        "location": {
            "city": "Bangkok",
            "country": "Thailand",
            "latitude": 13.772297347909,
            "longitude": 100.45210744264
        },
        "name": "บ้านพี่เก้ง วัดช่างเหล็ก"
    },
    {
        "id": "137556216413328",
        "location": {
            "city": "Bangkok",
            "country": "Thailand",
            "latitude": 13.75395,
            "longitude": 100.50224,
            "street": "คลองชักพระ"
        },
        "name": "วัดช่างเหล็ก บ้านสวนริมน้ำ บังสกุลปู่ย่า ย่าทวด"
    },
    {
        "id": "130228903727878",
        "location": {
            "city": "Rawai",
            "country": "Thailand",
            "latitude": 7.7992478955461,
            "longitude": 98.321442059888
        },
        "name": "@My Home | ช่างเหล็ก ;)"
    },
    {
        "id": "122518387894257",
        "location": {
            "city": "Bangkok",
            "country": "Thailand",
            "latitude": 13.774263378187,
            "longitude": 100.44949405977,
            "street": "ซ.วัดช่างเหล็ก"
        },
        "name": "My Home At Talingchan",
        "phone": "\u003c\u003cnot-applicable\u003e\u003e"
    },
    {
        "id": "113944605608454",
        "location": {
            "city": "Amphoe Chakkarat",
            "country": "Thailand",
            "latitude": 14.9259596,
            "longitude": 101.9670792,
            "street": "นครราชสีมา",
            "zip": "30230"
        },
        "name": "ร้านโอ้ทีมช่างเหล็ก"
    },
    {
        "id": "409088769244193",
        "location": {
            "city": "Ratchaburi",
            "country": "Thailand",
            "latitude": 13.540691925743,
            "longitude": 99.813481941819
        },
        "name": "บ้านช่างเหล็ก"
    },
    {
        "id": "410126545785967",
        "location": {
            "city": "Bangkok",
            "country": "Thailand",
            "latitude": 13.776639938354,
            "longitude": 100.45024871826
        },
        "name": "บ้านวัดช่างเหล็กจ๊ะ"
    },
    {
        "id": "410392712438498",
        "location": {
            "latitude": 14.76955790216,
            "longitude": 104.24249622956
        },
        "name": "โรงพยาบาลส่งเสริมสุขภาพตำบลตะเคียนช่างเหล็ก"
    },
    {
        "id": "412617818775136",
        "location": {
            "city": "Bangkok",
            "country": "Thailand",
            "latitude": 13.778425474308,
            "longitude": 100.45228652174
        },
        "name": "บ้านย่าอู๊ด ปากซอยวัดช่างเหล็ก"
    },
    {
        "id": "413114658752267",
        "location": {
            "latitude": 14.263803558437,
            "longitude": 100.4532567692
        },
        "name": "ศูนย์ธรรมชาติบำบัดเวลเนสแคร์ 1ม.4 ต.ช่างเหล็ก อ.บางไทร  จ.พระนครศรีอยุธยา"
    },
    {
        "id": "413812068759011",
        "location": {
            "city": "Soeng Sang",
            "country": "Thailand",
            "latitude": 14.344805,
            "longitude": 102.43085
        },
        "name": "มัน100ไร่\"@ไร่ช่างเหล็ก\""
    },
    {
        "id": "417453114979199",
        "location": {
            "city": "Bangkok",
            "country": "Thailand",
            "latitude": 13.773071267499,
            "longitude": 100.45456945896
        },
        "name": "ทะเลทราบวัดช่างเหล็ก"
    },
    {
        "id": "507251779286712",
        "location": {
            "latitude": 14.293338870643,
            "longitude": 100.46525177555
        },
        "name": "ช่างเหล็ก, จังหวัดพระนครศรีอยุธยา"
    },
    {
        "id": "473537216071732",
        "location": {
            "latitude": 14.768467903137,
            "longitude": 104.20718383789
        },
        "name": "วัด ตะเคียน'ช่างเหล็ก"
    },
    {
        "id": "477198388975689",
        "location": {
            "city": "Bangkok",
            "country": "Thailand",
            "latitude": 13.773823688889,
            "longitude": 100.45277653333,
            "zip": "10170"
        },
        "name": "บ้านเทพช่วย วัดช่างเหล็ก"
    },
    {
        "id": "482949005084613",
        "location": {
            "city": "Kanchanaburi",
            "country": "Thailand",
            "latitude": 14.000470018959,
            "longitude": 99.542852752003
        },
        "name": "ช่างเสาห์ บ้านช่างเหล็ก"
    },
    {
        "id": "483836278414905",
        "location": {
            "city": "Bangkok",
            "country": "Thailand",
            "latitude": 13.772885612006,
            "longitude": 100.45232042793,
            "street": "วัดช่างเหล็ก"
        },
        "name": "ครัวหวังเหวิด",
        "phone": "0819015906"
    },
    {
        "id": "484292895005378",
        "location": {
            "city": "Mea Haung Saun",
            "country": "Thailand",
            "latitude": 19.15076,
            "longitude": 97.88787
        },
        "name": "โรงเรียนบ้านห้วยช่างคำ สาขาห้วยช่างเหล็ก 2"
    },
    {
        "id": "492051714173218",
        "location": {
            "city": "Ayutthaya",
            "country": "Thailand",
            "latitude": 14.345882022472,
            "longitude": 100.56260617978
        },
        "name": "วัดช่างเหล็ก"
    },
    {
        "id": "505720786113080",
        "location": {
            "city": "Bangkok",
            "country": "Thailand",
            "latitude": 13.773589125554,
            "longitude": 100.45245527326
        },
        "name": "@สำนัก อ.สำราญ เจริญสุข วัดช่างเหล็ก :)"
    }
]