[
    {
        "about": "จำหน่ายเครื่องมือช่าง ราคาย่อมเยาว์ บริการจัดส่งถึงที่     084-6588722  www.guneang.com",
        "id": "155636097955593",
        "name": "เครื่องมือช่าง อิเล็กทรอนิกส์"
    },
    {
        "about": "ปั้มน้ำ เครื่องมือช่าง อุปกรณ์ฮาร์ดแวร์",
        "emails": [
            "iamchingy@gmail.com"
        ],
        "id": "513693215386891",
        "location": {
            "city": "Bangkok",
            "country": "Thailand",
            "latitude": 13.743664822761,
            "longitude": 100.5060806694,
            "street": "583/10 ถ.มหาจักร แขวงสัมพันธวงศ์",
            "zip": "10100"
        },
        "name": "เครื่องมือช่าง - กิจเจริญคลองถม",
        "phone": "02-224-3610"
    },
    {
        "about": "เครื่องมือช่างหนัง-หนังฟอกฝาด\nzense.2013@gmail.com\nT.085-9190897,095-8042979",
        "description": "สอบถามสินค้าและราคา ทาง Email หรือ Tel. ที่แจ้งไว้ได้เลยค่ะ\nจัดส่งทาง EMS คิดตามราคาที่ไปรษณีย์กำหนด\nชำระค่าสินค้า ชื่อบัญชี สุทิษา อาษาไชย\n    - กสิกรไทย สาขาแฟชั่นไอส์แลนด์ รามอินทรา 720-2-67121-3\n    - ไทยพาณิชย์ สาขา ถ.รามอินทรา (แฟชั่นไอส์แลนด์ 2) 403-8-59405-1\nจัดส่งสินค้าให้ ในวันทำการถัดไป หลังจากยืนยันการโอน",
        "id": "783698585003087",
        "name": "เครื่องมือช่างหนัง-หนังวัวฟอกฝาด-งานเครื่องหนังแท้ by Zense' Leather Crafts"
    },
    {
        "about": "อุปกรณ์ฮาร์ดแวร์-เครื่องมือสารพัดช่าง ราคาย่อมเยา",
        "description": "อุปกรณ์ฮาร์ดแวร์ เครื่องมือช่างทุกประเภท ช่างไฟฟ้า ช่างก่อสร้าง ช่างซ่อมรถยนต์ ช่างซ่อมมอเตอร์ไซด์ ช่างซ่อมเครื่องจักร ช่างแอร์ ช่างเชื่อม ช่างประปา ช่างซ่อมอุปกรณ์อิเล็กทรอนิกส์ และอื่นๆ",
        "emails": [
            "kpn-trading@hotmail.com"
        ],
        "general_info": "    สต็อกสินค้า พร้อมขายหน้าร้าน และทางFanpage สนใจสินค้าสอบถามเพิ่มเติมได้ที่ Line ID : @kpntrading หรือ Inbox มาสอบถามทางFanpage และ โทร 091-8450880",
        "id": "1445319562369156",
        "name": "เครื่องมือช่างทุกประเภท ราคาย่อมเยา ปลีก-ส่ง",
        "phone": "Line Official ID : @kpntrading Tel : 091-8450880 074-807500 Fax : 074-807501 E-Mail : KPN-Trading@hotmail.com"
    },
    {
        "about": "ร้านประดับยนต์ครบวงจร เปลี่ยนสีรถยนต์ด้วยสติกเกอร์ ",
        "description": "ศูนย์บริการ เครื่องเสียงรถยนต์และประดับยนต์ครบวงจร ฟิล์มกรองแสงรถยนต์ - อาคาร หลังคาแครี่บอย  สัญญาณกันขโมย เซนทรัลล็อค กระจกไฟฟ้า ล็อคเบรค ล็อคคลัช ผ้าใบคลุมกระบะ กระบะแม็กลายเนอร์ คอลโซลรถตู้ คอลโซลเกียร์ เบาัะในแค็ป เบาะญี่ปุ่น ครอบถังแก๊ส ซักเบาะ - พรม ฯลฯ",
        "emails": [
            "nueng_reddevils@hotmail.com"
        ],
        "id": "218042058235666",
        "location": {
            "city": "Samrong",
            "country": "Thailand",
            "street": "300/6-11 ถ.รถรางเก่า-สรรพาวุธ  สำโรง",
            "zip": "10130"
        },
        "name": "เจริญศิลป์การช่าง เครื่องเสียงและประดับยนต์",
        "phone": "027485142, 0919798795,0871250808"
    },
    {
        "about": "ขายเครื่องมือช่าง อุปกรณ์ช่าง ชุดเครื่องมือช่างพื้นฐาน ช่างยนต์ ช่างไฟฟ้า สว่าน บล๊อกลม",
        "description": "ขายเครื่องมือช่าง อุปกรณ์ช่าง ชุดเครื่องมือช่างพื้นฐาน ช่างยนต์ ช่างไฟฟ้า สว่านไฟฟ้า ดอกสว่าน ประแจแหวน ปากตาย เลื่อย ชุดไขควง เจียรไฟฟ้า บล็อกลม บ๊อก คีม คู้เครื่องมือ กระเป๋าเครื่องมือ เครื่องมือก่อสร้าง bosch, makita, fion star, koche', niko",
        "emails": [
            "sale.siamdiy@gmail.com"
        ],
        "id": "812599768812524",
        "location": {
            "city": "กรุงเทพ",
            "street": "ไอที สแควร์",
            "zip": "10210"
        },
        "name": "เครื่องมือช่าง ขายชุดอุปกรณ์ช่างยนต์ ช่างไฟฟ้า สว่าน ประแจ เลื่อย ไขควง คีม"
    },
    {
        "about": "จำหน่าย เครื่องมือช่าง อุปกรณ์ช่าง ไฟฟ้า ประปา คาร์แคร์ ฮาร์ดแวร์",
        "emails": [
            "k-1hardware@hotmail.com"
        ],
        "id": "377374555615762",
        "name": "เครื่องมือช่าง K-1 ฮาร์ดแวร์",
        "phone": "0827150155"
    },
    {
        "about": "เครื่องสับต้นข้าวโพด ต้นกระถิน หญ้าเนเปีย",
        "emails": [
            "maiake.pr@hotmail.com"
        ],
        "id": "314561555232788",
        "location": {
            "city": "Pak Chong",
            "country": "Thailand",
            "latitude": 14.92536,
            "longitude": 101.36825,
            "street": "83/3 หมู่ 19 ต. ปากช่อง อ. ปากช่อง จ.นครราชสีมา",
            "zip": "30130"
        },
        "name": "ช่างสำเริง เครื่องสับ ปากช่อง",
        "phone": " 089-5812111   ช่างสำเริง   088-3722520  ช่างเอก"
    },
    {
        "about": "เครื่องกลึงมือสองราคาถูก เครื่องตัดพับม้วนเหล็กแผ่น",
        "description": "ขายเครื่องกลึงมือสองราคาถูกครับ\n\nเครื่องกลึงมือสอง ราคาถูก เครื่องตัด พับ ม้วน เหล็กแผ่น อุปกรณ์ช่าง มีดเล็บ k 20 มีดกลึง เม็ดมีด เวอร์เนีย ปั๊มลม ปั๊มน้ำ หัวจับ มอเตอร์ ไส ขัด เจาะ กัด เอ็นมิล ราคาถูกครับ สามารถสอบถามเข้ามาได้เลยครับ\n\nมีบริการส่งถึงที่นะครับ \n\nลองติดต่อสอบถามเข้ามาได้ ไม่ซื้อไม่ว่ากันครับ :]\n\n0904695966 พล\n\nID line phonkub",
        "emails": [
            "phonkub@hotmail.com"
        ],
        "general_info": "เครื่องกลึงมือสอง ราคาถูก เครื่องตัด พับ ม้วน เหล็กแผ่น อุปกรณ์ช่าง มีดเล็บ k 20 มีดกลึง เม็ดมีด เวอร์เนีย ปั๊มลม ปั๊มน้ำ หัวจับ มอเตอร์ ไส ขัด เจาะ กัด เอ็นมิล ราคาถูกครับ สามารถสอบถามเข้ามาได้เลยครับ\n\nมีบริการส่งถึงที่นะครับ ",
        "id": "658373747576759",
        "location": {
            "city": "Nakhon Pathom",
            "country": "Thailand",
            "street": "พุทธมณฑลสาย 7 ถ.ปิ่นเกล้า-นครชัยศรี",
            "zip": "73220"
        },
        "name": "เครื่องกลึงมือสอง ราคาถูก เครื่องตัดพับม้วน เหล็กแผ่น อุปกรณ์ช่าง มีดเล็บ",
        "phone": "0869789296"
    },
    {
        "about": "ขายอุปกรณ์ทำเครื่องหนัง เครื่องมือทำกระเป๋า\nสนใจติดต่อ:\nLine ID :nachayo \nLine shop :https://shop.line.me/app/shop/end?shopId=115896\nTel:0842737159",
        "id": "1625968060960608",
        "name": "ร้านเครื่องมือช่างหนัง-ขายอุปกรณ์เครื่องหนังทำมือ เครื่องมือทำกระเป๋า"
    },
    {
        "about": "เครื่องมือช่างแท้คุณภาพดี จากร้านค้าตัวเอง ที่ตั้งอยู่ย่านคลองถม",
        "id": "114687648864057",
        "location": {
            "city": "Bangkok",
            "country": "Thailand",
            "latitude": 13.7404404,
            "longitude": 100.5115509,
            "street": "970/23 ถนนเจริญกรุง แขวงตลาดน้อย เขตสัมพันธวงศ์",
            "zip": "10100"
        },
        "name": "เครื่องมือช่าง Mptshop",
        "phone": "022330231,0876929984"
    },
    {
        "about": "กำไลหางช้าง แหวนหางช้าง เครื่องประดับจากหางช้าง",
        "description": "จำหน่ายกำไลหางช้าง แหวนหางช้าง เครื่องประดับจากหางช้าง งาช้าง และเครื่องลางมงคลอื่นๆที่เกี่ยวข้อง จากแหล่งสุรินทร์ งานฝีมือสวยศิลป์ครับ สนใจสอบถามได้ครับที่เบอร์ 095-997-8988 line : chokunz-wattanasit",
        "id": "541961765926988",
        "name": "แหวนหางช้าง กำไลหางช้าง เครื่องประดับจากสุรินทร์"
    },
    {
        "about": "ขายและรับพรีออร์เดอร์เครื่องมือช่างหนังนำเข้า ราคาไม่แพง Tel.0989282822 Line atomth14.\n",
        "description": "เราเครื่องมือช่างหนังของเราได้จดทะเบียนพาณิชย์อิเล็กทรอนิกส์อย่างถูกต้องตามกฎหมาย หากท่านสนใจสามารถเลือกดูสินค้าจากอัลบั้ม \"รายการเครื่องมือช่างหนังนำเข้าจาก JAPAN, IVAN\" จะมีรายละเอียดสินค้าและราคาบอกอยู่ และถ้าสนใจสินค้าตัวไหนสามารถสั่งผ่านทาง Inbox line:atomth14 หรือ Website ได้ทุกช่องทาง Tel.0989282822 ",
        "emails": [
            "info@siamcrafttools.com"
        ],
        "id": "915320968488575",
        "location": {
            "city": "Line atomth14.",
            "street": "Siamcrafttools.com"
        },
        "name": "Siamcrafttools เครื่องมือช่างหนังนำเข้าราคาถูก",
        "phone": "0989282822"
    },
    {
        "about": "ร้านเครื่องมือช่าง THETOOLMART www.toolmartonline.com | Tel: 053-441-111,09-1478-5190 | EMAIL: thetoolmart@gmail.com l LINE ID:thetoolmart",
        "description": "ชื่อจดทะเบียนการค้า บริษัท ทูลโปรเฟสชั่น จำกัด\n\nทะเบียนการค้าเลขที่ 0-5055-55007-72-3\n\nเดอะ ทูลมาร์ท หรือ THETOOLMART ร้านค้า online ทางเครื่องมือช่างและเครื่องมือช่วยเหลือต่างๆ เราพร้อมบริการทั้งในรูปแบบ online และหน้าร้าน สองสาขาคือ แม่เหี๊ยและ มีโชค บริหารโดย บริษัท ทูลโปรเฟสชั่น จำกัด",
        "emails": [
            "thetoolmart@gmail.com"
        ],
        "id": "184213155013154",
        "location": {
            "city": "Ban Hang Dong",
            "country": "Thailand",
            "latitude": 18.732265251665,
            "longitude": 98.951734981232,
            "street": "177",
            "zip": "50230"
        },
        "name": "Toolmartonline.com(เครื่องมือช่าง)",
        "phone": "OFFICE : 053 441 111    SELL : 091 478 5190   SERVICE :091 478 5191   ACCOUNTING : 053 430 432"
    },
    {
        "about": "เครื่องมือช่างมือถือ",
        "id": "1376889415900471",
        "name": "เครื่องมือช่างมือถือ"
    },
    {
        "about": "จำหน่ายเครื่องมือช่างคุณภาพสูง สำหรับช่างทุกแผนก\nhttp://pktool.lnwshop.com/",
        "description": "เครื่องมือช่าง คุณภาพสูง",
        "emails": [
            "pasinm@hotmail.com"
        ],
        "id": "667186079964927",
        "location": {
            "street": "1/49 ถนนพระยาสุเรนทร์ 39 แขวงสามวาตะวันตก เขตคลองสามวา กทม. 10510",
            "zip": "10510"
        },
        "name": "พระนคร เครื่องมือช่าง",
        "phone": "081-2054317"
    },
    {
        "about": "*คลับคนรักเครื่องเสียงรถยนต์*\n\nConcept club \u0026 PN Caraudio ",
        "id": "577083162329603",
        "location": {
            "city": "Chanthaburi",
            "country": "Thailand",
            "street": "สอยดาว",
            "zip": "22180"
        },
        "name": "ชมรมคนรักเครื่องเสียงรถยนต์  ทับช้างรถซิ่ง จันทบุรี",
        "phone": "0848924820"
    },
    {
        "about": "ขาย เครื่องมือ อุปกรณ์ที่จำเป็นสสำหรับช่างยนต์",
        "emails": [
            "kim_sirapob@hotmail.com"
        ],
        "id": "465405790269389",
        "location": {
            "city": "ภูเก็ต",
            "street": "108/201 หมู่ 5  ต รัษฎา อ เมือง",
            "zip": "83000"
        },
        "name": "อุปกรณ์เครื่องมือช่างยนต์",
        "phone": "0945959630"
    },
    {
        "about": "โรงงานผู้ผลิต ตัวแทนจำหน่าย ขาย ส่ง-ปลีก",
        "id": "528198630624765",
        "location": {
            "city": "Khonkean",
            "country": "Thailand",
            "street": "86/62-63 ถ.ประชาสโมสร",
            "zip": "40000"
        },
        "name": "เครื่องหยอดข้าวแห้ง ช้างทอง เครื่องเกษตร ขอนแก่น",
        "phone": "0885575675"
    },
    {
        "id": "1645619122320684",
        "location": {
            "city": "Nonthaburi",
            "country": "Thailand",
            "latitude": 13.8700933,
            "longitude": 100.5095749,
            "street": "11",
            "zip": "11150"
        },
        "name": "เครื่องมือ ช่าง",
        "phone": "0897600959"
    },
    {
        "about": "ผลิต จำหน่าย ขาย เครื่องเลื่อยสายพาน สำหรับงานไม้ รับออกแบบและผลิตเครื่องเลื่อยสายพาน ",
        "id": "416448401788645",
        "location": {
            "city": "Srakeo",
            "country": "Thailand",
            "latitude": 13.514450853703,
            "longitude": 102.17599251317,
            "street": "28ก. หมู่1 ต.วังน้ำเย็น อ.วังน้ำเย็น จ.สระแก้ว",
            "zip": "27210"
        },
        "name": "เครื่องเลื่อยสายพาน สยามการช่างการเกษตร",
        "phone": "0879767210 "
    },
    {
        "about": "จำหน่าย เครื่องจักรกลการเกษตร เครื่องตัดหญ้า เครื่องพ่นยา \nโทร 089-8529898\nLINE ID : 0898529898",
        "description": "สนใจสอบถามเข้ามาได้นะครับ\nสินค้าเราจัดส่งได้ทั่วประเทศ\n",
        "id": "566796953385382",
        "location": {
            "city": "อ.แม่จัน จ.เชียงราย"
        },
        "name": "ติยะจักรกล จำหน่าย เครื่องตัดหญ้า ปั้มน้ำ เครื่องมือช่าง เชียงราย",
        "phone": "053-771258"
    },
    {
        "about": "ติดต่อ Tel  :  086-4912493  , 084-9994586",
        "description": "1.ชำระเงินโดย โอนเงินเข้าบัญชี (โอนที่ตู้ ATM หรือ โอนที่ธนาคาร) \n\nหากเลือกชำระเงินแบบโอนเงิน หลังจากกดสั่งซื้อ ท่านจะได้ E-mail เพื่อยืนยันคำสั่งซื้อสินค้า กรุณาตรวจสอบยอดโอนเงินทาง Email อีกครั้ง ท่านสามารถชำระเงินค่าสินค้าโดยโอนเงินเข้าหมายเลขบัญชีของบริษัทดังนี้ \n\nชื่อบัญชี  หจก.เซาท์เทิร์น ไลท์ มาร์เก็ตติ้ง\n  -  กสิกรไทย   สาขาหาดใหญ่ใน  เลขที่ 402-2-67596-1 ออมทรัพย์ \n  -  กรุงเทพ     สาขาหาดใหญ่ใน  เลขที่ 562-0-56521-7 ออมทรัพย์ \n  -  กรุงไทย     สาขาหาดใหญ่ใน  เลขที่ 368-0-39690-2 ออมทรัพย์ \n  -  ทหารไทย  สาขาหาดใหญ่   เลขที่ 488-2077052 ออมทรัพย์ ชื่อบัญชี สาวิตรี  หลาหวัน (กรณีไม่เอาบิลภาษี)\n\nค่าขนส่งสินค้า\n\n-  คิดค่าขนส่งตามระยะทางเเละน้ำหนักของสินค้า เริ่มต้นตั้งเเต่ 50-200 บาท\n\nหมายเหตุ: สินค้าบางชนิดอาจมีค่าขนส่งเพิ่มเติม โดยจะมีข้อมูลแจ้งไว้ที่หน้าสินค้านั้นๆ\nระยะเวลาในการจัดส่ง\n\n- กำหนดสถานที่จัดส่งสินค้าเป็นบ้านที่อยู่อาศัย ท่านจะสามารถได้รับสินค้าภายใน \n1 – 3 วัน โดย logistic nim\n- และในกรณีเป็นลูกค้าต่างจังหวัด ท่านจะสามารถได้รับสินค้าภายใน 3 -5 วันทำการ \nโดย บริษัท ไปรษณีย์ไทย \n\nหมายเหตุ: ช่วงเวลาทำการจัดส่งสินค้าของห้าง ฯ  คือ จันทร์-เสาร์ เวลา 8:30 – 18:00 น.\n\nการตรวจสอบสถานะการจัดส่งสินค้า (track order)\n\nสามารถตรวจสอบสถานะการจัดส่งสินค้าของท่านได้โดยการติดต่อเจ้าหน้าที่ทาง\nCall Center 086-4912493 หรือ e-Mail:  s_lm88888@hotmail.com \n\nการยกเลิกการสั่งซื้อ\n\nลูกค้าสามารถยกเลิกการสั่งซื้อได้ก่อนทำการชำระเงิน โดยให้ติดต่อเจ้าหน้าที่ \n\nห้างหุ้นส่วนจำกัด เซาท์เทิร์น ไลท์ มาร์เก็ตติ้ง\t\t\t\t\t\t\t\n417  หมู่ 2  ถ.สนามบิน-ลพบุรีราเมศวร์  ต.ควนลัง  อ.หาดใหญ่  จ.สงขลา 90110\t\t\t\t\t\t\t\n\nTel  :  074-257250-1  , 086-4912493  \nFax : 074-253502\t\t\t\t\t\t\t\nLINE ID : sa9994586  \n\n\n\n",
        "emails": [
            "s_lm88888@hotmail.com"
        ],
        "id": "445139415523969",
        "location": {
            "city": "Songkhla",
            "country": "Thailand",
            "latitude": 7.0152,
            "longitude": 100.39974,
            "street": "417  หมู่ 2  ถ.สนามบิน-ลพบุรีราเมศวร์  ต.ควนลัง  อ.หาดใหญ่  จ.สงขลา",
            "zip": "90110"
        },
        "name": "ขายเครื่องมือช่างราคาถูก",
        "phone": "074-257250-1 , 086-4912493"
    },
    {
        "about": "ศูนย์รับซ่อมเครื่องออกกำลังกาย ",
        "description": "-รับซ่อม เครื่องออกกำลังกาย ทุกประเภท ทุกยี่ห้อ  เช่น  STAR TRAC, JOHNSON , SLIMMATE, IMPACT, G-SPORT ,AIKO ,ALTA ,JACKY, OMA, ALTROM SPORT , MATRIX, VISION, LIVESTRONG, HORIZON, TREO, และ TEMPO , MARATHON , STEEL FLEX, SPORTOP, HEALTH STREAM, Body Solid, PUSE Fitness, Fit Plus Protcus, Body Fit และอื่น ๆ อีกมากมาย \n-รับ Maintenance เครื่องออกกำลังกาย ที่บ้าน ฟิตเนส สำนักงาน ต่าง ๆ\n-ขายเครื่องออกกำลังใหม่ - มือสอง ราคาถูก\n-จำหน่ายอะไหล่ - ดัดแปลงอะไหล่ เครื่องซ่อมเครื่องออกกำลังกาย\n-ให้คำแนะนำ ปรึกษาเกี่ยวกับเครื่องออกกำลังกาย ฟรี\n\n\nExercise Machine Repair \u0026 Maintenance Services\n\nOur expertise includes on-site repair of treadmills, electronic control panels and motors from all brands including Brands Brands throughout Bangkok and Thailand.\nCommercial customers including Health Clubs \u0026 Fitness Centres, Work places, Recreation Centres, Military, Hotels / Resorts / Apartments, Government, Schools, Emergency Services are welcome to discuss our \"Scheduled Maintenance\" service which guarantees trouble free operations all year round.\nCall us now to discuss your specific requirements with one of our \"Expert Fitness Machine Consultants free of charge.\n",
        "emails": [
            "pongservices@hotmail.com"
        ],
        "general_info": "มั่นใจในสินค้าและบริการของเราได้โดยช่างผู้ชำนาญการโดยตรง\nราคาเริ่มต้นที่ 500 บาทเท่านั้น",
        "id": "306766762715384",
        "location": {
            "city": "Bang Phli",
            "country": "Thailand",
            "latitude": 13.647672058671,
            "longitude": 100.66065215302,
            "street": "9/102 หมู่บ้านสุริยา เพอร์เฟค ซ.พัฒนาชุมชน 2 ถ.ศรีนครินทร์-บางนา ต.บางแก้ว อ.บางพลี",
            "zip": "10260"
        },
        "name": "ช่างป๋อง รับซ่อมเครื่องออกกำลังกาย ทุกชนิด ทุกยี่ห้อ",
        "phone": "0847238284 (AIS) ,0897834606 (DTAC), โทรศัพท์/แฟกซ์ 0-2175-5817"
    },
    {
        "id": "165107840346904",
        "location": {
            "city": "Muang Kalasin",
            "country": "Thailand",
            "latitude": 16.63204,
            "longitude": 103.24449,
            "street": "อำเภอ ห้วยเม็ก  จ.กาฬสินธุ์",
            "zip": "46170"
        },
        "name": "เครื่องผสมอาหารสัตว์สัมฤทธิ์การช่าง",
        "phone": "081-7088504"
    }
]