[
    {
        "id": "783602955021489",
        "name": "เครื่องดื่มสมุนไพรตราต้นหยกสามช้างสนใจโทร .0983394653"
    },
    {
        "about": "เครื่องเสียงรถยนต์",
        "id": "392121487591592",
        "name": "ร้านช่างยอด จำหน่ายอุปกรณ์เครื่องเสียงและประดับยนต์"
    },
    {
        "general_info": "รับซ่อม สว่าน ,หินเจียร ,แท่นตัดไฟเบอร์ ,เครื่องสกัดปูน จี้ปูน ,เครื่องเลื่อยไม้ ,วงเดือน ,เลาเตอร์ ,จิ๊กซอร์ ,\nขัดกระดาษทราย ,เครื่องมือไฟฟ้าทุกชนิด ,รับพันทุ่น AC-DC ,รับตั้งบาลานท์ (ตั้งศูนย์ทุ่น)",
        "id": "348877328589445",
        "location": {
            "city": "Nonthaburi",
            "country": "Thailand",
            "latitude": 13.87534331,
            "longitude": 100.42956736,
            "street": "58/1 หมู่ 1 ถนนรัตนาธิเบศร์ ตำบลบางรักใหญ่ อำเภอบางบัวทอง",
            "zip": "11110"
        },
        "name": "วิรัช การช่าง-รับซ่อมเครื่องมือช่างทุกชนิด",
        "phone": "0914650940"
    },
    {
        "id": "158356900867348",
        "name": "ช่างประจำเครื่อง"
    },
    {
        "about": "จำหน่าย เครื่องมือช่าง อุปกรณ์เซฟตี้ อุปกรณ์ก่อสร้าง และ อุปกรณ์เรือเดินทะเล ทุกชนิด",
        "description": "ตัวแทนนำเข้าและจำหน่ายอุปกรณ์เครื่องมือช่าง อุปกรณ์เซฟตี้ อุปกรณ์ก่อสร้าง และ อะไหล่เรือเดินทะเลทุกฃนิด หลากหลายยี่ห้อ อาทิเช่น Stanley,Bosch,Dewalt,Makita เป็นต้น",
        "emails": [
            "smr_marine@hotmail.com"
        ],
        "id": "260028914137076",
        "location": {
            "city": "Rayong",
            "country": "Thailand",
            "latitude": 12.670410768956,
            "longitude": 101.27500887299,
            "street": "38/73-74 หมู่.6 ต.บ้านฉาง อ.บ้านฉาง",
            "zip": "21130"
        },
        "name": "smr-marine เครื่องมือช่าง",
        "phone": "038-600767,086-8217315"
    },
    {
        "about": "เครื่องมือช่าง",
        "id": "1437051646600952",
        "location": {
            "city": "Amphoe Hat Yai",
            "country": "Thailand",
            "latitude": 7.0064425,
            "longitude": 100.4724731,
            "street": "77-79 ประชาธิปัตย์",
            "zip": "90110"
        },
        "name": "เครื่องมือช่างทอง",
        "phone": "0937954143"
    },
    {
        "about": "เครื่องมือช่าง ปลีก - ส่ง ราคาถูก ทั้งใหม่และมือสอง พร้อมจัดส่ง",
        "id": "540620909309540",
        "name": "เครื่องมือช่าง"
    },
    {
        "about": "ราคาโดนๆถูกใจ\nline id. yakuza1977\n095-4930632 เหม่ง...โอนปุ๊บส่งปั๊ป..เงินมาปัญหาหมด..กลัวมาที่ร้านรับกับมือ",
        "id": "1570856779822359",
        "name": "เครื่องมือช่างราคาส่ง ท๊อปคลองถม"
    },
    {
        "about": "http://www.itti-patihan.com/ประวัติ-หลวงปู่ทวด-เหยียบน้ำทะเลจืด-วัดช้างให้.html",
        "id": "498059300274516",
        "name": "หลวงปู่ทวด วัดช้างไห้ ประวัติและพระเครื่อง"
    },
    {
        "about": "สินค้าคุณภาพ ในราคาที่ถูกกว่า\nhttp://the-best.lnwshop.com/ ",
        "description": " http://the-best.lnwshop.com/ \n         The-Best tools ได้ร่วมมือกับร้านค้าอุปกรณ์/เครื่องมือไฟฟ้าชั้นนำทั่วภาคเหนือ ในการเป็นตัวแทนจำหน่ายสินค้า  เสมือนเป็นสะพานเชื่อมส่งผ่านสินค้าที่มีคุณภาพเต็ม100%จากคลังสินค้าของเรา ไปอยู่ในมือของท่าน  ท่านจึงซื้อสินค้าได้ในราคาจากศูนย์กระจายสินค้า(ราคาโรงงาน) เพื่อให้การค้าเป็นไปตามจุดมุ่งหมาย คือ เพื่อให้ท่านได้สินค้าคุณภาพดีในราคาที่ถูกกว่า\nthe BEST PRICE,\nthe BEST PRODUCT\nfor your BEST WORK !!",
        "id": "612365602153020",
        "name": "The-Best เครื่องมือช่าง เครื่องมือไฟฟ้า เครื่องมือการเกษตร"
    },
    {
        "id": "1551723985088061",
        "location": {
            "city": "Bangkok",
            "country": "Thailand",
            "latitude": 13.7522,
            "longitude": 100.494,
            "street": "561 แยก6 ซอยสุขสวัสดิ์ 26 แขวงบางปะกอก เขตราษฏร์บูรณะ",
            "zip": "10140"
        },
        "name": "เครื่องมือช่างราคาถูก แท้ ดี Ampservice",
        "phone": "024279949"
    },
    {
        "id": "236503096556853",
        "location": {
            "city": "Bangkok",
            "country": "Thailand",
            "latitude": 13.55952,
            "longitude": 100.51878,
            "street": "สมุทรปารการ",
            "zip": "10290"
        },
        "name": "รวมช่างเครื่องเสียง ร้านมุกดาประดับยนต์",
        "phone": "0990524219"
    },
    {
        "about": "สินค้าดี มีคุณภาพ ราคาถูก",
        "id": "650130938374961",
        "name": "เครื่องมือช่าง น็อต สกรู กิ๊ปรถยนต์"
    },
    {
        "about": "3 ซ.วิวัฒน์เวียง ถ.หมาจักร แขวง/เขต สัมพันธ์วงศ์ กทม.10100 \n\nTel : 02-622-8302  \n      : 094-553-5653\nFax : 02-622-8302\nLine ID : Poom46499",
        "description": "ร้านเอกสถาพร ขายเครื่องมือช่างทุกชนิด ช่างไม้ ช่างเหล็ก อุปกรณ์ซ่อมรถ อุปกรณ์ตกแต่งสวน ปั๊มน้ำ ไดโว่ รอก เครื่องมือเจาะ เครื่องขัดกระดาษทราย และอุปกรณือื่นๆเช่น กระทาษทราย ใบเลื่อยจิ๊กซอว์ รวมทั้งเครื่องมือต่างๆที่ใช้ในโรงงาน และไซส์งานก่อสร้าง         และด้วยราคาที่ย่อมเยา จึงเป็นที่ไว้วางใจ มามากกว่า 10 ปี ในคลองถม แถมพ่อค้า แม่ค้าใจดีด้วยครับ\n\n-ติดต่อได้ที่ 081-581-1065\n-line: panupun45710\n-email: babe_ac129@hotmail.com\n-whatapps: 0815811065",
        "id": "201386913362048",
        "name": "เอกสถาพร : เครื่องมือช่าง เครื่องมือซ่อมรถ เครื่องมือไฟฟ้า คลองถม"
    },
    {
        "about": "ขายไม้เก่า เครื่องมือช่าง ของมือสอง อื่นๆ",
        "id": "584389608252799",
        "name": "สินค้ามือสอง และเครื่องมือช่างทุกชนิดถูกๆ"
    },
    {
        "id": "175449022493424",
        "name": "ช่างเครื่องเย็น"
    },
    {
        "id": "825076694194345",
        "location": {
            "city": "สุพรรณบุรี",
            "street": "461/1 ม.1 ต.ด่านช้าง อ.ด่านช้าง จ.สุพรรณบุรี",
            "zip": "72180"
        },
        "name": "เครื่องประดับจากเศษทองโดยช่างทองเยาวราช"
    },
    {
        "about": "รับติดตั้ง แก้ไขจานดาวเเทียมทุกยี่ห้อ รับซ่อมเครื่องใช้ไฟฟ้าทุกชนิด",
        "id": "801264913324108",
        "location": {
            "city": "Amphoe Kaset Wisai",
            "country": "Thailand",
            "street": "387หมู่2 ตำบลเกษตรวิสัย",
            "zip": "45150"
        },
        "name": "ช่างป้อ บริการซ่อมเครื่องใช้ไฟฟ้าครับ",
        "phone": "0834187136"
    },
    {
        "about": "จำหน่ายเครื่องมือช่างออนไลน์\nราคาพิเศษ พร้อมจัดส่งทั่วประเทศ\nT0813243990",
        "id": "663809910364584",
        "location": {
            "city": "Chiang Mai",
            "country": "Thailand",
            "latitude": 18.12986,
            "longitude": 98.48496,
            "street": "ภาคเหนือ529/4",
            "zip": "50240"
        },
        "name": "เครื่องมือช่าง กิจเจริญ",
        "phone": "0813243990"
    },
    {
        "about": "จำหน่ายเครื่องมือช่าง จากญี่ปุ่น",
        "description": "จำหน่ายวัสดุอุปกรณ์เครื่องมือราคากันเอง",
        "emails": [
            "the_vut@yahoo.com"
        ],
        "id": "111426662285229",
        "location": {
            "city": "Bangkok",
            "country": "Thailand",
            "latitude": 13.7696142,
            "longitude": 100.6704407,
            "street": "รามคำแหง",
            "zip": "10510"
        },
        "name": "ศูนย์รวมเครื่องมือช่างรามคำแหง 186",
        "phone": "0859973113"
    },
    {
        "about": "ร้านทำเครื่องเสียงที่ดีที่ในประเทศไทยต้องช่างโบ้แอร์\u0026ซาวด์เท่านั้น",
        "id": "468838423292797",
        "name": "ร้านทำเครื่องเสียงติดรถยนต์ ช่างโบ้แอร์\u0026ซาว นครราชสีมา"
    },
    {
        "about": "ราคาคลองถมจ้ะ",
        "description": "เครื่องมือช่าง เครื่องมือไฟฟ้า สว่าน หินเจีย ไฟเบอร์ ชุดบ็อค คีมหลายยี่ห้อ สายพ่วงแบต ปั๊มลม MAKITA MAKTEC HITACHI BOSCH ♥♥",
        "id": "574516772584185",
        "location": {
            "city": "Bangkok",
            "country": "Thailand",
            "latitude": 13.70517849,
            "longitude": 100.36091997,
            "street": "5/1 ซ.เพชรเกษม 77 ถ.เพชรเกษม แขวงหนองค้างพลู เขตหนองแขม",
            "zip": "10160"
        },
        "name": "เจริญสุข จำหน่ายเครื่องมือช่าง สว่าน หินเจีย ไฟเบอร์",
        "phone": "092-081-6861,084-317-9301"
    },
    {
        "about": "Pck Tool\nรวมวัสดุอุปกรณ์และเครื่องมือช่าง\nสอบถามสินค้า 08-7506-5997",
        "id": "599436716765920",
        "name": "ขายเครื่องมือช่างราคาถูก PCK"
    },
    {
        "about": "ขายส่ง เครื่องมือเกษตร เครื่องมือช่าง",
        "id": "591701244300340",
        "name": "ขายส่ง เครื่องมือเกษตร/เครื่องมือช่าง"
    },
    {
        "about": "จำหน่ายแม่แรงไฮดรอลิค  หรือแม่แรงใช้ในอุตสาหกรร ทั่วไป และอุปกรณ์เครื่องมือช่าง อื่นๆ\n",
        "description": "บริษัท จำหน่ายแม่แรง เช่นแม่แรงตะเข้ แม่แรง100ตัน แม่แรงยกเกียร์ แม่แรงกระปุก เป็นต้น นอกจากจะมีแม่แรง ยังมีอุปกรณ์ และเครื่องมือช่าง จำหน่ายด้วย สำหรับแม่แรง เรายังมีบริการ รับซ่อม ถ้าเป็นแม่แรงขนาดใหญ่ มีรถวิ่งรับส่ง (ในเขตกรุงเทพและปริมลทล ",
        "emails": [
            "kspowertools@hotmail.com"
        ],
        "id": "378034978945084",
        "location": {
            "city": "bankok",
            "street": "บางซื่อ",
            "zip": "10800"
        },
        "name": "เค.เอส.อุปกรณ์เครื่องมือช่าง",
        "phone": "0800892106"
    }
]