[
    {
        "about": "ซ่อมครื่องซักผ้า  ทีวี-ดาวเทียม\nตู้เย็น  เครื่องชั่นนำทุกยี้ห้อ\n   092-719-9933\n",
        "description": "ซ่อมครื่องซักผ้า ทีวี-ดาวเทียม\nตู้เย็น เครื่องชั่นนำทุกยี้ห้อ\n092-719-9933",
        "id": "650387065000426",
        "name": "ช่างซ่อมเครื่องเสียงทุกชนิด"
    },
    {
        "id": "117933748355002",
        "location": {
            "latitude": 17.057392647059,
            "longitude": 104.256485
        },
        "name": "ร้านเครื่องเสียงนัฐพงษ์ซาวด์ (ช่างเขียว)"
    },
    {
        "about": "จำหน่ายอุปกรณ์เครื่องใช้ในอู่ทุกชนิด \nลิฟท์ยกรถตู้อบพ่นสี. และอื่นๆอีกมากมาย",
        "id": "412325028960828",
        "name": "เครื่องมือช่างราคาเบาๆ"
    },
    {
        "about": "ล่ามช้างพระเครื่อง",
        "description": "ล่ามช้างพระเครื่อง ศูนย์พระใหม่ เครื่องรางของขลัง กุมารทอง เทียนบูชาตำรับล้านนา สายบน สายล่าง และมีพระใหม่มากที่สุดในจังหวัดเชียงใหม่ พระใหม่เปิดจองของทุกวัดทั่วประเทศ ทุกภาค ทุกจังหวัด ทางร้านยินดีจัดส่ง ทั้งใน และต่างประเทศ \nตอนนี้เรามีสาขา 2 อยู่ที่กรุงเทพ ซ.นวมินทร์ 81 \nยินดีให้บริการครับ 0858636181 เชียงใหม่ 0802851305 กรุงเทพ\nhttp://lamchangamulet.blogspot.com/",
        "emails": [
            "lamchang999@gmail.com"
        ],
        "id": "319258651458375",
        "location": {
            "street": "70/115 ซ.นวมินทร์81",
            "zip": "10240"
        },
        "name": "ล่ามช้างพระเครื่อง กรุงเทพฯ",
        "phone": "080-285-1305"
    },
    {
        "about": "เครื่องมือช่างมือสอง",
        "id": "1567167746843476",
        "name": "เครื่องมือช่าง"
    },
    {
        "about": "เครื่องมือช่างที่เน้นคุณภาพคุ้มค่ากับราคา",
        "id": "1029845930378320",
        "name": "เครื่องมือช่าง"
    },
    {
        "about": "เครื่องมืองานช่าง",
        "description": "เครื่องมืองานช่างไม้ ช่างเหล็ก ช่างปูน ช่างประปา ช่างหลังคา เช่น ค้อน เลื่อย สว่าน เครื่องเจียร แผ่นตัด ตลับเมตร ลูกบิด ก็อกน้ำ ฯลฯ สินค้าคุณภาพ STANLEY, RMI, Maktec, Champion, KDS, TOA, GOLDSEAL และเครื่องใช้ภายในบ้าน งานสแตนเลส VRH และ HOY ",
        "id": "593388904051329",
        "name": "Tools เครื่องมือช่าง"
    },
    {
        "about": "เครื่องมือช่าง Maktec และ Makita",
        "id": "146857585506577",
        "name": "เครื่องมือช่าง Maktec"
    },
    {
        "about": "ซ่อมเครื่องดัดเหล็ก  ซ่อมเครื่องตัดเหล็ก",
        "id": "603131456486518",
        "location": {
            "city": "Nonthaburi",
            "country": "Thailand",
            "latitude": 13.8665152,
            "longitude": 100.4799805,
            "street": "บางใหญ่",
            "zip": "11140"
        },
        "name": "ช่างตี๋ เครื่องดัดเหล็ก",
        "phone": "083-0606-822"
    },
    {
        "about": "เครื่องอัดขยะ เศษวัสดุเอนกประสงค์ ",
        "description": "รับประกอบเครื่องอัดขยะเอนกประสงค์ ราคาประหยัด สำหรับธุรกิจรับซื้อของเก่า ตามขนาดที่ต้องการ โดยช่างที่มีความชำนาญ ",
        "id": "632372466903103",
        "location": {
            "city": "Suphan Buri",
            "country": "Thailand",
            "latitude": 14.4667,
            "longitude": 100.117,
            "street": "81/3 หมู่ 10 ต.หนองมะค่าโมง อ.ด่านช้าง"
        },
        "name": "เครื่องอัดขยะและวัสดุเอนกประสงค์ มานะการช่าง",
        "phone": "092 937 7987 , 061 460 5618"
    },
    {
        "about": "รับซ่อมติดตั้ง ล้างตรวจเช็ค แอร์บ้าน",
        "id": "130543063763958",
        "name": "ช่างวันชาติเครื่องเย็น"
    },
    {
        "about": "ขาย เครื่องมือช่าง+อะไหลมอไซค์จุกจิก เล็กๆ น้อย ครับ",
        "id": "563198063794950",
        "name": "เครื่องมือช่าง-อะไหล่มอไซค์"
    },
    {
        "about": "จำหน่ายเครื่องสีข้าวทุกรุ่น ทุกขนาด ทั้งปลีกและส่ง  ในราคากันเอง",
        "description": "จำหน่ายเครื่องสีข้าวทุกรุ่น ทุกขนาด รับหล่อ แลก-เปลี่ยนลูกหิน รับแลกเปลี่ยนเครื่องสีข้าวเก่า ทุกรุ่น ทุกขนาด ทั้งปลีกและส่ง ในราคาเป็นกันเอง ",
        "emails": [
            "kumjaung@gmail.com"
        ],
        "id": "414033662010765",
        "location": {
            "city": "Yasothon",
            "country": "Thailand",
            "street": "เลิงนกทา",
            "zip": "35120"
        },
        "name": "เครื่องสีข้าว จวงการช่าง",
        "phone": "0819778894"
    },
    {
        "id": "528299040611480",
        "location": {
            "city": "Kalasin",
            "country": "Thailand",
            "latitude": 16.63204,
            "longitude": 103.24449,
            "street": "Kalasin,Thailand",
            "zip": "46170"
        },
        "name": "เครื่องผสมอาหารสัตว์ ประดิษฐ์การช่าง",
        "phone": "0862366117"
    },
    {
        "id": "512006432291354",
        "name": "ช่างซ่อมเครื่อง cummins ทุกรุ่น"
    },
    {
        "id": "814061268643110",
        "location": {
            "city": "Bangkok",
            "country": "Thailand",
            "latitude": 13.75395,
            "longitude": 100.50224,
            "street": "66/115 ต.บางบัวทอง อ.บางบัวทอง จ.นนทบุรี"
        },
        "name": "ขาย ลิฟท์ยกรถ/เครื่องถอดยาง/ลิฟท์สี่เสา/ละเครื่องมือช่าง/เงินสด/เงินผ่อน",
        "phone": "095-702-0892 - 02-997-5544"
    },
    {
        "about": "จำหน่ายเครื่องชั่ง อุปกรณ์ช่างทอง\nโทร. 0929864647\nwww.scaleplanet.com",
        "description": "ร้านจำหน่ายและรับซ่อมเครื่องชั่งทุกชนิด ไม่ว่าจะเป็นเครื่องชั่งดิจิตอล เครื่องชั่งดิจิตอลตั้งพื้น เครื่องชั่งคำนวนราคา เครื่องชั่งนับจำนวน เครื่องชั่งสปริง เครื่องชั่งแขวน เครื่องชั่งน้ำหนักบุคคล \n\nพร้อมทั้งจำหน่าย อุปกรณ์ช่างทองและเครื่องมือวิทยาศาสตร์\n\nทางร้านเราได้ตรวจเช็คสินค้าทุกชิ้นก่อนจำหน่าย ซึ่งท่านสามารถมั่นใจในคุณภาพสินค้าที่เราส่งมอบให้ได้แน่นอน\n\nโทร. 0929864647\nEmail : scaleplanet@hotmail.com\nwww.scaleplanet.com",
        "emails": [
            "scaleplanet@hotmail.com"
        ],
        "id": "666376516716693",
        "location": {
            "city": "Bangkok",
            "country": "Thailand",
            "street": "579/409 (หมู่บ้าน เดอะคอนเนค สุขสวัสดิ์ 26) พระรามที่ 2 ซอย 25แขวงบางมด เขตจอมทอง",
            "zip": "10150"
        },
        "name": "SCALE PLANET จำหน่ายเครื่องชั่ง อุปกรณ์ช่างทอง อุปกรณ์วิทยาศาสตร์",
        "phone": "0929864647"
    },
    {
        "about": "ติดตั้งระบบไฟฟ้า ระบบเครื่องปรับอากาศ   ประกอบตู้คอนโทรล",
        "id": "775684092513935",
        "location": {
            "city": "Lamphun",
            "country": "Thailand",
            "latitude": 18.53688,
            "longitude": 99.07746,
            "street": "245/6 หมู่6 ต.บ้านกลาง อ.เมือง จ.ลำพูน",
            "zip": "51000"
        },
        "name": "ช่างวุฒิ รับเหมาติดตั้งระบบเครื่องปรับอากาศ ติดตั้งระบบไฟฟ้า 082-1920849",
        "phone": "0821920849"
    },
    {
        "emails": [
            "prenitec@hotmail.com"
        ],
        "id": "819745298060957",
        "location": {
            "street": "29/90-92 หทัยราษฎร์ 39 เขตคลองสามวา แขวงสามวาตะวันตก กทม. 10510",
            "zip": "10510"
        },
        "name": "เครื่องเชื่อม เครื่องเจียร์ และ อุปกรณ์เครื่องมือช่างต่างๆ",
        "phone": "0900103930"
    },
    {
        "about": "จำหน่ายอุปกรณ์และเครื่องมือช่าง นำเข้าจากต่างประเทศ",
        "id": "1600837203523851",
        "name": "OK เครื่องมือช่าง"
    },
    {
        "about": "จัดจำหน่ายเครื่องจักรทุกชนิด \n",
        "description": "เครื่องมือช่างต่างๆ ปั้มน้ำ เครื่องจักรต่างๆราคาถูกๆ มีของพร้อมจัดส่งพร้อมอุปกรณ์ช่าง และวัสดุช่างทุกชนิดครับ",
        "emails": [
            "doungojj@gmail.com"
        ],
        "id": "1486514331629835",
        "name": "เครื่องมือช่างและปั้มน้ำต่างๆราคาถูกๆครับ",
        "phone": "086-5042141"
    },
    {
        "id": "466504283369149",
        "location": {
            "city": "Samutpraken, Thailand",
            "street": "sukumvit 107 rd.",
            "zip": "10270"
        },
        "name": "เครื่องมือช่าง สินค้ามือสอง แฟชั่น เสื้อผ้า ของใช้ทั่วไป",
        "phone": "0870986411 line ID : sketchuptalk"
    },
    {
        "id": "866601696705172",
        "location": {
            "city": "Amphoe Muang Khon Kaen",
            "country": "Thailand",
            "latitude": 16.42843061,
            "longitude": 102.84774755
        },
        "name": "แผนกวิชาเครื่องกล-ช่างยนต์ วิทยาลัยเทคนิคขอนแก่น"
    },
    {
        "about": "วัสดุก่อสร้าง",
        "id": "1386608011581253",
        "location": {
            "city": "Hat Yai",
            "country": "Thailand",
            "latitude": 6.92214,
            "longitude": 100.50832,
            "street": "4 ถ.คชรัตน์ ต.บ้านพรุ อ.หาดใหญ่ จ.สงขลา",
            "zip": "90250"
        },
        "name": "คชรัตน์ เครื่องมือช่าง",
        "phone": "0815420656"
    },
    {
        "id": "100267983452389",
        "location": {
            "city": "Nakhon Pathom",
            "country": "Thailand",
            "latitude": 13.8362845,
            "longitude": 100.032103,
            "zip": "73000"
        },
        "name": "อู่มานิตย์การช่าง เครื่องยนต์,เบรค,คลัช,ช่วงล่าง."
    }
]