[
    {
        "description": "จำหน่าย เครื่องมือช่าง เครื่องมือพิเศษ แต่งพอร์ท แยงพอร์ท ทำเสื้อ ดอกคาร์ไบท์ เจียรลม เจียรนัย ทามมิ่งไลท์ ",
        "emails": [
            "art_ragnarok@hotmail.com"
        ],
        "id": "1512905779000376",
        "location": {
            "city": "Phra Pradaeng",
            "country": "Thailand",
            "street": "สำโรงกลาง",
            "zip": "10130"
        },
        "name": "ArtService เครื่องช่าง เครื่องมือพิเศษ",
        "phone": "0891235753"
    },
    {
        "description": "บริการติดตั้ง และจำหน่ายเครื่องกรองน้ำ",
        "id": "139710869571760",
        "location": {
            "city": "Hat Yai",
            "country": "Thailand",
            "latitude": 7.0568843314075,
            "longitude": 100.48332548973,
            "street": "223 เมืองใหม่5 เยื้อง บิ๊กซีคลองแหหาดใหญ่",
            "zip": "90110"
        },
        "name": "ดี.เอ็น.รวมช่าง จำหน่ายเครื่องกรองน้ำทุกระบบ"
    },
    {
        "id": "139733346177344",
        "location": {
            "city": "Muang Sara Buri",
            "country": "Thailand",
            "latitude": 14.5242652,
            "longitude": 100.9078276
        },
        "name": "ร้านช่างสิทธิ์น้ำมันเครื่องหอม"
    },
    {
        "id": "148257658596616",
        "location": {
            "city": "Bangkok",
            "country": "Thailand",
            "latitude": 13.655278230122,
            "longitude": 100.38698052898,
            "zip": "10150"
        },
        "name": "วิจิตรเคหะภัณฑ์ จำหน่าย สี ไฟฟ้า เครื่องมือช่าง"
    },
    {
        "id": "183016115202701",
        "location": {
            "latitude": 14.481997170829,
            "longitude": 100.0584836187
        },
        "name": "บ้านเครื่องเสียง(ช่างหมู สุพรรณ)"
    },
    {
        "id": "249630978547328",
        "location": {
            "city": "Sattahip",
            "country": "Thailand",
            "latitude": 12.6604844,
            "longitude": 100.887602,
            "zip": "20180"
        },
        "name": "หมวดช่างซ่อมเครื่องยนต์ กรมโรงงานฐานทัพเรือสัตหับ"
    },
    {
        "id": "249366465242587",
        "location": {
            "city": "Pak Chong",
            "country": "Thailand",
            "latitude": 14.713083793672,
            "longitude": 101.43566674601
        },
        "name": "อู่ช่างโต แอร์ เครื่องยนต์ แก๊ส"
    },
    {
        "id": "243533659157499",
        "location": {
            "city": "Pho Ngam",
            "country": "Thailand",
            "latitude": 14.1178803,
            "longitude": 101.5016289
        },
        "name": "ร้านเครื่องเสียงช่าง - ก๊อง"
    },
    {
        "id": "229715387217054",
        "location": {
            "city": "ตราด",
            "latitude": 12.258225440979,
            "longitude": 102.55388641357,
            "street": "เนินทราย"
        },
        "name": "อู่ช่างใหญ่ ซ่อมเครื่อง ช่วงล่าง",
        "phone": "0859572154"
    },
    {
        "id": "228307414000184",
        "location": {
            "city": "Lom Sak",
            "country": "Thailand",
            "latitude": 16.729262,
            "longitude": 101.2846528
        },
        "name": "อู๋ช่างเอ็กซ์ หน้าศูนย์เครื่องมือกล"
    },
    {
        "id": "189170787948290",
        "location": {
            "city": "Phibun Mangsahan",
            "country": "Thailand",
            "latitude": 15.2443449,
            "longitude": 105.231155
        },
        "name": "บ้านช่างบอย เครื่องเสียง"
    },
    {
        "id": "186212174919660",
        "location": {
            "city": "Bangkok",
            "country": "Thailand",
            "latitude": 13.663772698505,
            "longitude": 100.27618688541
        },
        "name": "ร้านช่างอ้วน Jr แอร์\u0026ซาวด์ ติดตั้งเครื่องเสียง แอร์ ฟิล์ม"
    },
    {
        "id": "177922912343252",
        "location": {
            "city": "Bangkok",
            "country": "Thailand",
            "latitude": 13.67472784595,
            "longitude": 100.45919744307
        },
        "name": "สยามเครื่องช่าง"
    },
    {
        "id": "173448972839089",
        "location": {
            "city": "Chantaburi",
            "country": "Thailand",
            "latitude": 13.059918864509,
            "longitude": 101.82778684565,
            "street": "Wang-ii-and",
            "zip": "22160"
        },
        "name": "อู่ช่างหนุ่ม ซ่อมเครื่องยนต์ รับต่อดั้มป์หกล้อ"
    },
    {
        "id": "170750696373556",
        "location": {
            "city": "Ayutthaya",
            "country": "Thailand",
            "latitude": 14.360237145877,
            "longitude": 100.56435317125,
            "zip": "13000"
        },
        "name": "ช่างเขียนแบบเครื่องกล/วทอย."
    },
    {
        "id": "169404109874791",
        "location": {
            "city": "Bangkok",
            "country": "Thailand",
            "latitude": 13.817878,
            "longitude": 100.846674,
            "zip": "10530"
        },
        "name": "ร้านเครื่องเสียงช่างตี๋ จัดให้"
    },
    {
        "description": "อยู่บ้าน",
        "id": "168350013349991",
        "location": {
            "city": "Nakhon Sawan",
            "country": "Thailand",
            "latitude": 15.680329,
            "longitude": 100.113449
        },
        "name": "บ้านช่างเครื่องเย็น"
    },
    {
        "id": "166764653529975",
        "location": {
            "city": "Amphoe Thung Song",
            "country": "Thailand",
            "latitude": 8.21998603494,
            "longitude": 99.57441206988
        },
        "name": "แผนกบำรุงรักษาเครื่องกล บริษัทช้างแรกไบโอเพาเวอร์ จำกัด"
    },
    {
        "id": "150428445157747",
        "location": {
            "city": "Bangkok",
            "country": "Thailand",
            "latitude": 13.798177277269,
            "longitude": 100.5512422015
        },
        "name": "ห้องทดลอง,,งานทดลองเครื่องกล โรงเรียนช่างฝีมือปัญจวิทยา"
    },
    {
        "id": "145250325545664",
        "location": {
            "city": "Bangkok",
            "country": "Thailand",
            "latitude": 13.896354666667,
            "longitude": 100.50549133333,
            "zip": "11120"
        },
        "name": "ห้องช่างเครื่องมือแพทย์  รพ.ชลประทาน"
    },
    {
        "about": "รวมช่างเทคนิค ทุกชนิด ทุกอย่าง ไม่มีกีดกัน  ",
        "description": "เป็นมิตรกับสิ่งแวดล้อม",
        "id": "173572902783143",
        "location": {
            "city": "Sattahip",
            "country": "Thailand",
            "latitude": 12.7838783,
            "longitude": 100.9339766,
            "street": "Chonburi",
            "zip": "20250"
        },
        "name": "สมาคม เด็กช่างเครื่องกลเกษตร เทคนิคสัตหีบ ชษ.",
        "phone": "0888409553"
    },
    {
        "id": "167348003425000",
        "location": {
            "city": "Amphawa",
            "country": "Thailand",
            "latitude": 13.433624235,
            "longitude": 99.968448735,
            "zip": "75110"
        },
        "name": "บ้านเบญจรงค์บางช้าง เครื่องปั้นดินเผา"
    },
    {
        "id": "130037163814158",
        "location": {
            "latitude": 17.2811958,
            "longitude": 102.5986381
        },
        "name": "เปการช่างออโต้ได . .ครบเครื่องเรื่องรถยนต์"
    },
    {
        "about": "ซ่อมเครื่องยนต์ ช่วงล่าง เบรค ครัช เกียร์ ถ่ายน้ำมันเครื่อง ซ่อมกลอนประตูรถยนต์ทุกชนิด",
        "id": "699643326795214",
        "location": {
            "city": "Pathum Thani",
            "country": "Thailand",
            "latitude": 13.9336918,
            "longitude": 100.7202998,
            "street": "ลำลูกกา คลอง5 ตรงข้ามแก่ล้อโต",
            "zip": "12150"
        },
        "name": "โม่งการช่าง ซ่อมเครื่องยนต์ ช่วงล่าง คลองห้า โดยพงษ์ ลำลูกกา",
        "phone": "0894791684"
    },
    {
        "id": "468337479853460",
        "location": {
            "city": "Khonkean",
            "country": "Thailand",
            "latitude": 16.430060620909,
            "longitude": 102.86409035364,
            "zip": "40000"
        },
        "name": "Shop วิศวะเครื่องจักรกลเกษตร \u0026 ช่างกลเกษตร"
    }
]