[
    {
        "id": "1704750883079986",
        "location": {
            "city": "Bangkok",
            "country": "Thailand",
            "latitude": 13.7522,
            "longitude": 100.494,
            "street": "644 ซ ไสวสุวรรณ ถ กรุงเพ-นนท์ เขต บางซื้อ กรุงเทพ",
            "zip": "10800"
        },
        "name": "ร้านกรีการช่าง รับฉลุด้วยเครื่อง CNC",
        "phone": "025877347,0818055687"
    },
    {
        "about": "เครื่องมือช่าง",
        "description": "จำหน่ายและรับสั่งซื้อเครื่องมือช่าง ทุกชนิด\n0853655506 ส่งทุกที่ทั่วไทยครับ",
        "emails": [
            "vitz25@hotmail.com"
        ],
        "id": "1568874586703424",
        "location": {
            "city": "Surat",
            "country": "Thailand",
            "latitude": 9.1226597,
            "longitude": 99.3244705,
            "street": "สุราษฎร์ธานี",
            "zip": "84340"
        },
        "name": "ออโต้เครื่องมือช่าง",
        "phone": "0853655506"
    },
    {
        "about": "ขายเครื่องมือช่างและรับส่งเครื่องมือ / ร้านเราขายของแท้ 100%",
        "id": "343315469102132",
        "location": {
            "city": "Prachin Buri",
            "country": "Thailand",
            "latitude": 14.05233,
            "longitude": 101.3723984,
            "street": "ปราจีนบุรี",
            "zip": "25110"
        },
        "name": "ขายเครื่องมือช่าง",
        "phone": "0815771810"
    },
    {
        "about": "ปุ๋ย ยากำปราบศัตรูพืช วัชพืช /วัสดุช่าง/เครื่องดื่ม สินค้าเบ็ดเตล็ด ทั้งปลีกและส่ง",
        "id": "1407750579489030",
        "location": {
            "city": "Supan",
            "country": "Thailand",
            "latitude": 14.22997,
            "longitude": 100.01719,
            "street": "บ้านรางเทียน ตำบลทุ่งคอก",
            "zip": "72110"
        },
        "name": "ปุ๋ย ยา วัสดุช่าง เครื่องดื่ม ปลีก-ส่ง wongwatcharin",
        "phone": "085 9712802"
    },
    {
        "about": "จำหน่ายเครื่องมือช่าง และอะไหล่แท้ makita maktec ราคาถูก",
        "id": "334415360079714",
        "name": "จำหน่ายเครื่องมือช่าง และอะไหล่แท้ ราคาถูก Makita Maktec"
    },
    {
        "about": "รับซ่อมเครื่องมือช่าง DEWALT STANLEY  BLACK\u0026DECKER",
        "id": "792812354074237",
        "location": {
            "street": "ซอย ลาดพร้าว24",
            "zip": "10900"
        },
        "name": "ศูนย์บริการเครื่องมือช่าง",
        "phone": "029381938"
    },
    {
        "about": "ซ่อมและจำหน่ายเครื่องมือช่างราคาถูกโดยช่างมืออาชีพ",
        "description": "ซ่อมและจำหน่ายเครื่องมือช่างราคาถูก\nอาทิเช่น สว่าน หินเจียร์ สว่านโรตารี่ กบไฟฟ้า\nเลื่อยวงเดือน สกัด แย็ก ขัดกระดาษทราย เป็นต้น",
        "emails": [
            "top-kampanart@hotmail.com"
        ],
        "id": "361841254016460",
        "location": {
            "city": "Roi Et",
            "country": "Thailand",
            "street": "332 ถ.รอบเมือง ต.เมือง อ.เมือง จ.ร้อยเอ็ด",
            "zip": "45000"
        },
        "name": "เครื่องมือช่างราคาถูก เรากล้ารับประกันสินค้าทุกตัว",
        "phone": "092-680-9997"
    },
    {
        "about": "สินค้าได้มาตรฐาน บริการประทับใจ เลือกใช้ J\u0026T",
        "description": "ศูนย์จำหน่ายเครื่องมือช่าง สำหรับศูนย์บริการรถยนต์, อู่ซ่อมรถ, ร้านยาง, และคาร์แคร์ ครบวงจร ในราคาส่ง",
        "emails": [
            "jtmachinerycm@gmail.com"
        ],
        "id": "1508288589386643",
        "location": {
            "city": "Muang Chiang Mai",
            "country": "Thailand",
            "latitude": 18.78603,
            "longitude": 99.02265,
            "street": "58/50 ม.2",
            "zip": "50140"
        },
        "name": "J\u0026T Machinery จำหน่ายและบริการเครื่องมือช่างราคาส่ง",
        "phone": "0870143246"
    },
    {
        "id": "131848743523473",
        "name": "ช่างเครื่องปรับอากาศ"
    },
    {
        "about": "ทุ่น ฟิลคอยล์ สวิทซ์ เฟือง ลูกปืน ถ่าน 085-506-1544",
        "id": "447398688734327",
        "name": "ขายอะไหล่เครื่องมือช่าง Makita Maktec Bosch Hitachi"
    },
    {
        "about": "ABPON CO.,LTD.\n403,405,407,409 SRIRAYA ROAD, BANGRAK, BANGKOK 10500\nTel. 0-2631-4260 Fax. 0-2631-4264\nE-mail : sales@abpon.com Web site : www.abpon.com",
        "description": "บริษัท แอบปอน จำกัด\n403, 405, 407, 409 ถ.สี่พระยา แขวงสี่พระยา เขตบางรัก กรุงเทพฯ 10500\nโทร : +66 (0) 2-631-4400 / โทรสาร : +66 (0) 2-631-4265",
        "emails": [
            "\u003c\u003cnot-applicable\u003e\u003e"
        ],
        "id": "824288377587158",
        "location": {
            "city": "Bangkok",
            "country": "Thailand",
            "latitude": 13.7306042,
            "longitude": 100.5187988,
            "street": "403,405,407,409 ถนนสี่พระยา แขวงสี่พระยา เขตบางรัก",
            "zip": "10500"
        },
        "name": "บจก.แอบปอน ผลิต จำหน่าย สกรูน๊อต เหล็กและสเตนเลส เครื่องมือช่าง",
        "phone": "02-631-4260"
    },
    {
        "id": "804167803030125",
        "name": "จำหน่ายเครื่องมือช่าง อุปกรณ์การเกษตร KANTO",
        "phone": "0802157627"
    },
    {
        "about": "ซ่อม \nซื้อ\nขาย\nเเลกเปลี่ยน",
        "emails": [
            "sangsmile6@hotmail.com"
        ],
        "id": "427569600725075",
        "location": {
            "city": "ต.บางกระเบา อ.นครชัยศรี จ.นครปฐม",
            "street": "70/6"
        },
        "name": "ที เค เครื่องมือช่าง",
        "phone": "0840213458"
    },
    {
        "about": "โทร.081-6320978\nไลน์ไอดี.081-6320978\n\n(ที่อยู่) 31 ซ.อ่อนนุช66 แยก 7 แขวงประเวศ เขตประเวศ กรุงเทพฯ 10250\n\n\n\n\n\n\n\n",
        "description": "ขายเครื่องมือช่าง ขายเครื่องมือไฟฟ้า สว่าน เลื่อย \nปั๊มน้ำ เครื่องมือเกษตร ออนไลน์ ราคาถูก ขายเครื่องมือช่าง ส่งฟรีทั่วประเทศ",
        "emails": [
            "copper2012@hotmail.com"
        ],
        "id": "726358780772728",
        "name": "TOOLS STORE เครื่องมือช่าง"
    },
    {
        "about": "รับเช่า-จำหน่ายพระเครื่องและวัตถุมงคล",
        "description": "ยินดีต้อนรับทุกท่านสู่ บ้านช้างพระเครื่อง.com เว็บไซต์สำหรับผูัรักการสะสมพระเครื่อง และผู้สนใจต้องการ เช่า - จำหน่ายพระเครื่องจากเกจิ อาจารน์ชั้นนำ ดำเนินงานโดย เฮียช้าง ซึ่งเป็นหลานชายแท้ๆ หลวงปู่เจ้ย หรือ หลวงพ่อเจ้ยอิสสโร วัดห้วยเจริญสุข ต. พักทัน อ. บางระจัน จ. สิงห์บุรี",
        "id": "222209181261456",
        "location": {
            "city": "Pathum Thani",
            "country": "Thailand",
            "street": "ลำลูกกา",
            "zip": "12150"
        },
        "name": "Baanchang-amulet.com By เฮียช้าง บ้านช้างพระเครื่อง.com",
        "phone": "0863602945"
    },
    {
        "description": "จำหน่ายเครื่องชั่ง ย้าย และติดตั้งเครื่องชั่งน้ำหนักทุกชนิด และบริการซ่อมโดยช่างผู้ชำนาญงาน",
        "emails": [
            "ravenna_nui@hotmail.com"
        ],
        "id": "655869347769962",
        "location": {
            "city": "Chiang Rai",
            "country": "Thailand",
            "latitude": 19.55933,
            "longitude": 99.74563,
            "street": "937 ม.17 ต.เมืองพาน อ.พาน จ.เชียงราย",
            "zip": "57120"
        },
        "name": "จำหน่าย ย้าย ซ่อม เครื่องชั่งน้ำหนัก โดย ช่างเล็กบริษัทเมืองพานเครื่องชั่ง"
    },
    {
        "about": "บริการซ่อม ติดตั้งแอร์ เครื่องใช้ไฟฟ้าทุกชนิด",
        "description": "[s] การช่าง บริการซ่อม ติดตั้งแอร์ ล้างแอร์ เครื่องใช้ไฟฟ้าทุกชนิด วางระบบไฟ ภายในบ้านและอาคาร\n\n37/1 วัดโพธิวราราม ถ.ประชารังสรรค์ ต.หมากแข้ง อ.เมือง \nจ.อุดรธานี 41000 หลัง ร.พ เอกอุดร\n\nโทร.042-341881,084-7930021 ช่าง สง่า.",
        "emails": [
            "happyengineering@hotmail.com"
        ],
        "id": "420278524703768",
        "location": {
            "city": "Udon Thani",
            "country": "Thailand",
            "latitude": 17.4167,
            "longitude": 102.74998927116,
            "zip": "41000"
        },
        "name": "[s] การช่าง บริการซ่อม ติดตั้งแอร์ เครื่องใช้ไฟฟ้าทุกชนิด",
        "phone": "042-341881 084-7930021"
    },
    {
        "id": "129052064113295",
        "name": "ขายเครื่องมือช่าง"
    },
    {
        "about": "จำหน่ายเครืองมือช่าง เบอร์โทร 0816640843 ชัยวัฒน์ รัตนะ",
        "id": "357222461122542",
        "name": "จำหน่ายเครื่องมือช่างทุกอาชีพby Chaiwat rattana"
    },
    {
        "about": "ศูนย์รวมเครื่องมือช่าง และ เครื่องมือการเกษตร ราคาถูก",
        "description": "ร้านทรัพย์ไพศาลการค้า จำหน่ายเครื่องมือช่าง , เครื่องมือการเกษตร รวมทั้งยังมีบริการไปรษณีย์เอกชน ตั้งแต่ ส่งจดหมาย ส่งพัสดุ ธนาณัติออนไลน์ โอนเงินทุกธนาคาร เติมเงินมือถือแบบออนไลน์ทุกระบบ รับชำระค่าปรับจราจร (ขับรถเร็วเกินกำหนด) บริการจุดรับชำระบิลออนไลน์ จ่ายค่าน้ำ-ค่าไฟเกินกำหนด ต่อ พ.ร.บ.+ประกันภัย รถยนต์ รถมอเตอร์ไซค์ทุกประเภท บริการจองตั๋วรถทัวร์,รถไฟ,เครื่องบิน อีกทั้งยังรับพิมพ์งาน ปริ้นงานต่าง ๆ ถ่ายเอกสาร เคลือบบัตร ส่งแฟกซ์รวมถึงเข้าเล่มเอกสารด้วยนะค่ะ จุดเดียวแบบครบวงจร ไม่ต้องไปไหนแล้ว ต้องทรัพย์ไพศาลการค้า ณ บ้านห้วยไซ ต.ห้วยยาบ อ.บ้านธิ จ.ลำพูนค่ะ",
        "emails": [
            "subpaisan.motor@hotmail.com"
        ],
        "id": "450701215020681",
        "location": {
            "city": "Lamphun",
            "country": "Thailand",
            "latitude": 18.694972444983,
            "longitude": 99.159287810326,
            "street": "บ้านห้วยไซ ต.ห้วยยาบ อ.บ้านธิ จ.ลำพูน",
            "zip": "51180"
        },
        "name": "ร้านทรัพย์ไพศาลการค้า ศูนย์รวมเครื่องมือช่าง และ เครื่องมือการเกษตร ราคาถูก",
        "phone": "0974955669"
    },
    {
        "id": "367069820117119",
        "location": {
            "city": "Bangkok",
            "country": "Thailand",
            "latitude": 13.774,
            "longitude": 100.65728,
            "street": "202",
            "zip": "10240"
        },
        "name": "ขายเครื่องมือช่าง/อปกรณ์ทุกชนิด ราคาถูกกว่าคลองถมและท้องตลาดทั่วไป",
        "phone": "0817915677"
    },
    {
        "about": "ขายอะไหล่ ผานขุด",
        "description": "ขายอะไหล่รถจัรยานต์ยน  ยางนอก ยางใน เครื่องพ่นยา ผานขุด-ยกร่องมันสำปะหลัง \nติดต่อสอบถามได้นะครับ",
        "emails": [
            "na.indy2012@gmail.com"
        ],
        "id": "810438535634822",
        "location": {
            "city": "Kamphaeng Phet",
            "country": "Thailand",
            "latitude": 16.1203,
            "longitude": 99.48523,
            "street": "191 ม.1  ต.ปางตาไว  อ.ปางศิลาทอง  จ.กำแพงเพชร",
            "zip": "62120"
        },
        "name": "ร้านช่างจอก จำหน่ายอะไหล่มอไซร์ คูโบต้า เครื่องพ่นยา",
        "phone": "0871984842"
    },
    {
        "id": "977634398926194",
        "location": {
            "city": "Bangkok",
            "country": "Thailand",
            "latitude": 13.76072,
            "longitude": 100.3482,
            "street": "ทวีวัฒนา",
            "zip": "10170"
        },
        "name": "ROJ เครื่องมือช่างมือ2",
        "phone": "0818330545"
    },
    {
        "about": "ร้านส.สุวรรณ จำหน่ายอุปกรณ์การเกษตรและเครื่องมือช่างก่อสร้างทุกชนิด",
        "description": "จำหน่าย : อุปกรณ์การเกษตรและอุปกรณ์ก่อสร้าง",
        "emails": [
            "pool147369@hotmail.com"
        ],
        "id": "506639752701280",
        "location": {
            "street": "104 ม.1 ต.สำนักขุนเณร อ.ดงเจริญ จ.พิจิตร",
            "zip": "ุ66210"
        },
        "name": "ร้านส.สุวรรณ จำหน่ายอุปกรณ์การเกษตร อะไหล่การเกษตรและเครื่องมือช่างก่อสร้าง",
        "phone": "056-657313,080-5092434"
    },
    {
        "id": "833640926752840",
        "name": "ช่างเครื่อง ช่วงล่างheavy"
    }
]