[
    {
        "emails": [
            "benjamasdee1970@gmail.com"
        ],
        "id": "693769844005689",
        "location": {
            "city": "เมืองปทุมธานี",
            "street": "143/9 ตำบล บ้านกลาง",
            "zip": "12000"
        },
        "name": "เก๋เครื่องมือช่าง ตลาดพูนทรัพย์ 081-426-2958",
        "phone": "081-426-2958"
    },
    {
        "id": "200923106746604",
        "location": {
            "latitude": 11.426717169421,
            "longitude": 99.555254488338,
            "street": "อ่างทอง"
        },
        "name": "อู่ช่างชวน คลีนิครถเครื่อง - ชวนลาดพร้าว",
        "phone": "0891311835"
    },
    {
        "id": "186650818166953",
        "location": {
            "city": "Suphan Buri",
            "country": "Thailand",
            "latitude": 14.47653,
            "longitude": 100.12281,
            "street": "เมือง"
        },
        "name": "ช่างซ้อมบำรุงเครื่องจักรกลและเทคนิคอุตสาหกรรม"
    },
    {
        "id": "186919254722188",
        "location": {
            "latitude": 16.513640019127,
            "longitude": 102.81314254748
        },
        "name": "ศูนย์เครื่องจักรกลฯ กองช่าง อบจ.ขก."
    },
    {
        "id": "187697244719447",
        "location": {
            "city": "Bangkok",
            "country": "Thailand",
            "latitude": 13.509025792604,
            "longitude": 100.69222281696
        },
        "name": "ร้านเครื่องเสียง ช่างเอ็ม ซาว์ด บางปู"
    },
    {
        "id": "203330333184285",
        "location": {
            "city": "Amphoe Lam Luk Ka",
            "country": "Thailand",
            "latitude": 13.948602257309,
            "longitude": 100.79431087719
        },
        "name": "ช้างคุงพระเครื่อง Changkung's Buddha Amulet."
    },
    {
        "id": "205978496200782",
        "location": {
            "latitude": 15.268494393747,
            "longitude": 100.29060853422
        },
        "name": "ฝ่ายซ่อมเครื่องยนต์แผนกช่างอากกาศกองเทคนิคกองบิน4"
    },
    {
        "id": "206294609558956",
        "location": {
            "city": "Langu",
            "country": "Thailand",
            "latitude": 6.87876,
            "longitude": 99.782175
        },
        "name": "ร้านซ้อมรถเครื่องช่างหนัน"
    },
    {
        "id": "207213812759930",
        "location": {
            "city": "Rayong",
            "country": "Thailand",
            "latitude": 12.627071943081,
            "longitude": 101.43626504307
        },
        "name": "อู่ช่างปอง เครื่องเรือเร็ว",
        "phone": "0899301613"
    },
    {
        "id": "207856722694074",
        "location": {
            "city": "Bangkok",
            "country": "Thailand",
            "latitude": 13.781123679937,
            "longitude": 100.72181333672,
            "street": "Ramkhamhaeng 155"
        },
        "name": "อู่ช่างวิท เช็คเครื่อง เบรค คลัช ช่วงล่าง"
    },
    {
        "id": "210437895638658",
        "location": {
            "city": "Kantang",
            "country": "Thailand",
            "latitude": 7.4064631,
            "longitude": 99.5151814,
            "zip": "92110"
        },
        "name": "ช้างเครื่องเขียน"
    },
    {
        "id": "214561671931884",
        "location": {
            "city": "Bangkok",
            "country": "Thailand",
            "latitude": 13.675101,
            "longitude": 100.534086
        },
        "name": "ร้านชู ช่างเครื่อง"
    },
    {
        "id": "295087337358670",
        "location": {
            "city": "Mahachai",
            "country": "Thailand",
            "latitude": 13.560873985291,
            "longitude": 100.29721069336
        },
        "name": "แผนกช่างเครื่องcompressor ฝ่ายวิศวกรรม สินชัยห้องเย็น"
    },
    {
        "id": "249635111907599",
        "location": {
            "city": "Bangkok",
            "country": "Thailand",
            "latitude": 13.8419772439,
            "longitude": 100.78033611964,
            "street": "ถนนประชาร่วมใจ(คู้ซ้าย)",
            "zip": "10510"
        },
        "name": "ร้านพงษ์เจริญ จำหน่ายเครื่องมือช่าง",
        "phone": "0891528152"
    },
    {
        "id": "250229505127589",
        "location": {
            "city": "Bangkok",
            "country": "Thailand",
            "latitude": 13.735714276878,
            "longitude": 100.64086578498,
            "street": "Thanon Phatthanakan"
        },
        "name": "รับปรับแต่งเครื่องยนต์แบบซิ่งตรงสเปกด้วยช่างจากญี่ปุ่น"
    },
    {
        "id": "253119424732349",
        "location": {
            "city": "Bangkok",
            "country": "Thailand",
            "latitude": 13.742962837219,
            "longitude": 100.49887084961,
            "zip": "10200"
        },
        "name": "ตึกจุฑาธุช 100 ปี ชั้น 5 ห้องเครื่องรัก โรงเรียนเพาะช่าง"
    },
    {
        "id": "253408994857716",
        "location": {
            "city": "Bangkok",
            "country": "Thailand",
            "latitude": 13.75395,
            "longitude": 100.50224,
            "street": "ถนน.นิมิตรใหม่.ทรายกองดิน.คลองสามวา.กทม"
        },
        "name": "ร้านวิฑูรย์เจริญการช่าง รับซ่อมสว่านและเครื่องมือช่างทุกชนิด",
        "phone": "0855094421"
    },
    {
        "id": "262861190529205",
        "location": {
            "latitude": 14.91191,
            "longitude": 103.4844175
        },
        "name": "ร้านเครื่องเขียนเมืองช้าง"
    },
    {
        "id": "277408112417594",
        "location": {
            "city": "Nakhon Ratchasima",
            "country": "Thailand",
            "latitude": 14.95860042,
            "longitude": 102.07217141
        },
        "name": "บ้านช่างแดงเครื่องเย็น"
    },
    {
        "id": "239421579515371",
        "location": {
            "city": "Samut Prakan",
            "country": "Thailand",
            "latitude": 13.600106,
            "longitude": 100.598341
        },
        "name": "อู่ช่างเหลือ ซ่อมเครื่องยนต์"
    },
    {
        "id": "296984593811385",
        "location": {
            "latitude": 14.187346813282,
            "longitude": 100.54620880643
        },
        "name": "บมจ.ช.การช่าง ศูนย์เครื่องจักรกลบางเคียน อยุธยา"
    },
    {
        "id": "310090335811979",
        "location": {
            "city": "Chiang Mai",
            "country": "Thailand",
            "latitude": 18.78966,
            "longitude": 98.9844,
            "street": "108"
        },
        "name": "ไทเจริญเครื่องมือช่าง"
    },
    {
        "about": "รถบังคับติดเครื่องเสียง by.ช่างนนท์ จุดเด่น สามารถเปิดเพลงต่อเนื่องได้ ถึง 8 ชม",
        "id": "314526035419608",
        "location": {
            "city": "Bangkok",
            "country": "Thailand",
            "latitude": 13.6826132,
            "longitude": 100.4253201,
            "street": "77/437 บางบอน บางบอน กรุงเทพ",
            "zip": "10150"
        },
        "name": "รถบังคับติดเครื่องเสียง by..ช่างนนท์",
        "phone": "0803039082"
    },
    {
        "id": "316754188515665",
        "location": {
            "city": "Nakhon Pathom",
            "country": "Thailand",
            "latitude": 13.82314,
            "longitude": 100.05728,
            "street": "ประปา"
        },
        "name": "ช่างเอ  เปลี่ยนถ่ายนำมันเครื่อง"
    },
    {
        "id": "324603404316682",
        "location": {
            "city": "Hat Yai",
            "country": "Thailand",
            "latitude": 7.0322417964072,
            "longitude": 100.50199988024,
            "zip": "90110"
        },
        "name": "เครื่องกลึง L2 @แผนกวิชาช่างกลโรงงาน วิทยาลัยเทคนิคหาดใหญ่"
    }
]