[
    {
        "about": "จำหน่ายเครื่องมือไฟฟ้า เครื่องมือช่างยนต์ ,ช่างก่อสร้าาง",
        "description": "จำหน่ายเครื่องมือช่าง เครื่องมือก่อสร้าง จำหน่ายสินค้าทางออนไลน์ ใชัชื่อ **Siri Toolshop**\n***  สิริทูลส์ช๊อป ***\n89/395 หมู่ 9 ตำบล คลองสอง อำเภอ คลองหลวง จังหวัด ปทุมธานี 12120\n DTAC 0814310990   :  AIS 0926295005\n  โทร 028326994    แฟกซ์  028326993\n   LIND ID : @SIRISHOP",
        "id": "1851226381770431",
        "name": "เครื่องมือช่าง Siri toolshop"
    },
    {
        "about": "จำหน่ายเครื่องมือช่าง ,ปั๊มลม,ตู้เชื่อม,ฯลฯ บริการจัดส่งทั่วประเทศ",
        "description": "www.aor-udomsab-tools.com",
        "emails": [
            "aor-udomsab@hotmail.com"
        ],
        "id": "304027309632817",
        "location": {
            "city": "Pathum Thani",
            "country": "Thailand",
            "zip": "12000"
        },
        "name": "เครื่องมือช่าง ออนไลน์",
        "phone": "0832463887"
    },
    {
        "id": "445159845648798",
        "location": {
            "city": "Bangkok",
            "country": "Thailand",
            "latitude": 13.7992563,
            "longitude": 100.50457,
            "street": "455/572 จรัญสนิทวงศ์ บางขุนศรี บางกอกน้อย",
            "zip": "10700"
        },
        "name": "เครื่องมือช่างราคาถูก",
        "phone": "0928757395"
    },
    {
        "about": "รับเช่าพระเครื่องสายหลวงปู่ทวดและพระใหม่ทุกหลวงพ่อ",
        "description": "รับเช่าหลวงปู่ทวดพระใหม่ ตั้งแต่ปี 53-ปัจจุบัน\nรวมถึงพระใหม่ยอดนิยมทุกหลวงพ่อครับ\nหาค่านมลูกค่าเทอมลูกอยากใช้เงิน\nถ่ายรูปพระแบบชัดๆเสนอมาที่อินบ๊อกได้เลยครับ\nหรือโทร 0882303762 ปอนด์ครับ",
        "id": "1465392923709866",
        "location": {
            "city": "Nonthaburi",
            "country": "Thailand",
            "latitude": 13.9,
            "longitude": 100.483,
            "zip": "11000"
        },
        "name": "รับเช่าพระเครื่องสายหลวงปู่ทวดวัดช้างไห้และพระใหม่ยอดนิยมทุกหลวงพ่อ",
        "phone": "088-230-3762 ปอนด์ "
    },
    {
        "about": "รวบรวมผลงานทองสวยๆจากประสบการณ์กว่า20ปีและจำหน่ายทองเพชรมือ2หลุดจำนำ",
        "id": "281225482051020",
        "location": {
            "city": "อำเภอโคกสำโรง (Amphoe Khok Samrong) จ.ลพบุรี",
            "street": "52/3 ถ.ประชาวิถี ต.โคกสำโรง",
            "zip": "15120"
        },
        "name": "ช่างทองลพบุรี - บ้านเครื่องประดับ",
        "phone": "0813334874"
    },
    {
        "about": "http://www.darkemotor.com/%E0%B8%AB%E0%B8%99%E0%B9%89%E0%B8%B2%E0%B8%AB%E0%B8%A5%E0%B8%B1%E0%B8%81.html",
        "description": "-",
        "id": "555233604498044",
        "name": "อะไหล่เครื่องมือช่าง"
    },
    {
        "about": "รับประกอบเพาเวอร์แอมป์สวิทชิ่งหม้อแปลงเครื่องเสียงกลางแจ้ง รับซ่อม โทร0823308368",
        "id": "315795618594549",
        "name": "ช่างเล็ก95รับซ่อมเครื่องเสียงกลางแจ้งสวิทชิ่งแอมป์ประกอบ"
    },
    {
        "emails": [
            "saltcellarservice@yahoo.co.th"
        ],
        "id": "435838113153127",
        "location": {
            "city": "Bangkok",
            "country": "Thailand",
            "latitude": 13.70283,
            "longitude": 100.67317,
            "street": "25 อ่อนนุช66 แยก19-13 สุขุมวิท77",
            "zip": "10250"
        },
        "name": "สว่าน สกัด เครื่องมือช่าง มือสอง",
        "phone": "0956391510"
    },
    {
        "about": "จำหน่ายเครื่องมือช่างทุกชนิด",
        "description": "สอบถามโทร.087 4505278 ตี๋",
        "id": "419251991526961",
        "name": "อู่ช่างตี๋ เครื่องมือช่าง"
    },
    {
        "about": "ขายส่งเครื่องมือช่าง เครื่องฉีดน้ำแรงดันสูง สว่านไฟฟ้า กล่องเครื่องมือช่าง ฯลฯ",
        "id": "261213524086594",
        "location": {
            "city": "Bangkok",
            "country": "Thailand",
            "latitude": 13.60599,
            "longitude": 100.41691,
            "street": "114 ซ.เทียนทะเล 24 ถ.บางขุนเทียน-ชายทะเล",
            "zip": "10150"
        },
        "name": "เวิลด์ทูลส์แอนด์ฮาร์ดแวร์ เครื่องมือช่าง",
        "phone": "028972940"
    },
    {
        "about": "จำหน่ายเครื่องมือและอุปกรณ์การช่าง ราคาไม่แพง สนใจสอบถามได้ที่ Line: nicezzii Tel.086-7724164",
        "id": "960230110668306",
        "name": "Time Hardware เครื่องมือช่าง ราคาถูก"
    },
    {
        "id": "155589277824625",
        "name": "ช่างติดตั้งเครื่องเสียงรถยนต์"
    },
    {
        "emails": [
            "prateepsri@gmail.com"
        ],
        "id": "452156881531224",
        "location": {
            "city": "Bangkok",
            "country": "Thailand",
            "latitude": 13.782586455249,
            "longitude": 100.43024925613,
            "street": "63/33 หมู่ 4 ถนนทุ่งมังกร แขวงฉิมพลี เขตตลิ่งชัน",
            "zip": "10170"
        },
        "name": "ขาย อุปกรณ์ Diy เครื่องมือช่าง เลื่อย สว่าน ไฟฟ้า ประปา",
        "phone": "086 310 3830"
    },
    {
        "about": "จำหน่าย เครื่องดำนา 4 แถวของช่างเบน ",
        "id": "351863681620999",
        "location": {
            "city": "Muang Buriram",
            "country": "Thailand",
            "latitude": 15.25642,
            "longitude": 103.26592,
            "street": "ต.ดงพลอง อ.แคนดง จ.บุรีรัมย์",
            "zip": "31150"
        },
        "name": "จำหน่ายเครื่องดำนา 4 แถว ช่างเบน",
        "phone": "0874456098"
    },
    {
        "about": " เครื่องมือช่าง ฮาร์ดแวร์ภายในบ้าน อุปกรณ์ก่อสร้าง อุปกรณ์คาร์แคร์ (DEALER) คลองถม\nโทร 02-2220006, 02-2219303",
        "description": "     โชติวัฒน์ฮาร์ดแวร์ : เปิดทำการทุกวัน ตั้งแต่ 7.30-17.15น. หยุดวันอาทิตย์บางสัปดาห์(กรุณาโทรติดต่อสอบถาม)     สถานที่ตั้งอยู่ใจกลางคลองถม ถ.มหาจักร \n     เรามีช่างผู้เชี่ยวชาญเป็นที่ปรึกษาและคอยแนะนำให้คุณเลือกเครื่องมือช่าง ฮาร์ดแวร์ที่ใช้ให้เหมาะสมกับการใช้งานด้วย\n     การเดินทาง หากมาโดยรถยนต์ บริเวณนี้มีอาคารที่จอดรถหลายแห่งทั้งคลองถมพัฒนา คลองถมเซ็นเตอร์ อาคารศรีวรจักรหากไม่สะดวกสามารถโทรศัพท์มาสั่งสินค้า  \n     เรามีบริการส่งบางพื่นที่ นอกเขตพื้นที่บริการจะคิดค่าขนส่ง\nลูกค้าต่างจังหวัดสามารถระบุให้ส่งผ่านบริษัทรับขนส่งได้",
        "emails": [
            "chotiwat_ltd@hotmail.com"
        ],
        "id": "287039174641967",
        "location": {
            "street": "511 ถ.มหาจักร อ.ป้อมปราบ  (คลองถม)",
            "zip": "10100"
        },
        "name": "Chotiwat Hardware : เครื่องมือช่าง คลองถม",
        "phone": "02-2220006, 02-2219303 FAX. 02-2265575"
    },
    {
        "about": "ร้านมันนี่มา สินค้าเครื่องประดับ แหวน ต่างหู สร้อยข้อมือ กำไล  สร้อยคอ \nID line: mannyma995\nโทร ; 0876966545",
        "description": "เครื่องประดับเงินหุ้มทองลงยา \n      ในยุคอดีตเครื่องประดับไม้เพียงแต่สวมใสเพื่อความสวยงามเท่านั้นแสดงถึงฐานนันดร ชนชั้นของผู้สวมใส่ตั้งแต่ในยุคอดีตจนถึงปัจจุบันงานเครื่องทองก็ยังมีค่าเหมือนเดิม เครื่องทองอยธุยา และ เครื่องทองรัตนโกสินทร์มีความงดงาม และหรูหรามาก และยังคงเป็นที่ชื่นชอบของคนในยุคนี้.... \n\n\n\n      เครื่องทองอยธุยาเป็นที่สืบตํานาน อยธุยา มหาอณาจักร ร่ำรวย มีงานประณีตศิลป์เครื่องประดับยังคงเป็นที่นิยมอย่างมาก งานเครื่องทองลงยาเป็นงานที่สวยงานน่าสนใจ สามารถนํามาออกแบบให้งดงามเพื่อแฟชั่นที่เป็นเอกลักษณ์ในปี พศ. 2554 หรือ รศ. 229  จีงเป็นแรงบันดาลใจในการออกแบบชิ้นงาน คอลเลคชั่นนี้ \n\n",
        "emails": [
            "monneyma88@gmail.com"
        ],
        "id": "990297997668811",
        "location": {
            "city": "Phuket",
            "country": "Thailand"
        },
        "name": "เครื่องประดับเงินลงยา ทับทิม งาช้าง ขนหางช้าง By Moneyma",
        "phone": "0876966545"
    },
    {
        "about": "จำหน่ายเครื่องมือช่าง MATADOR และ ตลับลูกปืน SKF / TIMKEN",
        "description": "หจก.ฮั่งเส็งฮวด\nตัวแทนผู้จัดจำหน่าย สินค้า MATADOR SKF TIMKEN ในประเทศไทย",
        "emails": [
            "arpingza@gmail.com"
        ],
        "id": "165881936907162",
        "location": {
            "city": "Bangkok",
            "country": "Thailand",
            "latitude": 13.7480297,
            "longitude": 100.5065994,
            "street": "160-162 ถ.หลวง แขวงบ้านบาตร เขตป้อมปราบ",
            "zip": "10100"
        },
        "name": "เครื่องมือช่าง Matador by HSH",
        "phone": "089-1128068"
    },
    {
        "about": "สินค้าทุกชิ้นสามารถสั่งของได้  2 วันนะครับ ",
        "description": "ขายเสื้อผ้า-มือ1/มือ2 กางเกง รองเท้า หมวก นาฬิกา เข็มขัด เสื้อผ้า กระเป๋ง คาเมล ลีวาย ลี เป็นต้น สินค้าเข้ามาเรื่อย ๆ รอติดตามได้ครับ\nสนใจสินค้าตัวไหน inbox เข้ามาเลยครับ^^ \nหรือ ติดต่อ 0909134119 ",
        "id": "1448667655359846",
        "location": {
            "city": "Phan Thiet",
            "country": "Vietnam",
            "street": "ชลบุรี-พัทยา",
            "zip": "20150"
        },
        "name": "ขายเสื้อผ้าเครื่องแต่งกายเเนวเด็กช่าง",
        "phone": "0909134119"
    },
    {
        "about": "ช่างแจ๊วดนตรีไทยรับซื้อและขายเครื่องดนตรีไทย มอญ",
        "id": "325490560959068",
        "name": "ช่างแจ๊วดนตรีไทย ขายและรับซื้อเครื่องดนตรีไทย-มอญ ทุกชนิด"
    },
    {
        "about": "ชมรมพระเครื่อง ศิษย์หลวงพ่อแถม วัดช้างแทงกระจาด",
        "id": "581134011929237",
        "name": "ชมรมพระเครื่อง ศิษย์หลวงพ่อแถม สีลสังวโร  วัดช้างแทงกระจาด เพชรบุรี",
        "phone": "082-3281069"
    },
    {
        "about": "เครื่องมือช่างทุกชนิด เครื่องมือแปลก และ สินค้าไอที และอื่น ๆ อีกมากมายครับผม",
        "id": "1392166134349142",
        "name": "อุปกรณ์เครื่องมือช่างและอื่น ๆ Tel.0865611175 Line : kittipunch"
    },
    {
        "id": "180120945387871",
        "location": {
            "city": "Rat Buri",
            "country": "Thailand",
            "latitude": 13.572186617463,
            "longitude": 99.732362121873,
            "street": "ราชบุรี",
            "zip": "70000"
        },
        "name": "กองพันทหารช่างเครื่องมือพิเศษ"
    },
    {
        "id": "914306125277339",
        "location": {
            "city": "Amphoe Muang Rat Buri",
            "country": "Thailand",
            "latitude": 13.543793431667,
            "longitude": 99.808925533333,
            "street": "ตลาดกำนันหลัก ราชบุรี",
            "zip": "70000"
        },
        "name": "ร้านทีมงานช่างยุ่นตลาดกำนันหลัก ราชบุรี 086-0279947 เครื่องเสียงประดับยนต์"
    },
    {
        "id": "474718382632163",
        "location": {
            "city": "Amphoe Phanom Sarakham",
            "country": "Thailand",
            "latitude": 13.782483430879,
            "longitude": 101.39437597311
        },
        "name": "ร้านเครื่องเสียง ช่างเก่ง K.n.sound"
    },
    {
        "id": "784158131671652",
        "location": {
            "city": "Amphoe Ban Phai",
            "country": "Thailand",
            "latitude": 16.061666065,
            "longitude": 102.72369080467,
            "street": "316"
        },
        "name": "บ้านเครื่องเสียง ช่างนันพะนะ"
    }
]