[
    {
        "id": "559052874109168",
        "location": {
            "city": "Bangkok",
            "country": "Thailand",
            "latitude": 13.836027328746,
            "longitude": 100.45322172583,
            "zip": "11000"
        },
        "name": "เครื่องถมช่างอุทัย"
    },
    {
        "id": "205331959649477",
        "location": {
            "city": "Ayutthaya",
            "country": "Thailand",
            "latitude": 14.359596996529,
            "longitude": 100.56282079679,
            "zip": "13000"
        },
        "name": "แผนกช่าง เขียนแบบเครื่องกล"
    },
    {
        "about": "เครื่องมือช่าง เรืองแสงไทย ",
        "description": "ห้างหุ้นส่วนจำกัด เรืองแสงไทย  จำหน่ายสินค้า เครื่องมือช่าง ปั๊มน้ำ บาดาล ไฟฟ้า มอร์เตอร์ โดยได้รับความไว้วางใจจากคนบุรีรัมย์มากว่า 30 ปี",
        "emails": [
            "ruangsangthai@hotmail.co.th"
        ],
        "id": "501951316544881",
        "location": {
            "city": "Muang Buriram",
            "country": "Thailand",
            "latitude": 15.030921729862,
            "longitude": 103.10223712158,
            "street": "114 ม.14 ต.ชุมเห็ด",
            "zip": "31000"
        },
        "name": "เครื่องมือช่าง เรืองแสงไทย",
        "phone": "(044)666-484"
    },
    {
        "id": "433721823408095",
        "location": {
            "city": "Khonkean",
            "country": "Thailand",
            "latitude": 16.428826236,
            "longitude": 102.86410962508,
            "street": "Sri Chant Road",
            "zip": "40000"
        },
        "name": "Rmuti ตึก2โปรแกรมวิชาช่างเครื่องกล"
    },
    {
        "id": "721852044515307",
        "location": {
            "city": "Amphoe Muang Khon Kaen",
            "country": "Thailand",
            "latitude": 16.42839869019,
            "longitude": 102.84744054548,
            "zip": "40000"
        },
        "name": "แผนกวิชาช่างเขียนแบบเครื่องกล วิทยาลัยเทคนิคขอนแก่น"
    },
    {
        "about": "หน้าสนามกีฬาราชนาวีสัตหีบ กม.5",
        "id": "149030935292148",
        "location": {
            "city": "Ban Sattahip",
            "country": "Thailand",
            "latitude": 12.68189,
            "longitude": 100.92461,
            "street": "114/314-317 ตำลพลูตาหลวง",
            "zip": "20180"
        },
        "name": "ร้านกิตติฮาร์ดแวร์ จำหน่ายวัสดุก่อสร้าง เหล็ก ไฟฟ้า ประปา สี เครื่องมือช่าง",
        "phone": "038247376"
    },
    {
        "about": "ผลิต จำหน่ายเครื่องเบญจรงค์ และเครื่องปั้นดินเผา",
        "emails": [
            "bjc.07@hotmail.com"
        ],
        "id": "1374377772784721",
        "location": {
            "city": "Samut Songkhram",
            "country": "Thailand",
            "latitude": 13.433671269556,
            "longitude": 99.96845594374,
            "street": "51/2 หมู่9 ซ.วัดลังกา ถ.สมุทรสงคราม-บางแพ ต.บางช้าง อ.อัมพวา",
            "zip": "75110"
        },
        "name": "บ้านเบญจรงค์บางช้าง เครื่องปั้นดินเผาศิลาดล อัมพวา"
    },
    {
        "id": "214154485380869",
        "location": {
            "city": "Khonkean",
            "country": "Thailand",
            "latitude": 16.429571419201,
            "longitude": 102.86279924999,
            "zip": "40000"
        },
        "name": "ตึก 8 Rmuti ค.อ.บ.เครื่องกล/ช่างยนต์"
    },
    {
        "id": "787680761287201",
        "location": {
            "city": "Udon Thani",
            "country": "Thailand",
            "latitude": 17.39122,
            "longitude": 102.77796,
            "street": "ตรงข้าม..อบต.หนองสระปลา อ.หนองหาน",
            "zip": "41000"
        },
        "name": "อู่ช่างชินรับซ่อมเครื่องยนต์ทุกชนิด..096-1824261",
        "phone": "0961824261"
    },
    {
        "about": "อุปกรณ์เครื่องมือช่างทุกชนิด ส่งและปลีก รวดเร็วทันใจ\n",
        "description": "เครื่องมือช่างมือ1และอะไหล่ บริการจัดส่งทั่วประเทศ รวดเร็วทันใจ\n\nจัดส่งสินค้าตาม order ลูกค้า ค่าจัดส่งคิดตามราคาไปรษณีย์ไทย\n\nติดต่อ0-8175-23564,0-8930-18221 : ธวัลรัตน์ \n\nธ.กรุงเทพฯ 022-024-0162 ออมทรัพย์ : ธวัลรัตน์ ทองสถิตย์",
        "id": "187054611461364",
        "location": {
            "city": "Amphoe Bang Yai",
            "country": "Thailand",
            "latitude": 13.86226,
            "longitude": 100.37279,
            "street": "บางใหญ่",
            "zip": "11140"
        },
        "name": "ตลาดเครื่องมือช่าง",
        "phone": "081-752-3564"
    },
    {
        "id": "1419401064939984",
        "location": {
            "city": "Phetchabun",
            "country": "Thailand",
            "latitude": 16.43490119275,
            "longitude": 101.15306422526,
            "zip": "67000"
        },
        "name": "แผนกวิชาเครื่องกล - ช่างยนต์ วิทยาลัยเทคนิคเพชรบูรณ์"
    },
    {
        "about": "ร้านค้าส่ง-ปลีก อุปกรณ์ก่อสร้าง ตกแต่ง ต่อเติมบ้าน ราคาถูก",
        "description": "\u003cscript\u003e\n  (function(i,s,o,g,r,a,m){i['GoogleAnalyticsObject']=r;i[r]=i[r]||function(){\n  (i[r].q=i[r].q||[]).push(arguments)},i[r].l=1*new Date();a=s.createElement(o),\n  m=s.getElementsByTagName(o)[0];a.async=1;a.src=g;m.parentNode.insertBefore(a,m)\n  })(window,document,'script','//www.google-analytics.com/analytics.js','ga');\n\n  ga('create', 'UA-55293412-1', 'auto');\n  ga('send', 'pageview');\n\n\u003c/script\u003e",
        "id": "551077735039121",
        "location": {
            "city": "Ubon Ratchathani",
            "country": "Thailand",
            "latitude": 15.234884253505,
            "longitude": 104.86976537948,
            "street": "ตลาด 5",
            "zip": "34000"
        },
        "name": "ศูนย์รวมวัสดุก่อสร้าง เครื่องมือช่าง ไฟฟ้า สี ประปา ราคาถูก Save House",
        "phone": "045317464"
    },
    {
        "id": "1551598071795438",
        "name": "เครื่องมือช่างและอะใหล่รถยนต์"
    },
    {
        "emails": [
            "0da_toom@msn.com"
        ],
        "id": "169672629771240",
        "name": "จำหน่าย ลิฟท์ยกรถ (ห้อย) เครื่องมือช่างซ่อมรถทุกชนิด",
        "phone": "085-180-8293"
    },
    {
        "id": "1427447767547750",
        "name": "ช่างเครื่องมือสอง"
    },
    {
        "about": "จำหน่าย เครื่องมือช่าง อุปกรณ์ก่อสร้าง ทุกชนิด",
        "description": "จำหน่าย เครื่องมือช่าง อุปกรณ์ก่อสร้าง ทุกยี่ห้อ อาทิ Makita, Maktec, Dewalt, Stanley, Kanto, Swan, Berala, D-Max, Hi-Top, Sumo, kuani, Mitsubishi, Hitachi, Nachi, Big-Wood, Keiba, Apex, kingTony, Mito, Champion, ..",
        "emails": [
            "sale1@spkwholesale.com"
        ],
        "id": "748893071794111",
        "location": {
            "city": "ชลบุรี",
            "street": "ใกล้ทางแยกบางแสน ติดถนนสุขุมวิท 18/4 หมู่8 ตำบลเสม็ด อำเภอเมือง",
            "zip": "20130"
        },
        "name": "ศูนย์จำหน่ายเครื่องมือช่าง โฮลเซล กรุ๊ป",
        "phone": "038-382016 ต่อ 601-602"
    },
    {
        "about": "เพื่อเพื่อนๆพี่น้อง เพื่องานที่เนียบ เรียบร้อย สำหรับ ช่างไทย",
        "id": "1523385531285044",
        "name": "เครื่องมือช่าง by j day"
    },
    {
        "id": "1395846057408640",
        "name": "แสนสะหลีสพรรช่าง ศิลปกรรม เครื่องเขิน ลายคำ ลวดลายล้านนา  lanna culture art"
    },
    {
        "about": "อุปกรณ์การไฟฟ้าและฮาร์ดแวร์ทุกชนิด*เครื่องมือช่าง\n",
        "id": "178711968991992",
        "location": {
            "city": "Bangkok",
            "country": "Thailand",
            "latitude": 13.70426,
            "longitude": 100.40088,
            "street": "บางแค",
            "zip": "10160"
        },
        "name": "อุปกรณ์ไฟฟ้า/เครื่องมือช่าง/ฮาดแวร์ทุกชนิด",
        "phone": "0859991432"
    },
    {
        "about": "สกรูน็อต ข้อต่อต่างๆ อุปกรณ์เครื่องมือ ปลีก-ส่ง บริการส่งทางไปรษณีย์ ค่าส่งตามน้ำหนักจริง",
        "description": "ราคาสินค้าขึ้นอยู่กับขนาดและจำนวน สอบถามรายละเอียดเพิ่มเติมทักแชทอินบ็อก หรือ Line ID : illeb (ไอแอลแอลอีบี) หรือ Tel.086-6100785 มาได้เลยค่ะ ",
        "id": "813121592147659",
        "name": "สกรูน็อต ข้อต่อลม ข้อต่อทองเหลือง ข้อต่อสแตนเลส อุปกรณ์เครื่องมือช่างต่างๆ"
    },
    {
        "id": "1618458471736406",
        "name": "เครื่องมือช่าง"
    },
    {
        "about": "ถูก ของ แท้",
        "id": "434738246612176",
        "name": "อะไหล่ เครื่องมือช่าง"
    },
    {
        "about": "จำหน่าย เครื่องมือช่าง ทุกชนิด และรับสั่งทำน๊อตทุกชนิด",
        "description": "จำหน่ายและสั่งทำ สกรู น็อต ทุกชนิด \nจำหน่ายเครื่องมือช่าง KOCHE KINGTONY KOKEN ASAHI META BACHO \nKEIBA WYNN EIGHT    สายลมญี่ปุ่นToyox ซิลิโคน ประเกนเหลว ADB นำมันหล่อลื่นX5\nWD-40 ",
        "emails": [
            "k-sug@hotmail.com"
        ],
        "id": "523661797645320",
        "location": {
            "city": "Chiang Mai",
            "country": "Thailand",
            "street": "8/2 ม.23 ถ.พหลโยธิน ต.ตาคลี อ.ตาคลี จ.นครสวรรค์",
            "zip": "60140"
        },
        "name": "จำหน่าย เครื่องมือช่าง classic",
        "phone": "0835787244"
    },
    {
        "about": "ขายปลีกและส่งอุปกรณ์สามล้อเครื่อง เช่น หลังคา กระบะ เหล็กพิงข้างและเบาะทุกชนิด",
        "description": "จำหน่ายอุปกรณ์สามล้อเครื่องในราคาเป็นกันเอง เพราะโรงงานเราผลิตเอง อาทิเช่น หลังคา กระบะ เหล็กพิงข้าง เบาะทุกชนิด ผ้ากันฝน ฯลฯ และรับทำตามออเดอร์ เราขายปลีกในราคาส่ง ขายส่งราคาโรงงาน สนใจติดต่อ \nสาขาอุดรธานี : โทร.042-246979 086-7169679 089-1769033\nสาขาหนองคาย : โทร. 042-423925 081-8717377 086-8644344\nสะดวกที่ไหนติดต่อได้ทันที",
        "id": "279595948863739",
        "location": {
            "city": "Udon Thani",
            "country": "Thailand",
            "latitude": 17.39122,
            "longitude": 102.77796,
            "street": "18/3 ม.14 ต.หมากแข้ง",
            "zip": "41000"
        },
        "name": "ร้านวิฑูรย์การช่าง จำหน่ายเบาะ กระบะ หลังคาสามล้อเครื่อง",
        "phone": "042-246979"
    },
    {
        "about": "โทร 0875862888 ติดต่อได้24 ชั่วโมง    (ID LINE 0875862888) ",
        "description": "เกี่ยวกับร้านค้า ร้านช้างค้ำธุรกิจพระเครื่อง ร่วมอนุรักษ์และเผยแพร่เชิดชูคุณครูบาอาจารย์ ทางร้านจะเน้นการให้เช่าบูชา-รับเช่าบูชา วัตถุโบราณ.พระเครื่อง เครื่องรางของขลัง .เขี้ยวงา กะลาแกะ.พระชุดวัดพระสิงห์ พระสายหลวงปู่ทิม วัดระหารไร่ ร้านช้างค้ำธุรกิจพระเครื่องยินดีต้อนรับทุกท่าน  รับจัดหาพระเครื่องสายหลวงปู่ทิม หลวงพ่อสาคร เครื่องรางล้านนา/หลวงปู่ทวดวัดพระสิงห์  /ของเก่า/ของแปลกของหายาก(ทนสิทธิ์)/ลูกกรอกแมว/และบริการพระเครื่อง.เครื่องรางด้านเมตตามหาเสน่ห์แก่ผู้ที่ชื่นชอบ...พุทธคุณด้านนี้เป็นพิเศษ..โดยทางร้านจะเน้นเป็นพิเศษ  ในการคัดกรองคัดสรรพระเครื่อง. เครื่องรางทุกชิ้น ว่าต้องเป็นของดีของแท้100%   \"หลักอุดมคติคือเอาใจเขามาใส่ใจเรา...บริการของดีและของแท้ โดยการคัดสรรคัดกรองของดีมีคุณภาพไว้บริการด้วยความจริงใจ...ด้วยความหวังเป็นอย่างยิ่งสำหรับมิตรภาพดีๆที่จะเกิดขึ้น...\nเงื่อนไขการรับประกัน \nการรับประกันของทางร้าน 1.รับประกันความแท้ตามมาตรฐานสากล  เก๊คืนเงินเต็ม ห้ามทำการ เช็ด ขัด ล้าง ของทุกชิ้นต้องอยู่ในสภาพเดิม.....มิเช่นนั้นถืิอว่าสิ้นสุดการรับประกันไม่จำกัดระยะเวลาของแท้ต้องแท้ทุกวัน...2 ทางร้านขอสงวนสิทธิ์จะรับซื้อคืนหรือไม่ขึ้นอยู่กับสภาวะตลาดตอนนั้น",
        "id": "652527984782372",
        "location": {
            "city": "Bangkok",
            "country": "Thailand",
            "latitude": 13.85247,
            "longitude": 100.73933,
            "street": "222/151 ถนนสามวา แขวงบางชัน เขตคลองสามวา กรุงเทพ",
            "zip": "10510"
        },
        "name": "ช้างค้ำธุรกิจ พระเครื่อง 0875862888",
        "phone": "0875862888"
    }
]