[
    {
        "id": "257525640933955",
        "location": {
            "city": "Nakhon Ratchasima",
            "country": "Thailand",
            "latitude": 14.972514775,
            "longitude": 102.07379299
        },
        "name": "ร้านโกสนการช่าง_เครื่องเฟอนิเจอร์"
    },
    {
        "id": "261602964032981",
        "location": {
            "city": "นครราชสีมา",
            "latitude": 15.094447376592,
            "longitude": 102.25081112163,
            "street": "เมืองโคราช"
        },
        "name": "ร้านช่างโอ เครื่องเสียง"
    },
    {
        "id": "550790321678692",
        "location": {
            "city": "Amphoe Muang Phuket",
            "country": "Thailand",
            "latitude": 7.8962163703968,
            "longitude": 98.383527282322,
            "zip": "83000"
        },
        "name": "ห้องช่างเครื่องมือแพทย์ รพ.วชิระภูเก็ต"
    },
    {
        "id": "836701466418758",
        "location": {
            "city": "Surin",
            "country": "Thailand",
            "latitude": 14.8833,
            "longitude": 103.483,
            "street": "214  หมู่  6  ตำบลกระโพ  อ.  ท่าตูม  จ.สุรินทร์",
            "zip": "32120"
        },
        "name": "ร้านสมศรี จำหน่ายเครื่องรางบ้านช้าง",
        "phone": "086-8765643"
    },
    {
        "id": "1538663286388370",
        "location": {
            "city": "Amphoe Bang Phli",
            "country": "Thailand",
            "latitude": 13.59950609,
            "longitude": 100.71867140667
        },
        "name": "ร้านไพบูลย์การช่าง ซ่อม เครื่องมือก่อสร้าง"
    },
    {
        "id": "251069568386572",
        "location": {
            "city": "Bangkok",
            "country": "Thailand",
            "latitude": 13.861813220555,
            "longitude": 100.50032506397,
            "zip": "11000"
        },
        "name": "ร้าน ป.ชัยกิจ เครื่องมือช่าง ฮาร์ดแวร์"
    },
    {
        "id": "536284353075120",
        "location": {
            "city": "Fang",
            "country": "Thailand",
            "latitude": 19.923645327321,
            "longitude": 99.219395745235,
            "street": "396/1",
            "zip": "50110"
        },
        "name": "ร้านโฟกัสเครื่องมือช่าง",
        "phone": "053382098"
    },
    {
        "id": "1592922080919353",
        "location": {
            "city": "Bangkok",
            "country": "Thailand",
            "latitude": 13.82341,
            "longitude": 100.52563,
            "street": "ชุมทางบางซื่อ",
            "zip": "10800"
        },
        "name": "ตลาดเครื่องมือช่างและอุปกรณ์ งานจิวเวลรี่  มือ1มือ2",
        "phone": "\u003c\u003cnot-applicable\u003e\u003e"
    },
    {
        "id": "338728239628138",
        "location": {
            "city": "Samut Prakan",
            "country": "Thailand",
            "latitude": 13.61248,
            "longitude": 100.74425,
            "street": "บางพลี",
            "zip": "10540"
        },
        "name": "จัดจำหน่ายเครื่องมือบริการรถยนต์และเครื่องมือช่างทั่วไป",
        "phone": "084-673-6828"
    },
    {
        "about": "รับซ่อม tv lcd ทุกชนิด บริการรับส่งถึงบ้าน พร้อมรับประกันงานซ่อม ราคาไม่แพง ",
        "emails": [
            "nutcb3@gmail.com"
        ],
        "id": "811458935557145",
        "location": {
            "city": "Bangkok",
            "country": "Thailand",
            "street": "105/71-74 ซอย ประชาอุทิศ 45 แขวง บางมด เขต ทุ่งครุ",
            "zip": "10140"
        },
        "name": "รับซ่อม Tv Lcd บริการรับส่งเครื่องถึงบ้าน 081-018-0020 ช่างนัด",
        "phone": "0810180020"
    },
    {
        "about": "ขายอะไหล่รถเครื่องทุกชนิด สนใจติดต่อสอบถามได้นะครับ",
        "id": "495504410519701",
        "location": {
            "city": "Photharam",
            "country": "Thailand",
            "latitude": 13.70107,
            "longitude": 99.74072,
            "street": "อ.โพธาราม",
            "zip": "70120"
        },
        "name": "อะไหล่รถเครื่องช่าง สร โพธาราม",
        "phone": "0843221927"
    },
    {
        "id": "741206342599207",
        "location": {
            "city": "Bangkok",
            "country": "Thailand",
            "latitude": 14.48069,
            "longitude": 100.13099,
            "street": "103 ถ.เณรแก้ว ต.ท่าระหัด อ.เมือง จ.สุพรรณบุรี",
            "zip": "72000"
        },
        "name": "ร้าน บิ๊กโปร เครื่องมือช่าง",
        "phone": "035-525155"
    },
    {
        "id": "967512193297018",
        "location": {
            "city": "Bangkok",
            "country": "Thailand",
            "latitude": 13.8030796,
            "longitude": 100.8133087,
            "street": "ประเทศไทย",
            "zip": "10230"
        },
        "name": "ช่างแต่งหน้าณเกศ เครื่องสำอางค์ไทย Brandใหม่ Alayna",
        "phone": "025782290"
    },
    {
        "about": "ซ่อมเครื่องยนต์,เบรค,คลัช,ช่วงล่าง,ราคากันเอง",
        "id": "1620852664822467",
        "location": {
            "city": "Chiang Mai",
            "country": "Thailand",
            "latitude": 18.8118534,
            "longitude": 99.0112762,
            "street": "86/8 ม.1 ต.ต้นเปา อ.สันกำแพง จ.เชียงใหม่",
            "zip": "50130"
        },
        "name": "ต้นเปา ซ่อมเครื่อง เบรค คลัช ช่วงล่าง-ช่างห่วง",
        "phone": "0895580905"
    },
    {
        "id": "511801662258098",
        "location": {
            "city": "Bangkok",
            "country": "Thailand",
            "latitude": 13.70426,
            "longitude": 100.40088,
            "street": "บางบอน , หนองแขม , ราษฎร์บูรณะ , พระประแดง , สมุทรปราการ",
            "zip": "10160"
        },
        "name": "อุปกรณ์และเครื่องมือช่างต่างๆ ทั้งของใหม่และมือสอง",
        "phone": "08-1565-9501"
    },
    {
        "about": "All Tools .!!!!",
        "id": "1411920182462075",
        "name": "Bluepoint Equipment เครื่องมือช่างมาตรฐาน"
    },
    {
        "id": "1641911946075514",
        "name": "ช่างผลิตเครื่องมือและแม่พิมพ์ TD"
    },
    {
        "about": "Dynamechor ศูนย์รวมเครื่องมือช่างครบวงจร 02-415-5568,081-842-5820(8.30 - 18.00) www.dynamechor.com",
        "description": "ศูนย์รวมสินค้าอุตสาหกรรมชั้นนำ รวมทุกยี่ห้อให้คุณที่นี่ !!\nPROFRESSIONAL POWER TOOLS\n\nบจก. ไ่ดนาเมคคอร์ ศูนย์รวมเครื่องมือช่างทุกชนิด\nบริษัท ไดนาเมคคอร์ ผู้แทนจำหน่ายและนำเข้าเครื่องมืออุตสาหกรรมทุกชนิด ทุกยี่ห้อ ยาวนานกว่า 30 ปี เรามุ่งมั่นคัดสรรสินค้ามีคุณภาพจากทั่วทุกมุมโลกมาจำหน่ายในราคาย่อมเยาและเป็นธรรม มีสินค้ามากมายกว่า 500 ชนิด มีทีมงานฝ่ายขาย ,ฝ่ายซ่อมบำรุง สามารถตอบสนองความต้องการของลูกค้าทันท่วงที \n\nจัดส่งทั่วประเทศ ด้วยบริการรวดเร็ว\nTEL: 02-415-5568 , 081-842-5820 (8.30 - 18.00)",
        "id": "310964728999348",
        "name": "Dynamechor ศูนย์รวมเครื่องมือช่างครบวงจร"
    },
    {
        "about": "เครื่องมือช่าง",
        "description": "ที่ร้านจะมีทั้งเครื่องมือที่มีคุณภาพดี ราคาของสินค้าเหมาะสมกับคุณภาพ  ถ้าสินค้าตัวไหนเกรดพอใช้และใช้งานไม่บ่อยไม่ต้องใช้ดีมาก ก็มีขายในราคาตามปกติครับ ที่ร้านนี้จะไม่เอาของถูกๆแย่ๆมาบอกว่าเป็นเยอรมัน ญี่ปุ่นครับ !!?",
        "emails": [
            "a_care22@hotmail.com"
        ],
        "id": "352761671478053",
        "location": {
            "city": "Bangkok",
            "country": "Thailand",
            "street": "37 Vivatvieng rd., Sampanthawong",
            "zip": "10100"
        },
        "name": "Twltools - เครื่องมือช่างและอุปกรณ์",
        "phone": "0897448999"
    },
    {
        "id": "671623372974455",
        "name": "ช่างเครืองบินสาขาเครื่องวัดและไฟฟ้า"
    },
    {
        "about": "ติดต่อดูสินค้าอีกช่องทาง. 082-1729269\nหรือกดตรง เกียวกับจะเจอลิงค์นะคะ\n",
        "id": "883111885039912",
        "name": "เต็นท์นอนกับเครื่องมือช่าง และ อื่นๆรวมกันไป"
    },
    {
        "about": "รับซ่อมปั้มน้ำ สว่าน เคื่รองมือช่าง. 0875175204 ช่างปุ๊ ครับ line 0875175204",
        "id": "616761621782802",
        "name": "ซ่อม ปั้มน้ำ สว่าน เครื่องมือช่าง ในเขตจังหวัดอุดรธานี"
    },
    {
        "id": "208248359190790",
        "name": "ช่างซ่อมเครื่องใช้ไฟฟ้า"
    },
    {
        "id": "1029950300369726",
        "name": "ช่างเครื่องจักรกล(โรบีท)และเครื่อง(กรุ๊ปภาพสี)"
    },
    {
        "id": "1066472556730100",
        "name": "ช่างประกอบติดตั้งเครื่องชั่งน้ำตาล"
    }
]