[
    {
        "id": "105316059816830",
        "location": {
            "city": "Mae Mo",
            "country": "Thailand",
            "latitude": 18.3014037,
            "longitude": 99.7510871
        },
        "name": "โรงไฟฟ้า เเผนก โรงงานเครื่องกล หมวดช่างเชื่อมโลหะ"
    },
    {
        "id": "105454889800328",
        "location": {
            "city": "Ban Nong Ki",
            "country": "Thailand",
            "latitude": 14.315878768974,
            "longitude": 102.74986982346
        },
        "name": "เพิ่มสโชคดีเครื่องมือช่าง - เจ้นกตลาดเก่าอโนนดินแดง"
    },
    {
        "id": "513384065478064",
        "location": {
            "city": "Bangkok",
            "country": "Thailand",
            "latitude": 13.7017899,
            "longitude": 100.4905319,
            "street": "40/12 ซ องคารัก19",
            "zip": "1300"
        },
        "name": "ช่างวิทย์เซอร์วิส ติดฟลิม เครื่องเสียง",
        "phone": "0834325692"
    },
    {
        "about": "คัดสรรคทุกคุณภาพ  เพื่อความต้องการของลูกค้า  ",
        "id": "469319009906396",
        "name": "ช่างแคน - พ่อใหญ่น้อม เครื่องดนตรีพื้นเมือง"
    },
    {
        "about": "บริการสินค้าเครื่องมือช่าง พร้อมอะไหล่ทุกชนิด",
        "id": "137117639781838",
        "name": "PPk เครื่องมือช่าง"
    },
    {
        "about": "อุปกรณ์และเครื่องมืองานช่าง งานช่าง",
        "id": "730510933722031",
        "location": {
            "city": "Pak Kret",
            "country": "Thailand",
            "latitude": 13.9660463,
            "longitude": 100.4344711,
            "street": "180/921",
            "zip": "11120"
        },
        "name": "อุปกรณ์และเครื่องมืองานช่าง",
        "phone": "0958967913"
    },
    {
        "id": "742706175876123",
        "name": "ผลิดเครื่องบดน้ำแข็ง ลูกสาวช่างธง นู๋ส้ม"
    },
    {
        "id": "519606404883111",
        "location": {
            "city": "Bangkok",
            "country": "Thailand",
            "latitude": 13.823446804595,
            "longitude": 100.51418966273
        },
        "name": "ช่างนุ๊กวิศกรเครื่องมือวัดพระจอมเกล้าพระนครเหนือ"
    },
    {
        "id": "848825138557851",
        "name": "ช่างปรับ CONDITION เครื่องฉีดพลาสติก"
    },
    {
        "about": "เครื่องมือช่างก่อสร้าง ช่างยนต์ ช่างไฟฟ้า-ประปา ช่างไม้และช่างอื่นๆ",
        "id": "882244565197917",
        "name": "AR เครื่องมือช่างทุกประเภท ราคาย่อมเยา ปลีก-ส่ง"
    },
    {
        "id": "440568439479702",
        "name": "ช่างเครื่องหลอด"
    },
    {
        "id": "145150999168843",
        "name": "เครื่องมือช่าง 8   บ้าน \u0026 โรงงาน"
    },
    {
        "about": "จำหน่ายเครื่องมือตัด เครื่องมือช่าง เครื่องมือวัด",
        "description": "JN INNO TEC จัดจำหน่ายเครื่องมืออุตสาหกรรม เครื่องมือตัดเฉือน ยี่ห้อชั้นนำ Ceratizit, Carmex, Kyocera, Walter , Garant , Holex , ZCC-CT ส่วนสินค้าในกลุ่มของ Hoffmann จะทำการตลาดภายใต้แบรนด์ Garant ,Holex เป็นหลัก และแบรนด์พันธมิตร กว่า 500 brand ซึ่งจะมีเครื่องมือที่จะสนับสนุนการทำงานภายในโรงงานของท่านอย่างครบถ้วน  นอกจากนี้ ทางเรายังให้บริการด้าน Special tools และ Digital Read Out system(DRO) ของ Carmar อีกด้วย\n",
        "emails": [
            "kittikorn.jaii@gmail.com"
        ],
        "id": "110273739058612",
        "location": {
            "street": "155/2 Green Park, Soi.Koobon27 Yak11, Tharang",
            "zip": "10230"
        },
        "name": "เครื่องมือช่าง เครื่องมือตัดเฉือน",
        "phone": "061 789 4295 , 093 423 2632"
    },
    {
        "id": "387182988150447",
        "location": {
            "city": "Nonthaburi",
            "country": "Thailand",
            "latitude": 13.82033034,
            "longitude": 100.51611962
        },
        "name": "แผนกช่าง เขียนแบบและผลิตเครื่องกล"
    },
    {
        "id": "106081189562211",
        "location": {
            "latitude": 16.782919554987,
            "longitude": 101.28326333137
        },
        "name": "ร้านเครื่องเสียงรถยนต์ ทีมงานช่างจ๊อด"
    },
    {
        "id": "106506446348791",
        "location": {
            "city": "Amphoe Muang Lop Buri",
            "country": "Thailand",
            "latitude": 14.811988098353,
            "longitude": 100.54522805899
        },
        "name": "ร้านหนุ่ม เครื่องมือช่าง"
    },
    {
        "id": "116578142012097",
        "location": {
            "city": "Ban Non Som Kop",
            "country": "Thailand",
            "latitude": 14.947108268738,
            "longitude": 100.63475036621,
            "zip": "15160"
        },
        "name": "กองบินชื่อดัง ย่านศูนย์การบินฯ ที่มียักษ์บินได้ และช่างเครื่องหน้าตาดี"
    },
    {
        "id": "116883665122960",
        "location": {
            "city": "Ubon Ratchathani",
            "country": "Thailand",
            "latitude": 15.177205294118,
            "longitude": 104.86762411765
        },
        "name": "ชาติชายวาริณ จำหน่ายเครื่องตัดหญ้า เครื่องมือช่าง"
    },
    {
        "id": "237785223088881",
        "location": {
            "city": "Pattaya",
            "country": "Thailand",
            "latitude": 12.839309677667,
            "longitude": 100.90847524546,
            "zip": "20250"
        },
        "name": "อ๊อฟฟิตช่างห้องเครื่อง Ambassador City"
    },
    {
        "id": "119730131566566",
        "location": {
            "city": "Chiang Mai",
            "country": "Thailand",
            "latitude": 18.80321,
            "longitude": 98.98107,
            "street": "Chang Phueak Road"
        },
        "name": "อู้ช่างน้องรับซ่อมเครื่องบิน"
    },
    {
        "id": "122746841220735",
        "location": {
            "city": "Rayong",
            "country": "Thailand",
            "latitude": 12.633630784706,
            "longitude": 101.42283392148,
            "zip": "21160"
        },
        "name": "อู่เวียงชัย การช่าง ซ่อมเครื่องยนต์ ถ่ายน้ำมันเครื่อง อัดจารบี"
    },
    {
        "about": "ร้านซ่อมเครื่องใช้ไฟฟ้า",
        "id": "349056378596382",
        "location": {
            "city": "Nakhon Si Thammarat",
            "country": "Thailand",
            "latitude": 8.21595,
            "longitude": 100.03936,
            "street": "219 ม.1 ต.ดอนตรอ จ.นครศรีธรรมราช",
            "zip": "80290"
        },
        "name": "ร้านช่างบ่าว ซ่อมเครื่องใช้ไฟฟ้าทุกชนิด",
        "phone": "0891959905"
    },
    {
        "id": "302128996652851",
        "location": {
            "city": "Bang Pu",
            "country": "Thailand",
            "latitude": 13.538008746166,
            "longitude": 100.61868683033
        },
        "name": "แผนกช่างเขียนแบบเครื่องกล วท.สมุทรปราการ"
    },
    {
        "id": "286100204880293",
        "location": {
            "latitude": 18.244193187,
            "longitude": 99.529724931437
        },
        "name": "สนามเครื่องบินเล็ก บ้านโทกหัวช้าง"
    },
    {
        "id": "128343924005957",
        "location": {
            "city": "Ubon Ratchathani",
            "country": "Thailand",
            "latitude": 15.267209317549,
            "longitude": 104.83432936492
        },
        "name": "Ubon R/C Club - ร้านเครื่องบินบังคับ ช่างหนุ่ม"
    }
]