[
    {
        "about": "รับประกันแท้ทุกรายการครับ",
        "description": "เครื่องมือเก่าเก็บใช้งานเเละสะสม แบ่งๆกันชมใครมีไรก็แบ่งกันมาชมได้ครับ หรือมีไรมาขายก็เสนอมาได้ครับ",
        "emails": [
            "eakphakhaphon@gmail.com"
        ],
        "id": "1448921015389338",
        "location": {
            "city": "ปทุมธานี",
            "street": "99 หมู่ที่ 4 พระตำหนักจักรีบงกช",
            "zip": "12000"
        },
        "name": "ภคพล เครื่องมือช่าง",
        "phone": "0898149659"
    },
    {
        "id": "384832225038051",
        "location": {
            "city": "Bangkok",
            "country": "Thailand",
            "latitude": 13.6696865,
            "longitude": 100.4108403,
            "street": "3/201พฤกษาวิลล่า53/2ซ.สะแกงาม14แขวงแสมดำ เตบางขุนเทียน",
            "zip": "10150"
        },
        "name": "ช่างอั๋น ซ่อมเครื่องดนตรี พันธ์ุทิพย์ประตูน้ำ",
        "phone": "0907900197"
    },
    {
        "about": "บล๊อกชุดมาตรฐาน/เล็ก/ใหญ่  Kingtony Koche Fion Solo Hobo ประแจ เครื่องมือช่าง อุปกรณ์ช่างฯลฯ",
        "id": "411593489018632",
        "name": "Superboxบล็อคชุด เครื่องมือช่าง"
    },
    {
        "about": "facebook ใหม่เข้าไปดูได้ที่ www.facebook.com/pnsupply.sparepart\n\n092-5695963 / 081-4259459",
        "description": "เราขายอะไหล่เครื่องถ่ายเอกสาร ทุกรุ่น อะไหล่ใหม่ และ อะไหล่ถอดจากเครื่อง สป็อง ผ้าเวป ผงหมึกทุกรุ่น  ลูกยาง ลูกบน ลูกล่าง มีครบ ยางดึงกระดาษ ฝาฝีด ชุดดรัม มอเตอร์ สายไฟ วงจร",
        "id": "379218482208038",
        "name": "อะไหล่เครื่องถ่าย ผงหมึก ช่างซ่อม ครบทุกอย่าง"
    },
    {
        "about": "ให้เช่าบูชาและรับจัดหาพระเครื่องรับประกันพระแท้ตลอดชีพตามหลักสากลครับ",
        "id": "388902937949848",
        "location": {
            "city": "Bang Sai",
            "country": "Thailand",
            "latitude": 14.15645,
            "longitude": 100.54216,
            "street": "วัดช้างใหญ่ ต.ช้างใหญ่ อ.บางไทร",
            "zip": "13290"
        },
        "name": "เจ๋งช้างใหญ่พระเครื่อง โทร 081-6321417 ยินดีเสมอครับ",
        "phone": "0816321417"
    },
    {
        "about": "จำหน่ายสว่าน หินเจียร์ แท่นตัด ตู้เชื่อม เครื่องมือช่าง ของแท้มือสอง",
        "id": "862965420406038",
        "location": {
            "city": "Saraburi",
            "country": "Thailand",
            "latitude": 14.468580700975,
            "longitude": 100.92739462852,
            "street": "39 หมู่3 ต.หนองปลาไหล อ.เมือง สระบุรี",
            "zip": "18000"
        },
        "name": "เครื่องมือช่าง มือสอง สระบุรี พระฉาย",
        "phone": "0898968220"
    },
    {
        "about": "ข่าวสารวิชาการเรียน ผลงานรุ่นพี่\n//เลื่อนดูข้างล่างเลย",
        "description": "สาขาวิชาเครื่องโลหะ... มหาวิทยาลัยเทคโนโลยีราชมงคลรัตนโกสินทร์ วิทยาเขต เพาะช่าง )) \n\nคำว่า “เพาะช่าง“ ได้รับพระราชทานนามจาก พระบาทสมเด็จพระมงกุฎเกล้าเจ้าอยู่หัวรัชกาลที่ 6 ว่า “โรงเรียนเพาะช่าง“ ในวาระที่ได้เสด็จพระราชดำเนินมาทรงเปิดโรงเรียนเมื่อวันที่ 7 มกราคม พ.ศ.2456\n\nเพจนี้จัดตั้งขึ้นเพื่อ ประชาสัมพันธ์ข่าวสารต่างๆ และโชว์ผลงานของนักศึกษาและสิ่งที่น่าสนใจในแผนกเรา..\n\n",
        "id": "442297145890719",
        "location": {
            "city": "กรุงเทพมหานคร ",
            "street": "86 ถ.ตรีเพชร แขวงวังบูรพาภิรมย์ เขตพระนคร",
            "zip": "10200"
        },
        "name": "แผนก\"เครื่องโลหะรูปพรรณและอัญมณี\" เพาะช่าง"
    },
    {
        "about": "เครื่องมือช่างเกษตรทุกชนิด",
        "description": "เครื่องมือช่างการเกษตรราคาถูก ปั้มน้ำ มอเตอร์ สว่าน เครื่องพ่น ปั้มลม ไฟเบอร์ เครื่องปั่นไฟ สายดูด สายส่ง ราคาต่อรองได้ ตั้งอยู่ที่บ่อสร้างสันกำแพงอยู่ตรงข้างธนาคารกรุงเทพสาขาบ่อสร้าง  มี 2 สาขา สาขาแรก บ้านม่วงโตน อำเภอดอยสะเก็ด จังหวัดเชียงใหม่ มีทั้งเครื่องมือช่างการเกษตรมือสองเปิดมานานกว่า 30 ปี รับประกันความถูกและคุณภาพสินค้า เบอร์ติดต่อ 081-1115001   053840550",
        "emails": [
            "iboon2007@hotmail.com"
        ],
        "id": "506036619421148",
        "location": {
            "city": "Chiang Mai",
            "country": "Thailand",
            "latitude": 18.801180611704,
            "longitude": 99.145045280457,
            "street": "183 หมู่ 4 ต.แม่ฮ้อยเงิน",
            "zip": "50220"
        },
        "name": "ร้านศรีสง่าม่วงโตนเครื่องมือช่างเครื่องมือการเกษตร",
        "phone": "66811115001"
    },
    {
        "about": "จำหน่ายเครื่องปั๊มข้อเสือและปั๊มพวงมาลัยทุกชนิด ",
        "description": "จำหน่ายเครื่องปั๊มข้อเสือและปั๊มพวงมาลัยทุกชนิด  สำหรับปั๊มโลหะ,รองเท้า, ถุงพลาสติก,ดอกไม้ประดิษฐ์ ฯลฯ \nติดต่อได้ 24 ชม. ที่ ลิ้มการช่าง \nTel : 02-892-2613 , Mobile : 083-029-9951\nE-mail : limkanchang@gmail.com ",
        "id": "101559409984602",
        "name": "จำหน่ายเครื่อง ปั๊มข้อเสือ ปั๊มพวงมาลัย ลิ้มการช่าง"
    },
    {
        "id": "144750759056121",
        "name": "ช่างเครื่องบิน"
    },
    {
        "id": "142377569113553",
        "name": "ช่างเครื่องเรือ"
    },
    {
        "about": "จำหน่าย เครื่องอัดอิฐบล็อก แบบท่อ แบบเสา แบบรองน้ำ แบบเหล้กทุกชนิด \nสนใจติดต่อ . 089-9107898, 089-9110906",
        "description": "รับทำเครื่องอัฐอิฐบล็อก แบบเสา แบบท่อ แบบรองน้ำ แบบเหล็กทุกชนิด เครื่องอัดอิฐบล็อคแบบธรรมดา/ไฮดรอลิก แบบพิมพ์อิฐบล็อคลวดลายต่างๆ \n\n\nที่อยู่ 29/3 ม.1 ต.พิหารแดง อ.เมืองสุพรรณบุรี จ.สุพรรณบุรี\nสนใจติดต่อเบอร์โทรศัพท์ \n089-910-7898 , 089-911-0906  หรือ ID Line : 26074",
        "emails": [
            "mmm_4567@hotmail.com"
        ],
        "id": "141704752646800",
        "location": {
            "city": "Muang Suphan",
            "country": "Thailand"
        },
        "name": "โรงงานกำลังการช่าง จำหน่าย-ซ่อม เครื่องอัดอิฐบล็อก",
        "phone": "0899110906"
    },
    {
        "id": "597641080255117",
        "name": "ประวิทย์ วงศ์พายัพไพบูลย์ - อนุรักษ์พระเครื่องหลวงปู่ทวดวัดช้างให้"
    },
    {
        "id": "1114349035259792",
        "location": {
            "city": "Amphoe Pak Phanang",
            "country": "Thailand",
            "latitude": 8.35,
            "longitude": 100.2,
            "street": "ปากพนัง",
            "zip": "80140"
        },
        "name": "ติดตั้งเครื่องเสียง ช่างเต็ด ปากพนังคาดิโอ",
        "phone": "0980805411"
    },
    {
        "about": "จำหน่ายและรับซ่อม จำพวก เครื่องตัดหญ้า ปั๊มซัมเมอร์จ เครื่องปั่นไฟ เครื่องมือช่าง ฯลฯ",
        "id": "218900674923706",
        "location": {
            "city": "Nong Bua Lamphu",
            "country": "Thailand",
            "latitude": 17.15473,
            "longitude": 102.41668,
            "street": "อ.เมือง",
            "zip": "39000"
        },
        "name": "เครื่องเกษตรและเครื่องมือช่าง เจ็ดหกเกษตรยนต์",
        "phone": "042-360176 , 042-360079,081-8722685,081-1316630"
    },
    {
        "about": "จำหน่ายเครื่องมือช่างคุณภาพดี ของใหม่แกะกล่อง",
        "id": "439357392856218",
        "name": "ขายเครื่องมือช่าง"
    },
    {
        "about": "ซ่อม จำหน่าย อะไหล่เครื่องมือช่าง ",
        "emails": [
            "kosol_air@hotmail.com"
        ],
        "id": "1489193798065319",
        "location": {
            "city": "Krabi",
            "country": "Thailand",
            "street": "479 ถ.อุตรกิจ ต.กระบี่ใหญ่",
            "zip": "81000"
        },
        "name": "เครื่องมือช่าง ซ่อม จำหน่ายอะไหล่ K.n.เซอร์วิส 0878902277",
        "phone": "0878902277"
    },
    {
        "emails": [
            "vtntool@gmail.com"
        ],
        "id": "180120985379336",
        "location": {
            "city": "Bangkok",
            "country": "Thailand",
            "latitude": 13.650746012512,
            "longitude": 100.3872791737,
            "street": "Ekkachai Road",
            "zip": "10150"
        },
        "name": "Vtntools ศูนย์รวมอะไหล่เครื่องมือช่าง ครบวงจร",
        "phone": "662-451-0979"
    },
    {
        "about": "Construction Powertools Supply and Repair Service. จำหน่าย เครื่องมือช่าง อะไหล่ และ อุปกรณเสริม ทุกชนิด",
        "id": "1531362443764271",
        "location": {
            "city": "อ.เมือง จ.ขอนแก่น",
            "street": "86/5 ถ.หน้าเมือง ต.ในเมือง",
            "zip": "40000"
        },
        "name": "CS Powertools Service จำหน่าย เครื่องมือช่าง",
        "phone": "+66816629009"
    },
    {
        "about": "เครื่องมือช่าง และ งานไม้ ไผ่เปร็ง",
        "description": "จำหน่ายเครื่องมือช่าง เก่าเก็บ ของใหม่ของเก่า คุณภาพสูง ของต่างประเทศ เช่นยุโป US  และจำหน่ายงานไม้หายาก ไม้หายาก เช่น ไม้ตะพด ด้ามค้อน ด้ามขวาน ด้ามมีด ลูกประคำแก่นมะขาม ลูกประคำงิ้วดำ ลูกประคำพยุง ไผ่เปร็ง รับงานตามออร์เดอร์ ติดต่อคุยกันได้ที่ 0851469465 และ 0809224656 สองเบอร์นี้เท่านั้นครับ นุดินแดง ครับผม ",
        "id": "450552561663326",
        "name": "เครื่องมือช่าง"
    },
    {
        "about": "บริการติดตั้งเครื่องเสียงรถยนต์ รับติดตั้งประดับยนต์  ( รับประกันเลยน่ะคัฟ) ",
        "id": "156905414433316",
        "name": "ร้านเครื่องเสียง ช่างโอ๋ตัวกลม"
    },
    {
        "about": "บริการจำหน่าย ลิฟท์ยกรถ เครนยกเครื่อง เครื่องถอดประกอบสปริงโช๊คอัพ และเครื่องมืออื่นๆ",
        "description": "\nหจก. วี.ที.พี. เครื่องมือช่าง\n บริการจำหน่ายเครื่องมือช่างยนต์ต่างๆที่ใช้ในงานให้บริการซ่อมรถยนต์\n เช่น ลิฟท์ยกรถ, เครื่องเจียรจานเบรค, เครนยกเครื่อง, เครื่องถอด/ประกอบสปริงโช๊คอัพ, ตู้เก็บเครื่องมือ, แม่แรงตะเข้, ประแจและลูกบ็อกต่าง\n\nสนใจสอบถามรายละเอียดได้ครับ\n095-541-5160\nLine id : vtp024\n\n\nขอบคุณครับ\n",
        "emails": [
            "vtptools@gmail.com"
        ],
        "id": "171358652999578",
        "location": {
            "street": "นนทบุรี",
            "zip": "11110"
        },
        "name": "หจก. วี.ที.พี. เครื่องมือช่าง",
        "phone": "095-541-5160"
    },
    {
        "id": "483170705179089",
        "name": "ช่างแอร์/เครื่องเสียง"
    },
    {
        "about": "รับซ่อมทีวี เครื่องเสียง เครื่องใช้ไฟฟ้า 087-081-8576 / 090-910-8677",
        "description": "ที่ตั้ง :\nอยู่ในหมู่บ้านเอื้ออาทรระยอง อ.เมือง ไกล้ๆหมู่บ้านเพลินใจ 2 ",
        "emails": [
            "tono_0110@hotmail.com"
        ],
        "id": "408985252512488",
        "location": {
            "city": "ระยอง",
            "street": "143/หมู่2 ถนนสุขุมวิท ตำบลเนินพระ อำเภอเมืองระยอง จังหวัดระยอง 21000",
            "zip": "21000"
        },
        "name": "สองเสี่ยวการช่าง รับซ่อมถึงบ้าน ทีวี เครื่องเสียง",
        "phone": "087-081-8576"
    },
    {
        "about": "ช่างติดตั้งเครื่องทำน้ำอุ่นโคราช",
        "id": "1399794250267029",
        "name": "ช่างติดตั้งเครื่องทำน้ำอุ่น"
    }
]