[
    {
        "id": "133950363443625",
        "location": {
            "city": "Hat Yai",
            "country": "Thailand",
            "latitude": 7.0945664476002,
            "longitude": 100.46815683952,
            "street": "Lopburi Ramesuan Road",
            "zip": "90110"
        },
        "name": "ดี.เอ็น.รวมช่าง จำหน่ายเครื่องกรองน้ำทุกระบบ"
    },
    {
        "id": "130029463838576",
        "location": {
            "city": "Bangkok",
            "country": "Thailand",
            "latitude": 13.75395,
            "longitude": 100.50224,
            "street": "Bang Kruai-sai Noi Road"
        },
        "name": "ช่างเจี๊ยบ วางเครื่อง"
    },
    {
        "id": "126734064346529",
        "location": {
            "city": "Bangkok",
            "country": "Thailand",
            "latitude": 13.694136257026,
            "longitude": 100.46395684936,
            "street": "พระราม2 ซอย28 แยก30 เขตจอมทอง"
        },
        "name": "ร้านติดตั้งเครื่องเสียงรถยนต์ ช่างไพร คาร์ออดิโอ"
    },
    {
        "id": "126405170863129",
        "location": {
            "city": "Srimahapho",
            "country": "Thailand",
            "latitude": 14.05174,
            "longitude": 101.37466,
            "street": "31/1ม.7 ต.ท่าตุม อ.ศรีมหาโพธิ"
        },
        "name": "ลานเครื่องเสียงหน้าบ้านช่างบอมโป่งไผ่"
    },
    {
        "about": "ขายเครื่องมือช่างและฮาร์ดแวร์ · อุปกรณ์ก่อสร้าง ทุกชนิิด",
        "id": "1473903596185849",
        "location": {
            "city": "Bangkok",
            "country": "Thailand",
            "latitude": 13.82341,
            "longitude": 100.52563,
            "street": "96/2",
            "zip": "10800"
        },
        "name": "ขายเครื่องมือช่างทุกชนิด",
        "phone": "0906252915"
    },
    {
        "id": "386162758105264",
        "location": {
            "city": "Nakhon Ratchasima",
            "country": "Thailand",
            "latitude": 14.965068588122,
            "longitude": 102.15777354314
        },
        "name": "ศูนย์เครื่องจักรกล กองช่าง องค์การบริหารส่วนจังหวัดนครราชสีมา"
    },
    {
        "id": "258354637548626",
        "location": {
            "city": "Nakhon Ratchasima",
            "country": "Thailand",
            "latitude": 14.964884904135,
            "longitude": 102.15777973958
        },
        "name": "ศูนย์เครื่องจักรกล กองช่าง อบจ."
    },
    {
        "about": "รับดีดบ้าน เคลื่อนย้ายบ้าน ดีดหลังคาโรงงานอุตสาหกรรม ติดต่อ 0813792082\n",
        "description": "รับดีดบ้าน เคลื่อนย้ายบ้าน เคลื่อนย้ายเครื่องจักร  ดีดหลังคาโรงงานอุตสาหกรรม ย้ายโรงเรียน วัด\nราคาเป็นกันเองพูดคุย ติอต่อสอบถามได้ และมีประกันภัยระหว่างทำงาน \n***บริหารงานโดย พงษ์เจริญ การช่าง \n***เบอร์ติดต่อ 0813792082 , 0922727335 , 0945502577",
        "emails": [
            "oilrinma21@gmail.com"
        ],
        "id": "756514604442979",
        "location": {
            "latitude": 15.9015,
            "longitude": 100.25036,
            "zip": "66130"
        },
        "name": "รับดีดบ้าน ย้ายบ้าน ย้ายเครื่องจักร By พงษ์เจริญ การช่าง",
        "phone": "0813792082"
    },
    {
        "id": "713362772046718",
        "location": {
            "city": "Nakhon Sawan",
            "country": "Thailand",
            "latitude": 15.69168855,
            "longitude": 100.11351865,
            "street": "150/18 ม.4",
            "zip": "60000"
        },
        "name": "ช่างรัตน์ ซ่อมเครื่องยนต์",
        "phone": "0876915100"
    },
    {
        "id": "117768945233039",
        "location": {
            "city": "Amphoe Bang Sai",
            "country": "Thailand",
            "latitude": 14.157829284668,
            "longitude": 100.51441955566
        },
        "name": "แผนกช่างเครื่องเรือนหวาย ศูนย์ศิลปาชีพ บางไทร"
    },
    {
        "id": "377361579134154",
        "location": {
            "city": "Phra Nakhon",
            "country": "Thailand",
            "latitude": 13.75,
            "longitude": 100.517
        },
        "name": "แผนกช่างเขียนแบบเครื่องกล วิทยาลัยเทคนิคพระนครศรีอยุธยา"
    },
    {
        "id": "1618072655126784",
        "location": {
            "city": "Nakhon Ratchasima",
            "country": "Thailand",
            "latitude": 14.975,
            "longitude": 102.1,
            "street": "83หมู่2 ต.หนองระเวียง",
            "zip": "30000"
        },
        "name": "อู่ช่างนะ รับต่อตัวถังดั๊ม ประกอบรถใหม่ ติดตั้ง ซ่อมเครื่อง ช่วงล่าง",
        "phone": "0897219989"
    },
    {
        "about": "เครื่องมือช่าง",
        "id": "1388029374829964",
        "name": "เครื่องมือช่าง"
    },
    {
        "about": "จัดจำหน่าย เครื่องมือช่างราคาส่ง/ปลีก ถูกกว่าท้องตลาด",
        "id": "1640484126239268",
        "location": {
            "city": "Bangkok",
            "country": "Thailand",
            "latitude": 13.7481899,
            "longitude": 100.5143814,
            "street": "พลับพลาชัย",
            "zip": "10100"
        },
        "name": "เครื่องมือช่าง",
        "phone": "0910970979"
    },
    {
        "id": "1714193695477841",
        "location": {
            "city": "Bangkok",
            "country": "Thailand",
            "latitude": 13.7293596,
            "longitude": 100.4743118,
            "street": "พระราม4คลองเตยครับ",
            "zip": "10110"
        },
        "name": "เครื่องมือช่าง อะตอม ไทยแลนด์โอรี่",
        "phone": "0923405665"
    },
    {
        "id": "703474273117341",
        "location": {
            "city": "Bangkok",
            "country": "Thailand",
            "latitude": 13.7253132,
            "longitude": 100.4305267,
            "street": "416 ถ.เพชรเกษม",
            "zip": "10160"
        },
        "name": "เครื่องมือช่าง",
        "phone": "0881555990"
    },
    {
        "about": "ขายเครื่องมือช่าง เครื่องมือเกษตรมือ2 สภาพดี",
        "id": "1497225417241596",
        "location": {
            "city": "Wiang Sa",
            "country": "Thailand",
            "latitude": 18.5667,
            "longitude": 100.75,
            "street": "258 หมู่ 8",
            "zip": "55110"
        },
        "name": "เครื่องมือช่าง เครื่องมือเกษตร มือ2",
        "phone": "054752391"
    },
    {
        "id": "1544441745833650",
        "name": "ช่างเครื่อง"
    },
    {
        "id": "771976166265188",
        "name": "ช่างซ่อมเครื่องซักผ้า ล้างแอร์"
    },
    {
        "id": "764835103625374",
        "name": "ช่างซอมเครื่อง"
    },
    {
        "id": "1614915278774141",
        "name": "ช่างเครื่อง ชั้น3"
    },
    {
        "description": "เครื่องราชอิสริยาภรณ์ล้านช้างร่มขาว เป็นเครื่องราชอิสริยาภรณ์ชั้นสูงสุดแห่งราชอาณาจักรลาวประวัติเครื่องราชอิสริยาภรณ์ล้านช้างร่มขาว สถาปนาเมื่อวันที่ 1 พฤษภาคม ค.ศ. 1909 โดย พระบาทสมเด็จพระเจ้ามหาชีวิตศรีสว่างวงศ์ชั้นและเครื่องยศเครื่องราชอิสริยาภรณ์ล้านช้างร่มขาวแบ่งเป็นหกชั้น มีลำดับเกียรติตามลำดับชั้นสูงสุดถึงต่ำสุดดังนี้ :  ชั้นสายสร้อย (ชั้นสูงสุด - สำหรับองค์พระเจ้ามหาชีวิตและประมุขรัฐต่างประเทศ) ประถมาภรณ์  ทุติยาภรณ์ ตริตาภรณ์ จตุรถาภรณ์ เบญจมาภรณ์เครื่องหมายแพรแถบ สีแดงประกอบลายพื้นเมืองสีเหลืองของลาวสมาชิกราชอิสริยาภรณ์ ราชอาณาจักรเนปาลสมเด็จพระเจ้ามเหนทรพีรพิกรมศาหเทวะ (ค.ศ. 1955–1972) (ค.ศ. 1970) สมเด็จพระราชินีรัตนาราชยลักษมีเทวีศาหะ (ค.ศ. 1960-1972) (1970)สมเด็จพระราชาธิบดีพีเรนทรพีรพิกรมศาหเทวะ (ค.ศ. 1972–2001) ขณะดำรงพระอิสริยศมกุฎราชกุมาร (ค.ศ. 1970)สมเด็จพระราชินีไอศวรรยาแห่งเนปาล, (ค.ศ. 1972-2001) ขณะดำรงพระอิสริยศมกุฎราชกุมารี (ค.ศ. 1970)พระบาทสมเด็จพระปรมินทรมหาภูมิพลอดุลยเดช (ค.ศ. 1963)สมเด็จพระนางเจ้าสิริกิติ์ พระบรมราชินีนาถ (ค.ศ. 1963)พระบาทสมเด็จพระสีสุวัตถิ์ มุนีวงศ์ (ค.ศ. 1927-1941)พระบาทสมเด็จพระนโรดม สุรามฤต (ค.ศ. 1955-1960) (ค.ศ. 1955)พระบาทสมเด็จพระนโรดม สีหนุ (ค.ศ. 1941-1955) / (ค.ศ. 1993-2004) สมเด็จพระจักรพรรดิบ๋าว ดั่ย (ค.ศ. 1926-1945)ชาร์ล เดอ โกลJean de Lattre de TassignyPhilippe Leclerc de Hauteclocque",
        "id": "778797965538436",
        "name": "Order of the Million Elephants and the White Parasol"
    },
    {
        "about": "เครื่องถ่ายเอกสาร เครื่องถ่ายเอกสารมือสอง จำหน่ายเครื่องถ่ายเอกสาร Cannon นำเข้าสภาพดี",
        "description": "ธานิน เครื่องถ่าย จำหน่ายเครื่องถ่ายเอกสาร Cannon นำเข้าสภาพดี บริการซ่อมเครื่องถ่ายเอกสาร Cannon จำหน่ายเครื่องถ่ายเอกสาร Cannon มือสอง อะไหล่ เครื่องถ่ายเอกสารราคาไม่เเพง รับเทิร์นเครื่องถ่ายเอกสาร Cannon ให้ราคาสูง",
        "id": "429406270550492",
        "location": {
            "city": "Bangkok",
            "country": "Thailand",
            "latitude": 13.70426,
            "longitude": 100.40088,
            "street": "57/2 หมู่ 6",
            "zip": "10160"
        },
        "name": "ช่างขาว เครื่องถ่าย",
        "phone": "0815924281"
    },
    {
        "about": "ทุกที่ทุกเวลา",
        "id": "1541710212720225",
        "location": {
            "city": "Bangkok",
            "country": "Thailand",
            "latitude": 14.704271236541,
            "longitude": 101.41338359343,
            "zip": "30130"
        },
        "name": "ช่างแบงค์ รับสักงานเครื่อง",
        "phone": "0938392502"
    },
    {
        "about": "จำหน่ายเครื่องยนต์การเกษตร คูโบต้า ยันม่าร์ ฮอนด้า พ่นยา ตัดหญ้า สูบน้ำ ปั่นไฟ มอเตอร์ Makita",
        "description": "บริษัท วี.ไอ.พี.แมชชีนเนอรี่ จำกัด เป็นบริษัทที่จัดตั้งขึ้นเพื่อการจำหน่าย เครื่องยนต์ทางการเกษตร อาทิเช่น คูโบต้า ยันมาร์ ฮอนด้า พ่นยา ตัดหญ้า เครื่องสูบน้ำ ชุดหางยาววิ่งเรือ มอเตอร์ ปั่นไฟ เครื่องมือช่าง Makita Maktec ตู้เชื่อม ปั้มลม อะไหล่ของเครื่องยนต์ทางการเกษตรทุกตัวที่เราจำหน่าย และมีบริการรับซ่อมด้วย ที่ตั้งอยู่ อ.ลาดหลุมแก้ว จ.ปทุมธานี",
        "emails": [
            "vipmachinery@hotmail.com"
        ],
        "id": "1436178216635211",
        "location": {
            "city": "Pathum Thani",
            "country": "Thailand",
            "latitude": 14.043206254562,
            "longitude": 100.42927767049,
            "zip": "12140"
        },
        "name": "VIP Machinery จำหน่าย เครื่องยนต์ทางการเกษตร และเครื่องมือช่าง",
        "phone": "02-976-2112"
    }
]