[
    {
        "id": "406788259528525",
        "location": {
            "city": "Khon Kaen",
            "country": "Thailand",
            "latitude": 16.4257736,
            "longitude": 102.8340149,
            "street": "84/6 ถ.รื่นรมย์1 อ.เมือง จ.ขอนแก่น",
            "zip": "40000"
        },
        "name": "ธนาเทรดดิ้ง ขายส่งเครื่องมือช่าง น็อต สกรู ขอนแก่น",
        "phone": "0819543412"
    },
    {
        "id": "718172541647074",
        "name": "ช่างปั้ม+นั่งเครื่อง"
    },
    {
        "id": "481333132032436",
        "name": "ช่าง ไฟฟ้า เครื่องวัด"
    },
    {
        "about": "จำหน่ายอะไหล่เลื่อยทุกชนิด",
        "id": "796925840396039",
        "name": "จำหน่ายเครื่องมือช่างและอุปกรณ์การเกษตร",
        "phone": "0988423254"
    },
    {
        "about": "รับซ่อมเครื่องใช้ไฟฟ้าภายในบ้าน บริการถึงที่ service ทันใจ ",
        "id": "792443407434200",
        "location": {
            "city": "Thailand",
            "street": "banchang",
            "zip": "10540"
        },
        "name": "ร้านบ้านช่าง รับซ่อมเครื่องใช้ไฟฟ้าทุกชนิด",
        "phone": "0879458754"
    },
    {
        "about": "จำหน่าย เครื่องมือช่าง อุปกรณ์ช่าง คุณภาพเยี่ยม ราคาปลีกและส่ง",
        "id": "1669616169935333",
        "name": "เครื่องมือช่าง ฮาร์ดแวร์ Dragon"
    },
    {
        "about": "อุปกรณ์ช่างยนต์ ช่างก่อสร้าง  ฮาร์ดแวร์ เครื่องมือราคาถูก ย่อมเยา คลองถม",
        "id": "568616083243348",
        "location": {
            "city": "Nonthaburi",
            "country": "Thailand",
            "latitude": 13.8665152,
            "longitude": 100.4799805,
            "street": "บางใหญ่",
            "zip": "11140"
        },
        "name": "คลองถมรุ่งเรืองวัฒนา เครื่องมือช่าง",
        "phone": "029249316, 0816596253 แฟกซ์ 029248373"
    },
    {
        "about": "ติดต่อ liine id :: Chatpiched \ntel. 089-0248988\n034-285387",
        "id": "470540749782186",
        "name": "ชาติ เครื่องมือช่าง มาตราฐานโลก"
    },
    {
        "about": "ขายอุปกรณ์เครื่องมือช่าง อุปกรณ์ไฟฟ้า ปะปา สี งานไม้ เครื่องใช้ไฟฟ้า และอื่ๆ",
        "id": "1439007523066617",
        "location": {
            "city": "กรุงเทพ",
            "street": "ถนนเลียบคลองภ่ษีเจริญฝั่งใต้ หนองแขม"
        },
        "name": "ทีเอสซัพพลาย เครื่องมือช่าง",
        "phone": "0625436227"
    },
    {
        "id": "767843619954791",
        "location": {
            "city": "Chanthaburi",
            "country": "Thailand",
            "latitude": 13.18622,
            "longitude": 102.21285,
            "street": "27 ม16ต.ทุ่งขนาน อ.สอยดาว จ.จันทบุรี",
            "zip": "22180"
        },
        "name": "เคพี เครื่องปรับอากาศ  \u0026 จานดาวเทียม  โทร 0989689190 ช่างเบิร์ด",
        "phone": "0989689190"
    },
    {
        "id": "984157258313076",
        "name": "ช่างประกอบเครื่อง c.n.c"
    },
    {
        "about": "โทร 0899509944",
        "id": "414728215212626",
        "location": {
            "city": "Chiang Mai",
            "country": "Thailand",
            "latitude": 19.2883,
            "longitude": 99.20923,
            "street": "100 ม.5 ต.ทุ่งหลวง อ.พร้าว จ.เชียงใหม่",
            "zip": "50190"
        },
        "name": "เอมยิ่งเจริญ เครื่องมือเกษตร  เครื่องมือช่าง   ปุ๋ย-ยา/จักรยาน",
        "phone": "0899509944"
    },
    {
        "about": " ศูนย์ขายส่ง เครื่องมือช่าง อุปกรณ์เกษตร-ศูนย์ภาดใต้ ส่งทั้วภาคใต้\n",
        "id": "1496927953856769",
        "location": {
            "city": "Amphoe Muang Trang",
            "country": "Thailand",
            "latitude": 7.7408974,
            "longitude": 99.3676229,
            "street": "เมือง",
            "zip": "92220"
        },
        "name": "ศูนย์ขายส่ง เครื่องมือช่าง อุปกรณ์เกษตร-ศูนย์ภาคใต้",
        "phone": "099-361-3454"
    },
    {
        "about": "ร้านการช่าง 70 บริการ รับซ่อมและขายเครื่องทุ่นแรงทุกชนิด ",
        "description": "ร้านการช่าง 70 บริการ รับซ่อมและขายเครื่องทุ่นแรง ทุกชนิด เช่น แม่แรง ตะเข้ รถยก รอก บล๊อคลม ไฮโดรลิค และ อื่นๆ\nรับงานกลึง ทุกชนิด โดยช่างผู้เชี่ยวชาญ\n",
        "emails": [
            "hydo_70service@hotmail.com"
        ],
        "id": "572649946193796",
        "location": {
            "city": "กรุงเทพฯ",
            "street": "70 ซ.บ้านบาตร ถ. บำรุงเมือง แขวง บ้านบาตร เขต ป้อมปราบฯ",
            "zip": "10100"
        },
        "name": "ร้านการช่าง 70 บริการ ซ่อมแม่แรง เครื่องทุ่นแรงทุกชนิด",
        "phone": "02-223-7637 / 081-919-2550"
    },
    {
        "about": "เครื่องครัวสแตนเลส รางน้ำฝน รางสังกะสี ลูกหมุนอากาศ ปล่องดูดควัน",
        "id": "1606845839563676",
        "name": "ชาตรีการช่าง เครื่องครัวสแตนเลส พัทยา"
    },
    {
        "about": "ตรวจเช็คสภาพรถ เปลี่ยนถ่ายนำ้มันเครื่อง ช่วงล่าง ฯลฯ",
        "id": "1006219126085379",
        "location": {
            "city": "Amphoe Bang Ban",
            "country": "Thailand",
            "latitude": 14.15662395,
            "longitude": 100.61894621,
            "street": "บางบาล",
            "zip": "13250"
        },
        "name": "อู่ช่างกวาง บางบาลตรวจเช็คสภาพรถ เปลี่ยนถ่ายนำ้มันเครื่อง ช่วงล่าง ฯลฯ",
        "phone": "0914135215"
    },
    {
        "about": "ขายเครื่องมือช่างและรับซ่อม",
        "id": "1631181533823135",
        "location": {
            "city": "Bangkok",
            "country": "Thailand",
            "latitude": 13.816515,
            "longitude": 100.5701599,
            "street": "ลาดพร้าว",
            "zip": "10240"
        },
        "name": "ขายเครื่องมือช่างและรับซ่อมทั่วไป",
        "phone": "0885055196"
    },
    {
        "about": "จำหน่ายอุปกรณ์การช่างและเครื่องมือ ราคาพิเศษ สนใจติดต่อได้ที่ ID LINE : teranothai31\nหรือ Tel : 0982578551 ",
        "emails": [
            "teratc31@gmail.com"
        ],
        "id": "1448104015503285",
        "location": {
            "city": "Phra Pradaeng",
            "country": "Thailand",
            "street": "118/4 ม.2",
            "zip": "10130"
        },
        "name": "จำหน่ายอุปกรณ์การช่างและเครื่องมือ ราคาพิเศษ",
        "phone": "0982578551"
    },
    {
        "about": "สมาร์ทสโตร์และศูนย์รวมน๊อต จำหน่าย น๊อต สกรู เครื่องมือช่าง ราคาโรงงาน ถูกที่สุด",
        "emails": [
            "smart_store_pc@hotmail.com"
        ],
        "id": "110127509115622",
        "location": {
            "city": "Amphoe Muang Khon Kaen",
            "country": "Thailand",
            "street": "118/1 mittrapharp road",
            "zip": "40000"
        },
        "name": "Smart Store ศูนย์รวมน็อต-เครื่องมือช่าง",
        "phone": "081-662 2350 / 088-557 6809/099-591 6698"
    },
    {
        "id": "959126824132879",
        "location": {
            "city": "Bangkok",
            "country": "Thailand",
            "latitude": 13.6489096,
            "longitude": 100.5033493,
            "street": "897/160 ,ซอย ประชาอุทิศ 59  แยก  5 , บางมด  ทุ่งครุ",
            "zip": "10140"
        },
        "name": "M.P.electric รับซ่อมเครื่องเชื่อม Iverter และเครื่องมือช่าง",
        "phone": "0888888888"
    },
    {
        "id": "905722259521152",
        "name": "ช่างฝือมือ...ช่างเครื่อง....พนักงานตรวจรถ...."
    },
    {
        "id": "907794602645915",
        "location": {
            "city": "Khon Kaen",
            "country": "Thailand",
            "latitude": 16.4333,
            "longitude": 102.833,
            "street": "115 หมู่10 ถนนน้ำพอง-กระนวน ตำบลทรายมูล อ.น้ำพอง",
            "zip": "40140"
        },
        "name": "ร้านเจ๊องุ่นเครื่องมือช่าง",
        "phone": "0819029173"
    },
    {
        "about": "จำหน่าย ปลีก-ส่ง ใบตัด ใบเจียร ตู้เชื่อม เครื่องมือช่าง\nT.084-110-8817\nLine ID 0841108817\nEmail:thirawat.s@hotmail.com",
        "description": "ชื่อที่อยู่สำหรับการตรวจสอบ \nนาย ณัฐธนะพงษ์ สุวรรณศรี T.084-110-8817\nที่อยู่ เลขที่ 817/249 หมู่ 7 ซ.วิทยุการบิน ถ. สุขุมวิท ต.ท้ายบ้านใหม่ อ.เมือง จ.สมุทรปราการ 10280",
        "emails": [
            "thirawat.s@hotmail.com"
        ],
        "id": "1604107936494550",
        "location": {
            "city": "จังหวัดสมุทรปราการ",
            "street": "817/249หมู่7 ซ.วิทยุการบิน ต.ท้ายบ้าน อ.เมือง",
            "zip": "10280"
        },
        "name": "ใบตัด ใบเจีย อุปกรณ์เครื่องมือช่าง",
        "phone": "0841108817"
    },
    {
        "id": "423328804528137",
        "name": "ช่างเครื่องมือกล ช.๒"
    },
    {
        "id": "750792578380290",
        "name": "ช่างเครื่องทำความเย็นและไฟฟ้า"
    }
]