[
    {
        "about": "เครื่องมือช่างหนัง จากนอกราคาถูกๆค่า\n\n 090-5485031\n\nนนทบุรี",
        "id": "856819711037287",
        "name": "อุปกรณ์เครื่องมือทำงานช่างหนัง"
    },
    {
        "id": "311521268999239",
        "name": "ช่างเครื่องเสียง"
    },
    {
        "about": "เครื่องถม เครื่องเงิน ราคาสอบถามก่อนได้ครับ\nLine : aunhup\nTel : 083-550-9065",
        "id": "197253820455949",
        "location": {
            "city": "Bangkok",
            "country": "Thailand",
            "latitude": 13.75395,
            "longitude": 100.50224,
            "street": "Bangkok"
        },
        "name": "เครื่องถมตระกูลช่าง",
        "phone": "0835509065"
    },
    {
        "about": "รับติดตั้งเครื่องเสียงรถยนต๋ ฟิล์ม แอร๋ กันขโมย ออกแบบตี้ตู้แผงซาว์ดราคากันเอง",
        "id": "443850339097534",
        "location": {
            "street": "อ..เพ็ญ..ถ.อ"
        },
        "name": "ชมรมคนรักเครื่องเสียงโดยช่างกุ้งจัดให้",
        "phone": "0972320590"
    },
    {
        "about": "ขาย แหวนเพรช แหวนทอง กำไลข้อมือ สร้อย ต่างหู และ รับสั่งทำ ตามแบบที่สั่ง :)",
        "id": "342359052496207",
        "name": "บ้านช่างทอง เครื่องเพรช"
    },
    {
        "about": "เครื่องเสียงมอไซ",
        "id": "1100362486659690",
        "name": "เครื่องเสียงมอไซเกาะช้าง"
    },
    {
        "about": "ฝากเพื่อน ๆ พี่ ๆ น้อง ๆ มาช่วยกันอุดหนุนด้วยนะคะ :)",
        "description": "ร้านของเรามีสินค้าสำหรับเด็กเล่นไว้บริการท่านมากมายหลายชนิด เช่น รถไฟฟ้าเด็ก บ้านบอล  สระน้ำเป่าลม กระดานลื่นพร้อมแป้นบาส เครื่องเล่นสนาม เครื่องออกกำลังกาย กลางแจ้ง-ในร่ม(indoor-outdoor) มีทั้งสำหรับเด็กและผู้ใหญ่ จำหน่ายสินค้าแบรนด์ lerado ,set 2, playgotoy, intex,bestway\n\nจำหน่ายทั้งปลีกและส่งทั่วประเทศ ในราคาเป็นกันเอง \n",
        "emails": [
            "tpn8588@hotmail.com"
        ],
        "id": "130631353690383",
        "location": {
            "city": " อ.เมือง จ.นครราชสีมา  ",
            "street": "320หมู่ 10 ต.โคกสูง",
            "zip": "30110"
        },
        "name": "ของเล่นเด็ก และเครื่องออกกำลังกายกลางแจ้ง ร้านช้างเผือกทอย",
        "phone": "081-3566415 Line : 081-9741564"
    },
    {
        "about": "ผลิตเครื่องมือการเกษตรทุกชนิด ",
        "emails": [
            "chatcharins@gmail.com",
            "dagrotech55@gmail.com"
        ],
        "id": "223137671030993",
        "location": {
            "street": "219  ม.11  ต.กลางดง   อ.ปากช่อง",
            "zip": "30320"
        },
        "name": "ดำรงค์การช่าง ผลิตเครื่องมือการเกษตรทุกชนิด www.d-agrotech.com",
        "phone": " 081-845-3763 ,089-9552599"
    },
    {
        "id": "286376551534305",
        "name": "นครชัยการช่างจำหน่ายเครื่องสีข้าว\u0026เครื่องบดแกลบ\u0026เครื่องคัดเมล็ดพันธุ์ข้าว"
    },
    {
        "about": "เว็บขายเครื่องมือช่าง เน้นใช้งาน ราคา ถูก ครับ",
        "description": "ซื้อจริงส่งจริงวางใจได้ครับ\nติดต่อ083-8899357\n\nhttp://gungold.com/forum/index.php?topic=48980.msg476965#msg476965\n\nhttp://board.trekkingthai.com/board/show.php?forum_id=82\u0026topic_no=636528\u0026topic_id=648658\u0026page=1#7",
        "id": "231953426891502",
        "name": "V2 เครื่องมือช่าง ราคาถูก"
    },
    {
        "about": "ผลิตและจำหน่ายเครื่องสีข้าวและเครื่องบดแกลบ",
        "description": "ผลิตและจำหน่ายเครื่องสีข้าวและเครื่องบดแกลบ โทร 086-0414111,082-1341988",
        "emails": [
            "manop_sang@hotmail.co.th"
        ],
        "id": "182282131893085",
        "location": {
            "city": "Yasotorn",
            "country": "Thailand",
            "latitude": 16.09424178968,
            "longitude": 104.48239790678,
            "street": "Yasotorn, Yasothon, Thailand",
            "zip": "35120"
        },
        "name": "บ.สมภารการช่าง ผลิตและจำหน่ายเครื่องสีข้าวและเครื่องบดแแกลบ",
        "phone": "086-0414111,082-1341988"
    },
    {
        "about": "ให้บริการรับซ่อมเครื่องซักผ้า ตู้เย็น เครื่องปีรับอากาศ จำหน่ายอะไหล่และสินค้ามือสอง",
        "id": "486655741497065",
        "location": {
            "city": "Samut Prakan",
            "country": "Thailand",
            "latitude": 13.6,
            "longitude": 100.6,
            "street": "199/1171 หมู่ที่ 3 หมู่บ้านพฤกษา15 ถ.บางพลี-ตำหรุ ต.แพรกษาใหม่",
            "zip": "10280"
        },
        "name": "ช่างเจษฎาพฤกษา15 รับซ่อมเครื่องใช้ไฟฟ้าและจำหน่ายอะไหล่มือสองของแท้",
        "phone": "0816364955"
    },
    {
        "about": "ขายเครื่องมือช่าง Hands tools คุณภาพซึ่งส่วนใหญ่เป็นแบรนด์อเมริกา\nจัดส่งทางไปรษณีย์ครับ\n",
        "emails": [
            "pao.gotop@gmail.com"
        ],
        "id": "675932835873636",
        "name": "เครื่องมือช่างคุณภาพ",
        "phone": "0929892794"
    },
    {
        "about": "ผลิตและจำหน่ายเครื่องอัดอิฐบล๊อก ติดตั้งทั่วไทย",
        "id": "490763447645934",
        "name": "เครื่องอัดอิฐบล็อก นิทัศน์การช่าง 086 008 6862",
        "phone": "0860086862"
    },
    {
        "about": "เปิด 24 ชม.",
        "id": "1887207611504678",
        "location": {
            "city": "Bangkhunthien",
            "country": "Thailand",
            "latitude": 13.66294,
            "longitude": 100.4291763,
            "street": "แสมดำ",
            "zip": "10150"
        },
        "name": "เครื่องมือช่างราคาถูก by อู่ช่างตี๋",
        "phone": "0874505278"
    },
    {
        "about": "บริการซ่อมไฟฟ้า ประปา งานท่อ และซ่อมเครื่องใช้ไฟฟ้าทั่วไป ",
        "id": "608879332522465",
        "location": {
            "city": "Bangkok",
            "country": "Thailand",
            "latitude": 13.77431,
            "longitude": 100.54686,
            "street": "ดินแดง รัชดา ประตูน้ำ และบริเวณใกล้เคียง",
            "zip": "10400"
        },
        "name": "ช่างประจำบ้าน ไฟฟ้า ประปา งานท่อ และซ่อมเครื่องใชัไฟฟ้าทั่วไป",
        "phone": "037012861"
    },
    {
        "about": "เครื่องมือช่าง สั่งง่าย ได้ไว ให้คำปรึกษา ราคาน่าคบ",
        "emails": [
            "ansfastener@gmail.com"
        ],
        "id": "700553330022455",
        "location": {
            "city": "แขวง/เขตสายไหม กทม.",
            "street": "99/2 หมู่ที่ 3 ถ.สายไหม ซ.สายไหม 49",
            "zip": "10220"
        },
        "name": "เครื่องมือช่างทุกชนิดคุณภาพดี",
        "phone": "0865626661"
    },
    {
        "about": "พระหลวงปู่ทวด้เน้น*พศ.2497-2511ยุค อ.ทิมสร้าง\"พระครูวิสัยโสภณ\"ได้ปลุกเสกและปี พศ. อืนๆ\" .ืิพี",
        "id": "511257228954335",
        "name": "ชมรมพระเครื่องหลวงปู่ทวดวัด้ช้างให้2497-2512 ปล.หลวงพ่อทวดสายใต้ที่พิภบ"
    },
    {
        "about": "เครื่องมือลม  งานช่าง  งานอุตสาหกรรม",
        "description": "เครื่องมือลม เครื่องมือช่าง อุตสาหกรรม คุณภาพเยียม บริการเป็นเลิศ\nสนใจสอบถามได้ค่ะ หรือติดต่อสอบถามได้ที่\nแก๊ป 080-0902233",
        "emails": [
            "wengob1310@gmail.com"
        ],
        "id": "370823139632349",
        "location": {
            "city": "Amphoe Bang Kaeo",
            "country": "Thailand",
            "street": "ชลบุรี , สมุทรปราการ"
        },
        "name": "เครื่องมือช่าง อุตสาหกรรม FULL STAR"
    },
    {
        "about": "สนใจเครื่องดนครีอีสานทุกชนิด ติดต่อช่างสืบได้ ที่เบอร์.089-422-668-3",
        "id": "152282418299479",
        "name": "ขายเครื่องดนตรีอีสานบ้านท่าเรือ แคน จากแหล่งผลิต ราคาถูก โดยช่างสืบศักดิ์"
    },
    {
        "about": "เครื่องมือช่างราคาถูก",
        "description": "สินค้าไอที อุปกรณ์เครื่องมือช่าง อุปกรณ์คอมพิวเตอร์ คอมพิวเตอร์เช็ต แท็บเล็ต สมาร์ทโฟน ราคาทู้กถูก",
        "emails": [
            "punaris@live.com"
        ],
        "id": "623089677817509",
        "location": {
            "city": "ปทุมธานี",
            "street": "144/3 ม.10 ช.พพลโยธิน66 ต.คูคต อ.ลำลูกกา จ.ปทุมธานี",
            "zip": "12130"
        },
        "name": "เครื่องมือช่างอิเล็คทรอนิกส์",
        "phone": "0869911459"
    },
    {
        "about": "การเรียนเครื่องเคลือบดินเผา  ความคิดสร้างสรรค์ ทักษะ ผลงานศิลปะเครื่องเคลือบดินเผา",
        "id": "242244325887277",
        "location": {
            "street": "60 ถ.หลวงพรต ลาดกระบัง",
            "zip": "10520"
        },
        "name": "เครื่องเคลือบดินเผา ช่างศิลป"
    },
    {
        "about": "http://www.facebook.com/chalermboon.klompark",
        "id": "145789465578289",
        "location": {
            "city": "Bangkok",
            "country": "Thailand",
            "street": "18/02/1992",
            "zip": "Bangkok"
        },
        "name": "ขายเครื่องมือช่างทุกชนิด",
        "phone": "0871359998"
    },
    {
        "about": "ซื้อขาย-แลกเปลี่ยน เครื่องมือช่าง เครื่องจักร สำหรับงาน ทุกชนิด  สำหรับสมาชิก",
        "id": "424130304339444",
        "location": {
            "city": "Bangkok",
            "country": "Thailand",
            "latitude": 13.70426,
            "longitude": 100.40088,
            "street": "เพชรเกษม",
            "zip": "10160"
        },
        "name": "เครื่องมือช่างมือ 2",
        "phone": "024571972"
    },
    {
        "description": "สนใจติดต่อได้ที 08-4883-6099 (ช่างเเต้ม)ร้านอยู่4เเยกเกตุเวย์ อ.แปลงยาว จ.ฉะเชิงเทราครับ",
        "id": "407338079326125",
        "location": {
            "street": "4แยกนิคมเกตุเวย์ต.หัวสำโรงอ.แปลงยาว",
            "zip": "24190"
        },
        "name": "9Tam Car Audio รับติดตั้งเครื่องเสียงรถยนต์ ทุกระบบ โดยช่างมากประสบการณ์",
        "phone": "08-4883-6099"
    }
]