[
    {
        "id": "195415357149155",
        "name": "ช่างเครื่องทำความเย็นและปรับอากาศ"
    },
    {
        "about": "EQ INDUSTRIAL SUPPLY  ",
        "description": "เครื่องมือช่าง เครื่องกล ไฟฟ้า ก่อสร้าง งานเชื่อม ปะปา กระจกอลูมิเนียม ตกแต่งภายใน เฟอร์นิเจอร์ แอร์ ...",
        "id": "128828057206835",
        "name": "อีคิว ซัพพลายเครื่องมือช่างอุตสาหกรรมอุปกรณ์ฮาร์ดแวร์"
    },
    {
        "id": "1481783782124314",
        "location": {
            "city": "Lamphun",
            "country": "Thailand",
            "latitude": 18.5811,
            "longitude": 99.0092,
            "street": "ต.เวียงยอง อ.เมือง",
            "zip": "51000"
        },
        "name": "ลำพูนมือสอง ชิ้นส่วนเครื่องจักร เครื่องมือช่าง อุปกรณ์การเกษตร ฯลฯ",
        "phone": "0947071997"
    },
    {
        "emails": [
            "nokqrstuvw@hotmail.com"
        ],
        "id": "481928958525615",
        "location": {
            "city": "Buriram",
            "country": "Thailand",
            "street": "179 ม.2 โนนดินแดง",
            "zip": "31260"
        },
        "name": "ร้าน ส.โชคดีเครื่องมือช่าง",
        "phone": "0844113858,0812665503"
    },
    {
        "id": "197388830274908",
        "name": "ช่างซ่อมเครื่องถ่ายเอกสาร"
    },
    {
        "id": "188350687932961",
        "name": "กองร้อย  ทหารช่างเครื่องมือเเละซ่อมบำรุง"
    },
    {
        "description": "อาหารอร่อย",
        "id": "231143977055334",
        "location": {
            "latitude": 14.569345,
            "longitude": 100.146648
        },
        "name": "อู่ช่างเผือก SR อาหารและเครื่องดื่ม"
    },
    {
        "id": "267645610078193",
        "location": {
            "city": "Bangkok",
            "country": "Thailand",
            "latitude": 13.555815,
            "longitude": 100.6934687,
            "zip": "10280"
        },
        "name": "ส.สิรินำชัย ฮาร์ดแวร์จำกัดเครื่องมือช่าง ฮาร์แวร์จำกัด",
        "phone": "0933595135"
    },
    {
        "id": "269657306517699",
        "location": {
            "city": "Pattaya",
            "country": "Thailand",
            "latitude": 12.945904175945,
            "longitude": 100.91923804722,
            "zip": "20150"
        },
        "name": "ศูนย์เครื่องจักรกลสำนักการช่างสุขาภิบาล"
    },
    {
        "id": "275168322602641",
        "location": {
            "latitude": 15.796257,
            "longitude": 102.6065778
        },
        "name": "ช่างยอดเครื่องยนต์"
    },
    {
        "id": "277698602367314",
        "location": {
            "city": "Ban Na",
            "country": "Thailand",
            "latitude": 14.26372,
            "longitude": 101.0703,
            "street": "THETSABAN 6"
        },
        "name": "เครื่องเล่นวัดช้าง"
    },
    {
        "id": "280234412125990",
        "location": {
            "city": "Maha Sarakam",
            "country": "Thailand",
            "latitude": 16.20128271,
            "longitude": 103.28945426
        },
        "name": "ฝ่ายเครื่องจักรกล กองช่าง อบจ.มค"
    },
    {
        "id": "281716545327436",
        "location": {
            "city": "Amphoe Thung Song",
            "country": "Thailand",
            "latitude": 8.0310383333333,
            "longitude": 99.661498333333
        },
        "name": "โรงเก็บเครื่องมือ'กล กองร้อยทหารช่างสนามที่2"
    },
    {
        "id": "331635250308842",
        "location": {
            "city": "Nakhon Chai Si",
            "country": "Thailand",
            "latitude": 13.79680952,
            "longitude": 100.17316235
        },
        "name": "ส.เจริญเครื่องมือช่าง",
        "phone": "0889321550"
    },
    {
        "id": "333353113500128",
        "location": {
            "city": "Pua",
            "country": "Thailand",
            "latitude": 19.17555533287,
            "longitude": 100.9109396235,
            "street": "468 หมู่ 8 ต.ปัว อ.ปัว จ.น่าน"
        },
        "name": "วินเนอร์ เครื่องมือช่าง"
    },
    {
        "id": "337802006380455",
        "location": {
            "city": "Si Nakhon",
            "country": "Thailand",
            "latitude": 17.3471008,
            "longitude": 99.9830398
        },
        "name": "เหี้ยปานเครื่องมือช่าง"
    },
    {
        "id": "340462442771610",
        "location": {
            "city": "Bangkok",
            "country": "Thailand",
            "latitude": 13.77024,
            "longitude": 100.39874,
            "street": "29/9  ตลิ่งชัน",
            "zip": "10170"
        },
        "name": "เครื่องมือช่าง",
        "phone": "085-8268090"
    },
    {
        "id": "341270866077798",
        "location": {
            "city": "Sa Kaeo",
            "country": "Thailand",
            "latitude": 13.8167,
            "longitude": 102.067
        },
        "name": "เซเว่นที่มีเครื่องช่างน้ำหนักหน้าร้านกับตู้เอทีเอ็ม"
    },
    {
        "id": "238861076132080",
        "location": {
            "city": "Bangkok",
            "country": "Thailand",
            "latitude": 13.712924285714,
            "longitude": 100.52752571429
        },
        "name": "ร้านน้อยช่างแอร์ เครื่องบิน"
    },
    {
        "id": "246002748900771",
        "location": {
            "latitude": 14.894955218182,
            "longitude": 102.10287962727
        },
        "name": "ร้อยเครื่องมือและซ่อมบำรุงกองพันทหารช่างที่202"
    },
    {
        "id": "234535366649934",
        "location": {
            "city": "Bangkok",
            "country": "Thailand",
            "latitude": 13.818407,
            "longitude": 100.638847
        },
        "name": "อู่ช่างดำ (วางเครื่อง)"
    },
    {
        "id": "254672361241706",
        "location": {
            "city": "Lampang",
            "country": "Thailand",
            "latitude": 18.282053,
            "longitude": 99.49739635
        },
        "name": "มาตรฐานเครื่องช่าง@ลำปาง"
    },
    {
        "id": "255470327968710",
        "location": {
            "latitude": 8.9849223482715,
            "longitude": 99.216970409375
        },
        "name": "แผนกช่างเครื่องทำความเย็น"
    },
    {
        "id": "255631404637393",
        "location": {
            "city": "Chiang Kham",
            "country": "Thailand",
            "latitude": 19.476589631348,
            "longitude": 100.33524482183
        },
        "name": "แผนกช่าง เครื่องมือแพทย์ รพ.เชียงคำ"
    },
    {
        "id": "255747587966058",
        "location": {
            "city": "Bangkok",
            "country": "Thailand",
            "latitude": 13.830485232187,
            "longitude": 100.57521379562
        },
        "name": "แผนกช่างซ่อมบำรุงเครื่องจักรกล"
    }
]