[
    {
        "about": "108tools.com เว็บขายเครื่องมือช่าง อะไหล่เครื่องจักรกล",
        "id": "264805806962245",
        "name": "108tools.com เว็บขายเครื่องมือช่าง อะไหล่เครื่องจักรกล"
    },
    {
        "id": "100648563347267",
        "name": "ช่างเครื่องมือวัด"
    },
    {
        "id": "1654343998135877",
        "name": "เครื่องมือช่างอู่ซ่อมรถ"
    },
    {
        "about": "ซ่อมเครื่องมือช่างทุกชนิด(ทุกยี่ห้อ)",
        "id": "608907009159544",
        "location": {
            "city": "Bangkok",
            "country": "Thailand",
            "latitude": 13.70283,
            "longitude": 100.67317,
            "street": "ม.ราม2",
            "zip": "10250"
        },
        "name": "รับซ่อมเครื่องมือช่าง",
        "phone": "0843253322"
    },
    {
        "id": "405208823001863",
        "name": "จำหน่าย เครื่องมือช่าง"
    },
    {
        "id": "342499535959247",
        "name": "เครื่องมือช่างคุณภาพนำเข้าราคาถูก"
    },
    {
        "about": "ร้านไทฮง หน้าพระลาน:จำหน่ายน็อต สกรู เครื่องมือช่าง และอุปกรณ์โรงงานทุกชนิด",
        "description": "ร้านไทฮง อยู่ที่ ต.หน้าพระลาน อ.เฉลิมพระเกียรติ จ.สระบุรี\n\nจำหน่าย : น็อต สกรู อุปกรณ์ไฟฟ้า-โรงงาน อุปกรณ์ปะปา สแตนเลส โซ่ เฟืองโซ่ มู่เล่ย์ ลวดสลิง สายพาน เครื่องเจียร์ เครื่องตัด สว่าน ตลับลูกปืน และ เครื่องมือช่างทุกชนิด \n\nทางร้านมีสินค้ามากมายหลายประเภท สามารถตอบโจทย์ความต้องการของช่าง ผู้รับเหมา และวิศวกรโรงงานได้เป็นอย่างดี \nเรียกได้ว่า มาที่เดียว ได้ครบทุกอย่าง :)) \n\nติดต่อสอบถามโทร  036-334361 Fax. 036-347004\nอีเมล  thaihongsaraburi@gmail.com\nLINE ID : thaihongsaraburi\n\n\n\n",
        "emails": [
            "thaihongsaraburi@gmail.com"
        ],
        "id": "1504058989827820",
        "location": {
            "city": "Saraburi",
            "country": "Thailand",
            "latitude": 14.690661260085,
            "longitude": 100.86916714485,
            "zip": "18240"
        },
        "name": "ร้านไทฮง สระบุรี : จำหน่ายน็อต สกรู เครื่องมือช่าง และอุปกรณ์โรงงานทุกชนิด",
        "phone": "036-334361 Fax 036-347004"
    },
    {
        "id": "1575156286034818",
        "location": {
            "city": "Uthai Thani",
            "country": "Thailand",
            "latitude": 15.409178861667,
            "longitude": 100.05292818167,
            "street": "53ม.5 ต.สะแกกรัง",
            "zip": "61000"
        },
        "name": "มีดช่างปุ้ย หัวเข็มขัด มีดพับ และเครื่องหนังจระเข้",
        "phone": "0874775869"
    },
    {
        "about": "ซ่อมพระ หรือศัลยกรรมพระ",
        "id": "1490313944612756",
        "location": {
            "city": "Doem Bang",
            "country": "Thailand",
            "latitude": 14.85,
            "longitude": 100.1,
            "street": "จังหวัดสุพรรณบุรี",
            "zip": "72120"
        },
        "name": "ช่างนกซ่อมพระเครื่อง",
        "phone": "0871205096"
    },
    {
        "id": "177316302320040",
        "name": "หัวหน้าช่างเครื่อง"
    },
    {
        "id": "138944516141402",
        "name": "ช่างเครื่องมือแพทย์"
    },
    {
        "id": "194196213998401",
        "name": "Topmantool ขายเครื่องมือช่างปลีก-ส่ง นำเข้าจากญี่ปุ่น"
    },
    {
        "id": "671990876270521",
        "name": "ช่างเครื่องใช้ไฟฟ้าและเครื่องทำความเย็น"
    },
    {
        "id": "578240112285433",
        "name": "ทีมช่างช่อม เครื่องจักกลหนักมุกดาหาร",
        "phone": "0942820064"
    },
    {
        "id": "1548942202034721",
        "location": {
            "city": "Surin",
            "country": "Thailand",
            "latitude": 14.90883,
            "longitude": 103.48616,
            "street": "436 ม.1 ต.สลักได",
            "zip": "32000"
        },
        "name": "ช้างแอนด์แชมป์ จำหน่ายแอร์บ้าน ตู้หยอดเหรียญ เครื่องซักผ้า",
        "phone": "0810757282"
    },
    {
        "about": "ลิฟท์ยกรถและเครื่องมือช่าง",
        "id": "536536049785887",
        "name": "ลิฟท์ยกรถและเครื่องมือช่าง"
    },
    {
        "about": "จำหน่ายเครื่องมือช่าง จัดส่ง ทั่วประเทศ",
        "id": "652316751490841",
        "name": "ช.รุ่งเจริญ เครื่องมือช่าง"
    },
    {
        "id": "449130425271430",
        "location": {
            "city": "Bangkok",
            "country": "Thailand"
        },
        "name": "ช่างเครื่อง+ช่วงล่าง(heavy)"
    },
    {
        "id": "748792381933492",
        "name": "ช่างเครื่องพิมไวนิว"
    },
    {
        "id": "1684284595134033",
        "name": "ช่างเครื่องคอมเพลสเซอร์"
    },
    {
        "id": "451673928354363",
        "location": {
            "city": "Bangkok",
            "country": "Thailand",
            "latitude": 13.8059502,
            "longitude": 100.7265472,
            "street": "54ซ.ใกล้เคียงรามคำแหง 172ถ.รามคำแหงแขวง มีนบุรี เขต มีนบุรี",
            "zip": "10510"
        },
        "name": "อู่ช่างชื่น - สาขา2รับซ่อมเครื่อง เบรค ครัทช์ ช่วงล่างรถยนต์ทุกชนิด",
        "phone": "0898100681+0878238083"
    },
    {
        "id": "543347592444650",
        "name": "เครื่องจักร เครื่องมือ อุปกรณ์ช่างยนต์ By \"KJH\"",
        "phone": "081-2997133"
    },
    {
        "id": "1391475797827890",
        "location": {
            "city": "Bangkok",
            "country": "Thailand",
            "latitude": 13.6724901,
            "longitude": 100.4305496,
            "street": "เอกชัย 83/1",
            "zip": "10150"
        },
        "name": "บริษัท แอมรอด ชมรมช่างซ่อมเครื่องไฟฟ้า",
        "phone": "0958834701"
    },
    {
        "about": "เครื่องมือช่างสำหรับมอเตอร์ไซค์",
        "id": "454453574691671",
        "location": {
            "city": "กรุงเทพ",
            "street": "128 ถ เสรีไทย คันนายาว",
            "zip": "10230"
        },
        "name": "Big Bike เครื่องมือช่างและถอด ถ่วงยาง",
        "phone": "0832769034"
    },
    {
        "about": "จำหน่ายเครื่องมือช่าง ใหม่-เก่า นานาชนิด ราคาเป็นกันเอง",
        "id": "308266686007834",
        "location": {
            "city": "Muang Chainat",
            "country": "Thailand",
            "latitude": 15.02207,
            "longitude": 100.17334,
            "street": "54/4ม2 ถ.สุพรรณ-ชัยนาท ต.แพรกศรีราชา อ.สรรคบุรี",
            "zip": "17140"
        },
        "name": "ประเดิมชัย - เครื่องมือช่าง",
        "phone": "0816233845"
    }
]