[
    {
        "about": "ออฟชั่นเครื่องแต่งกายเด็กช่างทุกชนิด",
        "id": "364983200293704",
        "location": {
            "city": "Bangkok",
            "country": "Thailand",
            "latitude": 13.84211,
            "longitude": 100.86283,
            "street": "ละแวกมีนบุรี",
            "zip": "10530"
        },
        "name": "All-Star เครื่องแต่งกายเด็กช่างทุกชนิด",
        "phone": "0959496182"
    },
    {
        "about": "สมาร์ทไดมอนด์บีบี ขายเครื่องประดับเพชร-ทองคำแท้มาตรฐานส่งออกโดยช่างมืออาชีพ ราคาย่อมเยา",
        "description": "สมาร์ทไดมอนด์บีบี(Smart Diamond BB)   : จำหน่าย และรับงานสั่งทำเครื่องประดับ เพชร ทองคำแท้ อาทิเช่น แหวนเพชร ต่างหูเพชร, จี้เพชร, สร้อยข้อมือเพชร, เข็มกลัดเพชร  โดยประดับทอง (90, 18K และ 14K)  ได้แก่ ทอง(Gold), ทองคำขาว(White Gold)   คุณภาพห้างสรรพสินค้า  มาตรฐานส่งออก โดยช่างมืออาชีพ ราคาที่ทุกคนเป็นเจ้าของได้ง่ายๆ ราคา ย่อมเยา เพราะทีมงานของเราเป็นช่างเครื่องประดับเพชรแท้โดยตรง   ",
        "emails": [
            "smartgroupbb@gmail.com"
        ],
        "general_info": "สมาร์ทไดมอนด์บีบี(Smart Diamond BB)   : จำหน่าย และรับงานสั่งทำเครื่องประดับ เพชร ทองคำแท้ อาทิเช่น แหวนเพชร ต่างหูเพชร, จี้เพชร, สร้อยข้อมือเพชร, เข็มกลัดเพชร  โดยประดับทอง (90, 18K และ 14K)  ได้แก่ ทอง(Gold), ทองคำขาว(White Gold)   คุณภาพห้างสรรพสินค้า  มาตรฐานส่งออก โดยช่างมืออาชีพ ราคาที่ทุกคนเป็นเจ้าของได้ง่ายๆ ราคา ย่อมเยา เพราะทีมงานของเราเป็นช่างเครื่องประดับเพชรแท้โดยตรง   ",
        "id": "1184310381586489",
        "location": {
            "city": "Ban Bung",
            "country": "Thailand",
            "latitude": 12.8667,
            "longitude": 100.967,
            "street": "99 หมู่บ้านอยู่สบาย ซ.วิฑูรย์ดำริ 6 ถ.วิฑูรย์ดำริ ต.บ้านบึง อ.บ้านบึง จ.ชลบุรี 20170",
            "zip": "20170"
        },
        "name": "สมาร์ทไดมอนด์บีบีขายเครื่องประดับเพชรทองแท้มาตรฐานส่งออกโดยช่างมืออาชีพ",
        "phone": "038159630, 0922983854"
    },
    {
        "about": "รับงานกลึงทุกชนิด",
        "description": "โฮมออฟฟิต สไตล์โรงกลึง รับทำและซ่อมอะไหล่โรงพิมพ์ทุกชนิด รับงานกลึงและติดตั้งอุปกรณ์ในโรงงานอุตสาหกรรม ราคาเป็นกันเอง ต้องการสอบถาม ตรวจสอบราคา สนใจติดต่อที่เบอร์ 081-808-1430 หรือ 02-451-5686 คุณคณินทร์ เปรมฉลาด(ร้านเดียวกับ จำนงค์การช่าง จรัญฯ 37 ) ที่เปิดให้บริการมากว่า 25 ปี \n\nและตอนนี้ได้มีกิจการเครื่องเขียน เข้ามาพ่วงด้วย บริเวณหน้าร้าน ชื่อร้าน \"พร้อมใจ เครื่องเขียน\" มีจำหน่ายอุปกรณ์เครื่องเขียน กีฬา เย็บปักถักร้อย กิ๊ฟช้อป ของเล่น ขนม ฯลฯ \n\nทางร้านยินดีต้อนรับ ให้บริการทั้ง 2 กิจการ อย่างเต็มที่เสมอ\n\n4/699 หมู่ 5 ซ.พระรามสอง 71 ถ.พระรามสอง แสมดํา บางขุนเทียน กทม. 10150\nโทร : 02-451-5686 แฟกซ์ : 02-451-5687 มือถือ : 081-808-1430 e-mail : Pui_22838@hotmail.com \nFB : www.facebook.com/Kanin.Premchalat",
        "emails": [
            "pui_22838@hotmail.com"
        ],
        "id": "536233733111685",
        "location": {
            "city": "Bangkok",
            "country": "Thailand",
            "latitude": 13.60599,
            "longitude": 100.41691,
            "street": "4/699 หมู่ 5 ซ.พระรามสอง 71  ถ.พระรามสอง แขวงแสมดำ เขตบางขุนเทียน กทม. SAMAE DAM 10150",
            "zip": "10150"
        },
        "name": "คณินทร์การช่าง \u0026 พร้อมใจเครื่องเขียน",
        "phone": "Mobile 081-808-1430 Tel. 02-451-5686 Fax. 02-451-5687 "
    },
    {
        "about": "จำหน่ายเครื่องประดับเศษทองคำแท้ โดยช่างทองเยาวราช ",
        "id": "901973359870091",
        "name": "เครื่องประดับเศษทองคำแท้ โดยช่างทองเยาวราช By Tom"
    },
    {
        "about": "จำหน่ายผลิตภัณฑ์ความงาม อาหารเสริม เครื่องสำอางค์ ทุกชนิด \nรับ Pre order\nรับส่งในนาม\nปลีก-ส่ง",
        "id": "795977660517841",
        "location": {
            "city": "Rat Buri",
            "country": "Thailand",
            "latitude": 13.5333,
            "longitude": 99.8,
            "street": "banpong",
            "zip": "70110"
        },
        "name": "บ้านโป่งช่างกลบิวตี้ ขายเครื่องสำอางค์ อาหารเสริม Make up ทุกชนิด",
        "phone": "0854838322"
    },
    {
        "emails": [
            "info@jindasup.com"
        ],
        "id": "493281877493986",
        "location": {
            "city": "ขอนแก่น",
            "street": "226/71 หมู่6 ถ.ประชาสโมสร ต.ในเมือง",
            "zip": "40000"
        },
        "name": "ศูนย์รวมเครื่องมือช่างคุณภาพ",
        "phone": "043-336293"
    },
    {
        "id": "527722053938194",
        "name": "เครื่องมือช่าง"
    },
    {
        "about": "รับซ่อมเครื่องใช้ไฟฟ้า ราคาย่อมเยา หารายได้เสริมระหว่างเรียนคับ\n0804694155",
        "id": "449273291803265",
        "location": {
            "city": "Bangkok",
            "country": "Thailand",
            "street": "เทเวศร์"
        },
        "name": "ช่าง กบ รับซ่อมเครื่องใช้ไฟฟ้าทุกชนิด",
        "phone": "0804694155"
    },
    {
        "about": "แหล่งรวมเครื่องมือช่างซ่อมอิเล็กทรอนิกส์",
        "id": "653346071409116",
        "name": "เครื่องมือช่างอิเล็กทรอนิกส์"
    },
    {
        "about": "กล้องสำรวจ เครื่องมือช่าง",
        "description": "จำหน่าย ขาย กล้องสำรวจ กล้องธีโอโดไลท์ กล้อง Teodolite กล้องระดับ กล้องรวมศูนย์ กล้อง Total Station อุปกรณ์สำรวจ เครื่องมือสำรวจ วัสดุก่อสร้าง รวมความรู้ ทางวิศวกรรม",
        "emails": [
            "phataraphirom@gmail.com"
        ],
        "id": "1560648897485352",
        "location": {
            "city": "ขอนแก่น",
            "street": "อำเภอเมือง",
            "zip": "40000"
        },
        "name": "กล้องสำรวจ เครื่องมือช่าง อุปกรณ์ก่อสร้าง",
        "phone": "0864696429"
    },
    {
        "about": "รับเชื่อมเครื่องตีแป้ง-ตีไข่",
        "description": "รับซ่อมเครื่องตีแป้ง ตีไข่ และ อื่นๆ\nติดต่อช่างปอ\n49/49ม.3ซ.บุญศิริ18/1ต.บางเมืองอ.เมืองจ.สมุทรปราการ\nโทร 0814420347",
        "emails": [
            "suvit.por@hotmail.com"
        ],
        "id": "231367206933174",
        "location": {
            "city": "Bangkok",
            "country": "Thailand",
            "street": "49/49 ซ.บุญศิริ (18/1) ถ.สุขุมวิท ต.บางเมือง อ.เมือง จ.สมุทรปราการ 10270",
            "zip": "10270"
        },
        "name": "รับซ่อมเครื่องตีแป้ง-ตีไข่ (ช่างปอ)",
        "phone": "0814420347"
    },
    {
        "id": "649613241733317",
        "name": "ร้านโกปึ้ง  บริการ ขี่ช้างล่องแพ อาหารเครื่องดื่ม ที่ปางช้างแม่วาง"
    },
    {
        "about": "เครื่องมือและอุปกรณ์การช่าง ราคาถูก \nสนใจสอบถามได้ที่ Line/Tel : 0801241377",
        "id": "422866591250251",
        "name": "เครื่องมือช่างราคาถูก"
    },
    {
        "about": "ปรึกษาเรื่องช่าง โทรได้ทุกเรื่อง ที่เดียวจบ คิดถึงช่าง คิดถึงเรา ลองโทรหาเราสิครับ 086-40-567-40",
        "id": "1511982592356185",
        "location": {
            "city": "Ayuthya",
            "country": "Thailand",
            "latitude": 14.34342,
            "longitude": 100.56622,
            "street": "ayutthaya",
            "zip": "13000"
        },
        "name": "รวมช่างซ่อม เครื่องใช้ไฟฟ้า แอร์ ประปา ไฟฟ้า ในอยุธยา",
        "phone": "0864056740"
    },
    {
        "id": "935876109812756",
        "name": "เครื่องมือช่าง ฮาร์ดแวร์ ประปา ไฟฟ้า สี น็อต สกรู"
    },
    {
        "emails": [
            "mr_bongbang@hotmail.com"
        ],
        "id": "521217371321096",
        "location": {
            "city": "Chiang Mai",
            "country": "Thailand",
            "latitude": 18.6813393,
            "longitude": 98.6089172,
            "street": "ถนนหมายเลข 1013 ต.แม่วิน อ. แม่วาง จ.เชียงใหม่",
            "zip": "50360"
        },
        "name": "ร้านทรัพย์ โสภา บริการ ขี่ช้างล่องแพ อาหาร เครื่องดื่ม",
        "phone": "0898548478"
    },
    {
        "about": "P.K. Trading ศูนย์รวมเครื่องมือช่างและอุตสาหกรรม ",
        "description": "จำหน่ายอุปกรณ์ช่างและอุตสาหกรรมทุกชนิด หลากหลายแบรนด์ ในราคาย่อมเยาว์ ขายทั้งปลีกและส่งบริการจัดส่งทั่วประเทศ \n\nอุปกรณ์ตัด  มีดกลึง ด้ามมีด มีดกลึงเกลียว มีดกลึงอลูมิเนียม มีดคาร์ไบด์ มีดขาว ด้ามมีด กลึงนอก กลึงใน สกรูป้อมมีด มีดเล็บ เม็ดอินเสริท เม็ดมีดกลึง เม็ดมีด หัวทริป ใบตัด ใบเจียร เครื่องเจียร\n\nอุปกรณ์เซาะ ตัดแต่ง ดอกสว่าน แกนเตเปอร์ แกนก้านPT ต๊าป ไดต๊าป หัวคอเล็ท เอ็นมิล นำศูนย์ ลบเหลี่ยมรู หัวคว้าน ตะไบแบนข้างกลม ริมเมอร์ สว่านไฟฟ้า\n\nเครื่องมือเพรช จานเพรช เพรชแต่งหิน หินเพชรลับคาไบด์ ตะไบเพชร หิน หินเจียร หินเขียว หินไฟ หินหน้าฝาสูบ หินฝาบาตร อะลูมิเนียม ลวดเชื่อม\n\nเครื่องมือช่าง เครื่องวัดเวอร์เนีย ไฮดรอลิค ปากกาจับชิ้นงาน กุญแจขันหัวจับ หัวจับไฮดรอลิค เซ็ทชิ้นงาน หัวจับแท่นกลึง หัวจับสว่าน หัวปาด หัวแบ่ง มือบิด อาร์เบอร์ ลูกปืน ลูกบ็อค หัวปั๊มน้ำ ปั๊มน้ำ เครื่องขัดเงา เครื่องมืองานไม้ กุญแจหกเหลี่ยม\n\nและเครื่องมืออื่นๆอีกมากมายตามคุณสั่งมามากไปด้วยหลายหลายแบรนด์ ที่คุณมองหา  อาทิ\nMITUTOYO, PEACOCK, TECLOCK, WESTOP, ATTONIC, IMADA, KANON, AND CEDAR, EISEN, YAMAMOTO, PEAK, OTSUKA, NIIGATA SEIKI, SHINWA, JPG, KANETEC, Vernier Caliper, Micrometre, Hardness Tester, Torque Tester, Dial Indicato, Thickness Gauge และอีกมากมาย\n",
        "emails": [
            "dear.csr@gmail.com"
        ],
        "general_info": " P.K.Trading ศูนย์รวมเครื่องมือช่างและอุตสาหกรรม ด้วยการพัฒนาของโลกออนไลน์ที่มีมากขึ้นและเข้าถึงได้ง่าย ผมจึงได้จัดตั้งร้านค้าออนไลน์ขึ้น เพื่อเพิ่มช่องทางเลือกให้กับคุณลูกค้าสะดวกสบายมากยิ่งขึ้นในการหาสินค้าและการซื้อขายครับ\n\nด้วยประสบการณ์ของเราที่ขายมามากกว่า 20 ปี ความรวดเร็วและรา\nคาสินค้ามาตรฐาน ตลอดจนการให้คำปรึกษาและคำแนะนำ ทำให้คุณลูกค้ามั่นใจได้ว่าจะได้สินค้าตามที่คุณต้องการด้วยความพึงพอใจสูงสุดครับ และถ้าคุณลูกค้าไม่พบสินค้าที่ต้องการในเว็บไซด์หรือมีสเป็คสินค้าที่ต้องการ สามารถโทรมาสอบถามกับผมได้นะครับ เรายินดีจัดหาให้ทุกความต้องการครับ\n\nทุกอุปกรณ์เครื่องมือช่างและโรงงานอุตสาหกรรม ทุกแบรนด์สามารถสอบถามที่เราได้นะครับ เราจัดส่งให้ทั่วประเทศนะครับทั้งทางไปรษณีย์และรถขนส่งครับ \n\n\n \n",
        "id": "306880685993933",
        "location": {
            "city": "Bangkok",
            "country": "Thailand",
            "latitude": 13.709064460437,
            "longitude": 100.51411800358,
            "street": "Chan Road",
            "zip": "10120"
        },
        "name": "PKtrading เครื่องมืออุปกรณ์ช่างและอุตสาหกรรม",
        "phone": "0813506989"
    },
    {
        "id": "1499040216977885",
        "location": {
            "city": "Meota",
            "country": "Canada",
            "state": "SK"
        },
        "name": "ซ่อมเครื่องออกกำลังกายทุกรุ่น ช่าง Meo - 0856512141"
    },
    {
        "about": "สินค้าเครื่องมือช่าง ของใหม่ราคาถูก",
        "emails": [
            "rangerseel@hotmail.com"
        ],
        "id": "351996411648314",
        "name": "เครื่องมือช่าง",
        "phone": "0990085525"
    },
    {
        "about": "ให้บริการซ่อมเครื่องจักรในอุตสาหกรรมการ์เม้นท์ และให้คำปรึกษาในการบำรุงรักษาครบวงจร",
        "id": "625591080832887",
        "location": {
            "city": "Bangkok",
            "country": "Thailand",
            "latitude": 13.70426,
            "longitude": 100.40088,
            "street": "เพชรเกษม หนองแขม",
            "zip": "10160"
        },
        "name": "ซ่อมเครื่องตัดผ้า แผนกช่างบริการ รุ่งเรืองวงษ์",
        "phone": "028098224"
    },
    {
        "id": "1636911173245102",
        "name": "ร้านช้าง เทวรูป องค์เทพ พระเครื่อง ลูกปัด สังฆภัณฑ์"
    },
    {
        "id": "688243131275799",
        "location": {
            "city": "Khon Kaen",
            "country": "Thailand",
            "latitude": 16.4333,
            "longitude": 102.833,
            "street": "21หมู่4 ต.บ้านเป็ด อ.เมืองขอนแก่น",
            "zip": "40000"
        },
        "name": "อะไหล่เครื่องมือช่าง",
        "phone": "0940589025"
    },
    {
        "about": "รับทำเครื่องแฝง และจำหน่ายอะไหล่มอเตอร์ไซค์",
        "id": "622779354448784",
        "name": "เครื่องแฝง ช่างโบ๊ท \u0026 ช่างบาส จัดให้"
    },
    {
        "id": "132669140104606",
        "name": "ช่างเครื่องบิน"
    },
    {
        "about": "ขายและบริการซ่อม ลิฟท์ยกรถ และเครื่องมือประจำตัวช่าง",
        "id": "128584943966429",
        "name": "ลิฟท์และเครื่องมือช่าง"
    }
]