[
    {
        "id": "895360867189557",
        "name": "ช่าง.P ซ่อมเครื่องช่วงล่าง"
    },
    {
        "about": "จำหน่ายเครื่องมือช่างทุกชนิด ด้วยประสบการณ์กว่่า 10 ปี\n",
        "id": "664314966970348",
        "location": {
            "city": "Bangkok",
            "country": "Thailand",
            "street": "371/13 Sripraya Bangrak",
            "zip": "10500"
        },
        "name": "ห้าสิบดาว เครื่องมือช่าง",
        "phone": "0820433688"
    },
    {
        "about": "อุปกรณ์เครื่องมือช่าง",
        "description": "อุปกรณ์เครื่องมือช่าง ราคาถูก\n\nเราคัดสรรสินค้าที่มีคุณภาพ ราคาประหยัด ใช้งานได้จริง",
        "emails": [
            "ton_kajokzing@hotmail.com"
        ],
        "id": "1655603261346675",
        "location": {
            "city": "Bangkok",
            "country": "Thailand",
            "latitude": 13.800397016313,
            "longitude": 100.60242891312,
            "street": "ลาดพร้าว71",
            "zip": "10230"
        },
        "name": "ตู้เก็บเครื่องมือและเครื่องมือช่างราคาถูก",
        "phone": "0863889524"
    },
    {
        "id": "847642665328776",
        "location": {
            "city": "จังหวัด ฉะเชิงเทรา",
            "street": "ต.หัวไทร อ.บางคล้า"
        },
        "name": "ช่างจวด รับติดตั้งเครื่องเสียงรถยนต์ 0875419799"
    },
    {
        "description": "เครื่องราชอิสริยาภรณ์อันเป็นที่เชิดชูยิ่งช้างเผือก เป็นตระกูลเครื่องราชอิสริยาภรณ์ หนึ่งใน 8 ตระกูลที่สำหรับพระราชทานแด่พระบรมวงศานุวงศ์ ข้าราชการ และผู้กระทำคุณความดี ทั้งบุรุษและสตรี โดยเครื่องราชอิสริยาภรณ์อันเป็นที่เชิดชูยิ่งช้างเผือกนี้สำหรับพระราชทานแก่ผู้กระทำความดีความชอบเป็นประโยชน์แก่ราชการหรือสาธารณชน โดยการพิจารณาเสนอขอพระราชทานของรัฐบาล เพื่อเป็นบำเหน็จความชอบและเครื่องหมายเชิดชูเกียรติยศอย่างสูงแก่ผู้ได้รับพระราชทาน พระราชทานทั้งบุรุษและสตรี หากทรงพระกรุณาโปรดเกล้า ฯ แล้ว ให้ประกาศรายนามในราชกิจจานุเบกษา ปรกติแล้วจะประกาศในวันเฉลิมพระชนมพรรษา 5 ธันวาคม ของทุกปี แยกเป็น 2 ฉบับ คือชั้นต่ำกว่าสายสะพาย และชั้นสายสะพายเครื่องราชอิสริยาภรณ์อันเป็นที่เชิดชูยิ่งช้างเผือกนี้ พระบาทสมเด็จพระจอมเกล้าเจ้าอยู่หัวทรงพระกรุณาให้สร้างขึ้นเมื่อ พ.ศ. 2404 แต่มิได้กำหนดให้มีสายสะพาย ต่อมาในปี พ.ศ. 2412 พระบาทสมเด็จพระจุลจอมเกล้าเจ้าอยู่หัวทรงกำหนดชั้นและสายสะพายประกอบลักษณะเครื่องราชอิสริยาภรณ์ตระกูลนี้มีทั้งหมด 8 ชั้น ชั้นสูงสุด มหาปรมาภรณ์ช้างเผือก 1 สำรับ ประกอบด้วย ดวงตรา ด้านหน้าเป็นรูปช้างไอราพตลงยาสีขาวอยู่บนพื่นทองในดอกบัวบาน กลีบลงยาสีชมพูสลับแดง เกสรเงิน รอบนอกมีกระจังทองลงยาสีเขียวสี่ทิศ มีรัศมีเปลวเงินตามระหว่าง ด้านหลังเปลี่ยนรูปช้างเป็นอักษรพระปรมาภิไธยย่อ ม.ป.ร. ลงยาสีแดง เบื้องบนมีอุณาโลมเงินและพระมหามงกุฎทองมีรัศมี ห้อยกับแพรแถบขนาดกว้าง 10 เซนติเมตร สีแดงริมเขียว มีริ้วเหลืองและน้ำเงินขนาดเล็กควบคั่นทั้ง 2 ข้าง สำหรับสะพายบ่าซ้ายเฉียงลงทางขวา ดารา ด้านหน้ามีลักษณะเช่นเดียวกับดวงตราแต่ขนาดย่อมกว่า ซ้อนอยู่บนรัศมีสีเงิน จำหลักเป็นเพชรสร่ง 4 แฉก รัศมีทอง 4 แฉก ประดับที่อกเสื้อด้านซ้าย ดวงตรา ดารา และสายสะพายสำหรับพระราชทานสตรีนั้นจะมีขนาดย่อมกว่าบุรุษ นอกจากนี้ ยังมีเครื่องหมายประดับแพรแถบย่อและดุมเสื้อ มีลักษณะเป็นรูปช้างไอราพตลงยาสีขาว",
        "id": "801839919862257",
        "name": "Order of the White Elephant"
    },
    {
        "id": "1407672692843871",
        "name": "ตู้เครื่องเสียงสูตรสำเร็จติดรถยนต์สนใจสั่งได้ by ช่างเหลา"
    },
    {
        "id": "1609980079250767",
        "location": {
            "city": "Bangkok Noi",
            "country": "Thailand",
            "latitude": 13.75,
            "longitude": 100.483,
            "street": "บ้านหม้อ",
            "zip": "10700"
        },
        "name": "ช่างป๋อง ซ่อมอุปกรณ์เครื่องใช้ไฟฟ้าทุกชนิด+ติดตั้งเครื่องเสียงรถยนต์",
        "phone": "0926698202"
    },
    {
        "about": "จัดทำโดย นักศึกษามหาวิทยาลัยราชภัฎสวนสุนันทา สาขาการประกอบการธุรกิจ รายวิชา ธุรกิจชุมชน",
        "description": "มะพร้าวจัดเป็นพืชสารพัดประโยชน์อีกชนิดหนึ่งที่ผูกพันใกล้ชิดอยู่กับวิถีชีวิตของคนเรามานานแสนนาน และบรรดาผลิตภัณฑ์เครื่องใช้ไม้สอยที่ได้จากส่วนต่างๆ ของมะพร้าวนั้น นับเป็นงานหัตถกรรมอันล้ำค่าอีกชิ้นหนึ่งซึ่งเกิดจากภูมิปัญญาของชาวบ้าน และที่ จ.สมุทรสงคราม เป็นจังหวัดที่ปลูกมะพร้าวมากที่สุดในประเทศไทยและได้นำผลิตผลจากต้นมะพร้าวมาแปรรูปเป็นผลิตภัณฑ์ต่างๆจนเป็นอุตสาหกรรมในครัวเรือน และอาชีพเสริมต่างๆหลายประเภทด้วยกัน จนมีรายได้เป็นกอบเป็นกำ ",
        "general_info": "ที่ตั้ง กลุ่มจักสานจากก้านมะพร้าวบางช้าง เลขที่ 120/1 หมู่ 3 ตำบลบางช้าง อำเภออัมพวา จังหวัดสมุทรสงคราม 75110",
        "id": "242165409201700",
        "name": "เครื่องจักสานก้านมะพร้าว ชุมชนบางช้าง"
    },
    {
        "about": "ช่างกิต บริการรับซ่อมเครื่องออกกำลังกายทุกชนิดนอกสถานที่ ราคาเป็นกันเองโทร 083-7743377, 081-1975559",
        "description": "รับซ่อมเครื่องออกกำลังกาย,รับซ่อมลู่วิ่งไฟฟ้า, รับตัดสายพาน ลู่วิ่ง, รับซ่อมแผงคอนโทรล\nและเครื่องออกกำลังกายทุกรุ่นทุกยี่ห้อ ทั้งในกรุงเทพและปริมณฑล นครปฐม ราชบุรี รับตัดสายพานพื้น เปลี่ยนลวดสลิง ซ่อมแผงคอนโทรลจากประสบการณ์กว่า 10 ปีราคาเป็นกันเองไม่ต้องไปรอบริษัท ซ่อมเสร็จแล้วมีรับประกัน นานกว่าบริษัท รับซ่อมทั้ง ลู่วิ่ง ชุดยิม เครื่องนวดสะโพก จักรยานไฟฟ้า และจำหน่ายสเปรย์ซิลิโคลนหล่อลื่นสายพาน มีโปรโมชั่นมากมาย ซ่อมเสร็จใช้ไม่ได้ไม่คิดเงินบริการทุกระดับประทับใจ อัธยาศัยดี บริการถึงบ้านทั้งในและนอกเวลางาน\n\nโดย  ช่าง กิต เบอร์โทร 083-7743377 หรือ 081-1975559   fitness_service@hotmail.com\nเรายินดีให้บริการติดต่อได้ตลอด 24 ชม.\n",
        "emails": [
            "fitness_service@hotmail.com"
        ],
        "id": "188560714504232",
        "location": {
            "street": "ทั้งในกรุงเทพและปริมณฑล นครปฐม ราชบุรี"
        },
        "name": "ช่างกิตเซอร์วิส รับซ่อมเครื่องออกกำลังกาย",
        "phone": "083-7743377 , 081-1975559"
    },
    {
        "about": "ติดต่อ 0954463147",
        "id": "1682826501950865",
        "location": {
            "city": "Amphoe Fang",
            "country": "Thailand",
            "latitude": 19.8833,
            "longitude": 99.1833,
            "street": "บ้านสบมาว",
            "zip": "50110"
        },
        "name": "ช่างต้นรับติดตั้งจานดาวเทียมและซ่อมเครื่องใช้ไฟฟ้าทุกชนิด",
        "phone": "0954463147"
    },
    {
        "about": "www.sbtools.co.th\nWholeSales/Importer Agency/ ขายส่งราคาถูก\nTel: 02-805-2785-8  sales@sbtools.co.th\n",
        "description": "อปี 2548 บริษัท เอส บี ทูลล์ ได้ถูกก่อตั้งด้วยวิสัยทัศน์ของผู้บริหารที่อยู่ในวงการเครื่องเหล็กกว่า 30 ปี ในการที่จะนำเสนอผลิตภัณฑ์และบริการอุปกรณ์ เครื่องมือ เครื่องเหล็กที่มีคุณภาพดีเยี่ยมและผลิตภัณฑ์หลากหลายทั้งนำเข้าจาก ต่างประเทศ และผลิตภายในประเทศ บริษัท เอส บี ทูลล์ จำกัด (SB TOOLS Co.,Ltd.) มีความมุ่งมั่นในการเติมเต็มความต้องการของผู้บริโภคในวงการเครื่องมือ เครื่องเหล็กด้วยสินค้าคุณภาพ การบริการที่ตรงใจ กลยุทธ์ทางการตลาดและราคาที่โดนใจ\n ",
        "id": "169638746575279",
        "name": "Sbtools_เครื่องมือช่าง"
    },
    {
        "about": "พระหลวงพ่อทวดวัดช้างให้2497ถึง2511ตอนที่ท่านอาจารย์ทิมยังอยู่ได้ทำพิธีเสกพระหลวงปู่ทวดไว้",
        "id": "164920820367051",
        "name": "พระเครื่องหลวงปู่ทวดวัดช้างให้2497-2512 เศกช้างให้"
    },
    {
        "about": "รับทำงานเครื่องถม เครื่องเงิน",
        "description": "รับทำงานเครื่องถม เครื่องเงิน    สั่งงาน  สอบถามรายละเอียด 087-7116271 เปิ้ล",
        "id": "799444806756503",
        "name": "ช่างเปิ้ล เครื่องถม เครื่องเงิน"
    },
    {
        "about": "ผู้แทนจำหน่าผลิตภัณฑ์เครื่องมือช่าง indy เขตภาคเหนือ \nTEL.0832155595",
        "id": "1616125635319581",
        "name": "เครื่องมือช่าง indy"
    },
    {
        "about": "ผลิตและจำหน่าย เครื่องชั่ง เครื่องบรรจุ ",
        "id": "399964236868204",
        "location": {
            "city": "Samut Prakan",
            "country": "Thailand",
            "latitude": 13.6,
            "longitude": 100.6,
            "street": "53/14 หมู่5 ซ.ที่ดินไท ถ.เทพารักษ์ ต.บางพลีใหญ่  อ.บางพลี",
            "zip": "10540"
        },
        "name": "ตงชางเครื่องชั่ง  ประเทศไทย",
        "phone": "02-757-4792-5,085-063-4768"
    },
    {
        "about": "รับทำแหวนรุ่น,จี้รุ่นและเครื่องประดับทุกชนิด สนใจติดต่อโทร.043-235366,081-7088006,088-5791330 E-mail JO.JAMES-SK@hotmail.com",
        "description": " รับทำ แหวน,แหวนเพชร,แหวนรุ่น,กรอบพระ,ชุบทอง\n เครื่องประดับทุกชนิด,ล็อกเก็ต,ต่อสร้อย,ขยายแหวน",
        "emails": [
            "tomo_z1z1@hotmail.com"
        ],
        "id": "311793558889691",
        "location": {
            "street": "54   ถ.หลังเมือง  ต.ในเมือง  อ.เมือง  จ.ขอนแก่น",
            "zip": "40000"
        },
        "name": "เอกช่างทอง-รับทำแหวนรุ่น,จี้รุ่นและเครื่องประดับทุกชนิด"
    },
    {
        "id": "141942576152242",
        "name": "เครื่องมือช่าง"
    },
    {
        "about": "เครื่องมือช่าง Hand tools, Power tools, Tool boxwes",
        "description": "ขายเครื่องมือ อุปกรณ์ไฟฟ้า และอุปกรณ์การเกษตร ราคาถูก (ปลีก/ส่ง)",
        "id": "139475946251255",
        "location": {
            "city": "Rangsit",
            "country": "Thailand",
            "street": "Rangsit-pathum Thani, Ban Klang, Mueang Pathum Thani, Pathum Thani, Thailand",
            "zip": "12000"
        },
        "name": "เก๋ เครื่องมือช่าง",
        "phone": "087-678-3572"
    },
    {
        "about": "รับซ่อมทีวี,ซ่อมตู้เย็น,ซ่อมแช่,ซ่อมเครื่องซักผ้า",
        "id": "324194154399579",
        "location": {
            "city": "Amphoe Kamphaeng Saen",
            "country": "Thailand",
            "latitude": 14.065911626801,
            "longitude": 100.01743912697,
            "street": "บ้านโคก,สระสี่มุม",
            "zip": "73140"
        },
        "name": "ร้านช่างโอ๊คซ่อมเครื่องใช้ไฟฟ้า",
        "phone": "087-8399566"
    },
    {
        "id": "751217524993142",
        "location": {
            "city": "Chachoengsao",
            "country": "Thailand",
            "latitude": 13.7,
            "longitude": 101.083,
            "street": "แสนภูดาษ อ.บ้านโพธิ์",
            "zip": "24140"
        },
        "name": "เครื่องมือช่างมือสองทุกชนิดในแปดริ้วและใกล้เคียง",
        "phone": "0996418988"
    },
    {
        "about": "บริษัท พาร์ทโซน(ประเทศไทย)จำกัด จำหน่ายอะไหล่และเครื่องมือช่าง",
        "description": "ด้วยความมุ่งมั่นของการเป็นผู้นำด้านการสรรหาการให้บริการ และกระจายสินค้ายานยนต์ อุปกรณ์และเครื่องมือช่างอย่างครบวงจร ครอบคลุมทั่วประเทศ ",
        "emails": [
            "pzt.marcom@gmail.com"
        ],
        "id": "234108073332127",
        "location": {
            "city": "Bangkok",
            "country": "Thailand",
            "latitude": 13.792589362087,
            "longitude": 100.68548826599,
            "street": "128 ถ.เสรีไทย แขวงคันนายาว เขตคันนายาว กรุงเทพฯ",
            "zip": "10230"
        },
        "name": "อะไหล่และเครื่องมือช่าง",
        "phone": "02-379-9830-39 ต่อ 109"
    },
    {
        "about": "ร้าน ก.สุธรรม 22,24,26 ถนนอนันตวรฤทธิเดช อ.เมือง จ.น่าน 55000 โทร.081-6320978, 054-710304",
        "id": "1474494079502073",
        "location": {
            "city": "Muang Nan",
            "country": "Thailand",
            "street": "ร้าน ก.สุธรรม 22,24,26 ถนนอนันตวรฤทธิเดช อ.เมือง",
            "zip": "55000"
        },
        "name": "ก.สุธรรม เครื่องมือช่าง",
        "phone": "081-6320978 , 054-710304"
    },
    {
        "about": "ขายเครื่องมือช่างทุกชนิดราคากันเอง \nเบอร์    : 0867773435 , 0909722121\nid line : batt_4608",
        "id": "449181295282593",
        "location": {
            "city": "Bangkok",
            "country": "Thailand",
            "latitude": 13.6373701,
            "longitude": 100.4860992,
            "street": "101 ซ.ประชาอุทิศ 54 แยก 6 เขตบางมด แขวงทุ่งครุ",
            "zip": "10140"
        },
        "name": "เครื่องมือช่าง +อุปกรณ์ก่อสร้าง",
        "phone": "0867773435"
    },
    {
        "id": "899134476773495",
        "location": {
            "city": "Nonthaburi",
            "country": "Thailand",
            "latitude": 13.8700933,
            "longitude": 100.5095749,
            "street": "นนทบุรี",
            "zip": "11000"
        },
        "name": "ช่างเอก รับซ่อมCoringและเครื่องมือช่าง",
        "phone": "0875420926"
    },
    {
        "about": "ติดต่อ 0868692745,0868655364",
        "id": "635286643170998",
        "location": {
            "city": "Ubon Ratchathani",
            "country": "Thailand",
            "latitude": 14.90175,
            "longitude": 105.0396,
            "street": "บ.โคกชำแระ ต.โคกชำแระ อ.ทุ่งศรีอุดม จ.อุบลราชธานี",
            "zip": "34160"
        },
        "name": "ช่างชัย รับเจาะน้ำบาดาล ด้วยเครื่องมือทันสมัย ด้วยเครื่อง ลม-แอร์",
        "phone": "0868692745"
    }
]