[
    {
        "about": "เครื่องมือช่างและอะไหล่รถยนต์มือ1,2",
        "id": "401917883342044",
        "location": {
            "city": "Bangkok",
            "country": "Thailand",
            "latitude": 13.70399,
            "longitude": 100.4016113,
            "street": "สาย1",
            "zip": "10160"
        },
        "name": "เครื่องมือช่างและอะไหล่รถยนต์มือ1,2",
        "phone": "024541284"
    },
    {
        "about": "ให้เช่าบูชาพระเครื่องหลวงพ่อทวด \nเบอร์ติดต่อ 086-961-4647 เลขบัชชี:704-2-44558-5 Patipan pincharoensuk ธนาคารไทยพานิชญ์",
        "description": "ให้เช่าบูชาพระเครื่องหลวงพ่อทวด เบอร์ติดต่อ 086-961-4647 Line:benz.patipan ธนาคารไทยพานิชญ์ เลขบัชชี:704-2-44558-5 / ธนาคารกรุงไทย เลขบัชชี:907-0-52949-1 Patipan pincharoensuk ",
        "general_info": "เช็ควัสดุได้ที่ http://track.thailandpost.co.th/trackinternet/Default.aspx",
        "id": "112986828887603",
        "name": "ให้เช่าบูชาพระเครื่องหลวงพ่อทวด เหยียบน้ำทะเลจืด วัดช้างไห้ จังหวัดปัตตานี"
    },
    {
        "about": "ร้านเจริญทรัพย์ จำหน่ายเครื่องใช้ไฟฟ้าเครื่องมือช่าง เครื่องมือการเกษตร\n",
        "id": "135221169973275",
        "location": {
            "city": "Songkhla",
            "country": "Thailand",
            "street": "12/1 ถนน เตาอิฐ  ตำบล บ่อยาง อำเภอ เมือง",
            "zip": "90000"
        },
        "name": "ร้านเจริญทรัพย์ จำหน่ายเครื่องใช้ไฟฟ้าเครื่องมือช่าง เครื่องมือการเกษตร",
        "phone": "   074-436788 .. 086-9601493 .. 081-7483987"
    },
    {
        "about": "เครื่องมือช่างสำหรับอู่ซ่อม และศูนย์บริการรถยนต์",
        "description": "จำหน่าย เครื่องมือช่าง อู่ซ่อมรถยนต์ ศูนย์บริการ  \n-ลิฟท์ยกรถ สองเสาคานล่าง, สองเสาคานบน, ลิฟท์ยกมอเตอร์ไซค์  \n-เครื่องวิเคราะห์กล่อง ECU รุ่น x431 Master \n-เครื่องมือไฮโดรลิค เช่น เครนยกเครื่อง แม่แรงตะเข้ แท่นอัดไฮโดรลิค โต๊ะยกเกียร์ แม่แรงสนามฯ\n-ตู้เครื่องมือช่าง, ตู้เครื่องมือ พร้อม เครื่องมือช่าง\n-อุปกรณ์เปลี่ยนถ่ายน้ำมันหล่อลื่น ถังดูดถ่ายน้ำมันเครื่อง มือโยก และแบบอัตโนมัติ น้ำมันเกียร์เฟืองท้าย\n-เครื่องมือ ปั๊มลม Puma, Fusheng, KKT, Swan, บ็อคลม Kuken ญี่ปุ่นแท้, และบ็อคลมไต้หวันแท้\n-เครื่องมืออุปกรณ์ ยาง และ ล้อ เช่น เครื่องตั้งศูนย์ เครื่องถ่วงล้อ เครื่องถอดยาง เครื่องเจียรจานเบรคฯ  และอุปกรณ์ปะยาง\n-จำหน่ายยางรถยนต์นำเข้าจากอินเดีย ยี่ห้อ APOLLO มีทั้งรถเก๋ง กะบะ และสิบล้อ\n-บริการจัดหา เครื่องมือช่าง ตามความต้องการของลูกค้า\n\nชมตัวอย่างสินค้า ได้ที่ร้าน  (ตั้งอยู่ที่ ถนนเขลางค์นคร ตัดใหม่ จ.ลำปาง) ได้เลยค่ะ\nสินค้ารับประกันคุณภาพ    (เงื่อนไข ทั้งเงินสด ลดพิเศษ และเงินผ่อน ไม่มีดอกเบี้ย)\n\nFacebook: เครื่องมือช่าง KKT Autopart\nwww.kktmachinetools.com\nE-mail : kktpm2012@gmail.com\nTel: 081-5953021, 088-2526841\nLine ID: potter1415 และ kai1415\n",
        "emails": [
            "kktpm2012@gmail.com"
        ],
        "id": "308466572601653",
        "location": {
            "city": "Nakhon Lampang",
            "country": "Thailand",
            "latitude": 18.289983860507,
            "longitude": 99.510833362356,
            "street": "292/2 ถนนเขลางค์นคร ต.หัวเวียง อ.เมือง จ.ลำปาง",
            "zip": "52000"
        },
        "name": "เครื่องมือช่าง KKT Autopart",
        "phone": "0815953021"
    },
    {
        "about": "เครื่องมือช่าง เครื่องมือวัด เครื่องมือลม เครื่องมือไฟฟ้า ราคายุติธรรม คลองถม ส่งชัวร์ ",
        "description": "หจก. สหโชคแมชชีนเนอรี่ 1993 \n\nขายเครื่องมือช่าง เครื่องมือลม เครื่องมือวัด เครื่องขัดกระดาษทราย, เครื่องต๊าปเกลียว,ไขควง,คีม,โฮลซอ, ดอกสว่าน, สว่าน, พุกตะกั่ว, สายพาน, ประแจ, ดอกเอ็นมิลล์,  ปั๊ม, รอกโซ่,รอกสลิง, เครื่องมือไฟฟ้า ฯลฯ จากผู้ผลิตและยี่ห้อชั้นนำ อาทิ Shinano, Toku, Vital, Rex, Mitsubishi, Unior, Nicholson, Unior, Bahco, Keiba, Kennedy, Topman, Omi,3m, Eight, ,  Hitachi, Ryobi, Pioneer, Jebson ฯลฯ\n\nยินดีให้คำปรึกษา และแนะนำข้อมูลเครื่องมือช่างทุกประเภท เพื่อให้ตรงตามความต้องการของลูกค้าทุกท่าน\n\nสนใจสอบถามรายละเอียดหรือราคาได้ที่\nโทรศัพท์:  02-223-6745,02-223-6749 02-222-8018\nโทรสาร:   02-224-9784\n Email:     scm1993tools@gmail.com\nLine:        SCM1993.TH\n\n\n",
        "emails": [
            "scm1993tools@gmail.com",
            "sudanuch.k@hotmail.com"
        ],
        "id": "620788021319550",
        "location": {
            "city": "Bangkok",
            "country": "Thailand",
            "street": "513 ถ.มหาจักร แขวงป้อมปราบ เขตป้อมปราบศัตรูพ่าย กรุงเทพฯ",
            "zip": "10100"
        },
        "name": "สหโชค1993  เครื่องมือช่างครบวงจร",
        "phone": "02-223-6745, 02-223-6749, 02-222-8018, 086 990 3207 "
    },
    {
        "about": "ขายปลีกเเละส่งเครื่องประดับ",
        "id": "573667189445295",
        "name": "เครื่องประดับ กำไรหางช้าง งาช้าง หยกพลอยทับทิม"
    },
    {
        "about": "เครื่องมือช่าง และ เครื่องใช้ไฟฟ้า มีทั้งใหม่ และมือสอง\nราคาถูกค่ะ",
        "description": "ขายเครื่องมือช่าง และ เครื่องใช้ไฟฟ้า มีทั้งใหม่ และมือสอง\nจำหน่ายในราคาถูกค่ะ \nร้านอยู่แถวคูเมือง จ.เชียงใหม่ ค่ะ\nสนใจสินค้าสอบถามได้ค่ะ  โทร.  095-5631021\nE-mail : mawnamnaja@gmail.com\nชมสินค้าเพิ่มเติมได้ที่  http://namwantools.lnwshop.com/\nLine ID : namwanja",
        "id": "347620975404339",
        "name": "เครื่องมือช่าง และ เครื่องใช้ไฟฟ้า มีทั้งใหม่ และมือสอง"
    },
    {
        "emails": [
            "pookki2531@gmail.com"
        ],
        "id": "337097513164911",
        "location": {
            "city": "เมืองสมุทรปราการ",
            "street": "5 หมู่8 ต.เทพารักษ์",
            "zip": "10270"
        },
        "name": "เครื่องมือช่าง น็อตกิีบ",
        "phone": "0855074577"
    },
    {
        "about": "เครื่องมือช่าง เครื่องมือโรงงาน ดอกสว่าน เม็ดมีด ด้ามมีด",
        "emails": [
            "factotools@gmail.com"
        ],
        "id": "1602876643302046",
        "location": {
            "city": "Bangkok",
            "country": "Thailand",
            "street": "ไทย",
            "zip": "10150"
        },
        "name": "เครื่องมือช่าง เครื่องมือโรงงาน By Factotools",
        "phone": "086-811-8787"
    },
    {
        "id": "998806810164596",
        "name": "เครื่องหยอดข้าว พรเจริญ ช่างคิด พระพุทธบาท"
    },
    {
        "about": "รวบรวมกิจกรรม ความรู้เกี่ยวกับอากาศยาน และเทคโนโลยีเกี่ยวกับการบิน",
        "id": "473888449428198",
        "location": {
            "city": "Bangkok",
            "zip": "10220"
        },
        "name": "ช่างเครื่อง ใจกล้า"
    },
    {
        "about": "จำหน่าย และรับซ่อม เครื่องมือช่างทุกชนิด ทั้งปลีกและส่ง",
        "id": "778311068906802",
        "name": "เครื่องมือช่าง - ช่างแจ๊ค สว่าน ชุดบล็อค ปั๊มลม เครื่องมือไฟฟ้าและอะไหล่"
    },
    {
        "about": "ซ่อม ซื้อขาย เครื่องมือช่างระบบสื่อสาร ระบบอุตสาหกรรม ",
        "emails": [
            "phaiboons@hotmail.com"
        ],
        "id": "1435711639988918",
        "location": {
            "city": "Bangkok",
            "country": "Thailand",
            "latitude": 13.75573,
            "longitude": 100.49831,
            "street": "126 ถนนบ้านหม้อ  แขวงบูรพา  พระนคร  กทม  10200  โทร  0812330662"
        },
        "name": "ร้านช่างบูนบ้านหม้อ ฃ่อมฃื้อขายเครื่องมือวัด ออสฃิลโลสโคป",
        "phone": "0812330662"
    },
    {
        "id": "443260219106236",
        "name": "ช่างเครื่อง"
    },
    {
        "about": "จำหน่ายอุปกรณ์การเกษตรและเครื่องมือช่างทุกชนิด",
        "description": "ร้านพัทยาฮาร์ดแวร์ (ตลาดใหม่นาเกลือ) อ.บางละมุง จ.ชลบุรี (038-428666,081-8705183)\nตัวแทนจำหน่าย เครื่องมือการเกษตร เครื่องมือช่าง เครื่องตัดหญ้า เครื่องยนต์ เครื่องปั่นไฟ เบนซิน-ดีเซล เครื่องเจาะดิน เครื่องขุดหลุม เครื่องพรวนดินเล็ก\nตู้เชื่อมตู้ชาร์ตแบตเตอรี่ ตู้เชื่อมอินเวอเตอร์ ตู้เชื่อมคอยทองแดง มอเตอร์ เครื่องเจาะดิน เครื่องขุดหลุม เครื่องแต่งกิ่งต้นไม้ เครื่องบดเนื้อ \nเครื่องพ่นยา3สูบ เครื่องพ่นยาสะพายหลัง ปั๊มสูบน้ำ \nปั๊มหอยโข่งไฟฟ้า ปั๊มSubmerse ไฟ220-380v.\nปั๊มสเปกโรงงาน/โรงแรม ปั๊มลม มอเตอร์ ไฟ220-380v.\nเครื่องมือช่างทุกชนิด Maktec Makita Bosch และ อุปกรณ์ Hardware ทุกชนิดและอื่นๆอีกมากมาย  พร้อมอะไหล่ บริการหลังการขาย",
        "emails": [
            "birdinoz@gmail.com"
        ],
        "id": "558763054170901",
        "location": {
            "city": "Bang Lamung",
            "country": "Thailand",
            "latitude": 12.971053707065,
            "longitude": 100.90552718525,
            "street": "จากสุขุมวิท เข้าถ.สว่างฟ้า เลยไปรษณีย์บางละมุง50เมตร ร้านอยู่ฝั่งซ้าย ,SawangFa Road, Naklua, Chonburi",
            "zip": "20150"
        },
        "name": "พัทยาฮาร์ดแวร์ ศูนย์รวมเครื่องมือช่าง เครื่องมือทำสวน ปั๊มน้ำและอื่นๆ",
        "phone": "038-428666 ,081-8705183 "
    },
    {
        "about": "ขาย เครื่องมือช่าง อุปกรณ์ช่าง ราคาพิเศษ T.021921820 / 0863021116",
        "description": "ร้านไอทีแอนด์โฮม ดอทคอม โดยบริษัท อินเตอร์ไซต์ (ประเทศไทย) จำกัด\n599/30 ถ.รัชดาภิเษก แขวงจตุจักร เขตจตุจักร กรุงเทพฯ 10900\n\nจำหน่าย สินค้าไอที เครื่องใช้เกี่ยวกับบ้าน อุปกรณ์สำนักงาน เครื่องใช้ไฟฟ้า เครื่องมือวัด สินค้าเกี่ยวกับรถ แฟชั่น อุตสาหกรรม และซอฟต์แวร์ต่างๆ  ( www.itandhome.com )\n        (1) อุปกรณ์ขายหน้าร้าน (Point of Sales)\n        (2) อุปกรณ์เกี่ยวกับคอมพิวเตอร์ (Computer Accessories)\n        (3) อุปกรณ์-เครื่องใช้สำนักงาน (Office Products)\n        (4) เครื่องใช้ไฟฟ้า (Electric Appliance)\n        (5) อุปกรณ์-ของใช้ภายในบ้าน (Home Equipment)\n        (6) ไฟ LED (LED Lighting) \n        (7) อุปกรณ์ไฟฟ้า (Electrical equipment)\n        (8) อุปกรณ์ด้านความปลอดภัย (Security Products)\n        (9) กล้องวงจรปิด (CCTV Camera)\n        (10) อุปกรณ์กล้องดิจิตอล (Digital Camera Accessories)\n        (11) อุปกรณ์เสริมโทรศัพท์มือถือ (Mobile Accessories)\n        (12) อุปกรณ์จีพีเอสติดตาม (GPS Tracker)\n        (13) เครื่องมือวัด (Measuring Tools)\n        (14) อุปกรณ์ท่องเที่ยว (Travel Products)   \n        (15) อุปกรณ์/ของใช้ส่วนตัว (Equipment/Personal Products)\n        (16) แม่และเด็ก (Mother and child)\n        (17) สุขภาพและความงาม (Health and beauty)\n        (18) สินค้าแฟชั่น (IT Fashion)\n        (19) สินค้าเกี่ยวกับรถยนต์ (Car Products)\n        (20) สินค้าอุตสาหกรรม (Industrial Products)\n        (21) สินค้าพรีเมี่ยม/ของขวัญ (Premium products)\n        (22) โปรแกรมสำเร็จรูป (Software) \n        (23) สินค้าอื่นๆ (Other Products)\n\nติดต่อฝ่ายขาย :\nเบอร์มือถือ:\n087-069-5300 (AIS) 094-879-4222 (AIS)\n086-322-2806 (TRUE) 086-302-1116 (TRUE)\n081-714-1700 (DTAC) 094-879-4111 (DTAC)\n\nเบอร์สำนักงาน :\nTel: 02-192-1820-1 , 02-192-1822 Fax: 02-192-1823 Email: itandhome@hotmail.com\nเปิดทำการ: ทุกวันจันทร์-วันเสาร์ (เวลา 8.30 น.-18.00 น.) (หยุดทุกวันอาทิตย์)\n",
        "emails": [
            "itandhome@hotmail.com"
        ],
        "id": "147538238790866",
        "location": {
            "city": "Bangkok",
            "country": "Thailand",
            "street": "599/30 ถ.รัชดาภิเษก แขวงจตุจักร เขตจตุจักร",
            "zip": "10900"
        },
        "name": "เครื่องมือช่าง อุปกรณ์ช่าง ขายราคาพิเศษ",
        "phone": "021921820"
    },
    {
        "about": "รับซื้ออุปกรณ์ไฟฟ้าและ เครื่องมือช่างทั้งมือ 1 และมือ 2 ทุกชนิด",
        "description": "รับซื้ออุปกรณ์ไฟฟ้าและเครื่องมือช่างทั้งมือ 1 และมือ 2 ทุกชนิด\n",
        "emails": [
            "duan.skyexits@gmail.com"
        ],
        "id": "510940652254910",
        "location": {
            "city": "กรุงเทพฯ",
            "street": "ลาดปลาเค้า 66",
            "zip": "10220"
        },
        "name": "รับซื้อเครื่องมือช่าง อุปกรณ์ไฟฟ้าทั้งมือ1 และ มือ 2 ทุกชนิด 081-375-0211"
    },
    {
        "about": "ตัวแทนจำหน่ายอุปกรณ์ช่างรถยนต์ทุกชนิด โทร.0851251099",
        "description": "ตัวแทนจำหน่ายอุปกรณ์ช่างรถยนต์ทุกชนิด www.psvhitech.com\nโทร.085-125-1099,02-968-1549,02-9681557\nFax.02-525-0517\nE-mail:psv2003@gmail.com",
        "emails": [
            "psv2003@gmail.com"
        ],
        "id": "1434555566796124",
        "location": {
            "city": "เมือง",
            "street": "23 ถ.นนทบุรี ต.ท่าทราย จ.นนทบุรี",
            "zip": "11000"
        },
        "name": "อุปกรณ์เครื่องมือช่างยนต์ บจก.พี เอส วี ไฮเทค เซ็นเตอร์",
        "phone": "0851251099"
    },
    {
        "about": "สร้างสรรค์สินค้าคุณภาพมาตรฐานสากล กว่า 40 ปีที่ให้บริการระดับมืออาชีพ",
        "description": "ไทยทูลดอดคอม\nเครื่องมือช่าง มืออาชีพ\nสร้างสรรค์สินค้าคุณภาพมาตรฐานสากล\nกว่า 40 ปีที่ให้บริการระดับมืออาชีพ",
        "emails": [
            "nat.nvc@gmail.com"
        ],
        "general_info": "บริการและจัดจำหน่ายสินค้า ทั่วประเทศ",
        "id": "184448634900595",
        "location": {
            "city": "Bangkok",
            "country": "Thailand",
            "latitude": 13.717322618,
            "longitude": 100.45242576027,
            "street": "194/1 ถนนเพชรเกษม บางหว้า ภาษีเจริญ",
            "zip": "10160"
        },
        "name": "ThaiTool เครื่องมือช่าง มืออาชีพ",
        "phone": "02 868 8053"
    },
    {
        "about": "จำหน่าย - รับซ่อม เครื่องมือช่างทุกชนิด ราคาเป็นกันเอง สนใจติดต่อ 086 - 8814221 (แป๊ะ) ",
        "description": "จำหน่าย - รับซ่อม เครื่องมือช่างทุกชนิด มีทั้งใหม่และมือสอง รับประกันสินค้าทุกชิ้น สินค้ามีคุณภาพ ราคาเป็นกันเอง ขอดูตัวอย่างสินค้าได้ ",
        "id": "831134817005218",
        "location": {
            "city": "Suphan Buri",
            "country": "Thailand",
            "street": "407/3",
            "zip": "72000"
        },
        "name": "เจริญทรัพย์เครื่องมือช่าง",
        "phone": "0868814221"
    },
    {
        "id": "146036395422717",
        "name": "ช่างเครื่อง"
    },
    {
        "id": "185725641462408",
        "name": "ช่างคุมเครื่อง"
    },
    {
        "about": "จำหน่ายอุปกรณ์การเกษตร เครื่องมือช่างทุกชนิด",
        "description": "จำหน่าย เครื่องตัดหญ้า ปั้มน้ำ ปั้มลม เครื่องพ่นยา3สูบ แท้งค์น้ำ เครื่องสูบน้ำ อุปกรณ์ยางพารา เครื่องบดเนื้อ     ท่อพญานาค ตู้เชื่อม เครื่องมือช่างทุกชนิด ",
        "id": "229993460492484",
        "location": {
            "city": "Chiang Saen",
            "country": "Thailand",
            "latitude": 20.23195,
            "longitude": 100.1357,
            "street": "ถนนริมโขง ตรงข้ามสนามเด็กเล่นเชียงแสน",
            "zip": "57150"
        },
        "name": "ร้านเจริญภัณฑ์ เชียงแสน จำหน่าย เครื่องมือการเกษตร เครื่องมือช่าง ทุกชนิด",
        "phone": "0891258089"
    },
    {
        "about": "ช่างทำเครื่องเสียง ติดฟิมล์ ติดกันขโมย ทำแอร์รถ",
        "id": "191414714360537",
        "location": {
            "city": "Pak Chong",
            "country": "Thailand",
            "latitude": 14.92536,
            "longitude": 101.36825,
            "street": "10ซ2(ประปา) ต.ปากช่อง อ.ปากช่อง จ.นครราชสีมา",
            "zip": "30130"
        },
        "name": "ช่างทำเครื่องเสียง",
        "phone": "0821566823"
    },
    {
        "about": "ติดตั้งเครื่องเสียง Hi-End \nติดตั้งเครื่องคาราโอเกะ",
        "emails": [
            "karaokethai99@gmail.com"
        ],
        "id": "937848239563230",
        "location": {
            "city": "Bangkok",
            "country": "Thailand",
            "latitude": 13.74482,
            "longitude": 100.79267,
            "street": "1108/40 หมู่ที่3 แขวงคลองสองต้นนุ่น เขตลาดกระบัง",
            "zip": "10520"
        },
        "name": "ช่างเครื่องเสียงเครื่องคาราโอเกะ",
        "phone": "0816484181"
    }
]