[
    {
        "id": "830766277042150",
        "name": "ช่างเครื่องมือกลระดับช๔"
    },
    {
        "id": "840176829428746",
        "name": "ช่างเครื่องมือกล ซ้อมบำรุง"
    },
    {
        "id": "146848358661257",
        "name": "ช่างซ่อมเครื่องบิน"
    },
    {
        "about": "กลุ่มศิลปประยุกต์และเครื่องเคลือบดินเผา กรมศิลปากร",
        "description": "      กลุ่มศิลปประยุกต์และเครื่องเคลือบดินเผา เริ่มก่อตั้งขึ้นในปี พ.ศ. 2517   เป็นหน่วยงานภาครัฐในสังกัด สำนักช่างสิบหมู่ กรมศิลปากร กระทรวงวัฒนธรรม มีบทบาทภาระหน้าที่ในการธำรงรักษา สืบทอด สร้างสรรค์และเผยแพร่ งานศิลปกรรมประเภทศิลปประยุกต์ ที่มีเอกลักษณ์ประจำชาติ โดยให้บริการด้านงานออกแบบศิลปประยุกต์แก่สถาบันศาสนา สถาบันพระมหากษัตริย์ สถาบันการศึกษา หน่วยงานภาครัฐและเอกชน สมาคม มูลนิธิ ฯลฯ นอกจากนี้ยังจัดทำโครงการอนุรักษ์ พัฒนา สร้างสรรค์งานศิลปประยุกต์ และเครื่องเคลือบดินเผาโดยดำเนินการศึกษา สำรวจ ค้นคว้า วิเคราะห์ ทดลอง วิจัย รวบรวมข้อมูลองค์ความรู้ เทคนิควิธีการ และรูปแบบเพื่อจัดทำเอกสาร หนังสือทางวิชาการ ตลอดจนจัดแสดงนิทรรศการผลงานศิลปกรรม เพื่อเผยแพร่ความรู้ทางวิชาการแก่ประชาชนทั่วไป\n\n",
        "id": "742929829050828",
        "location": {
            "city": "จังหวัดนครปฐม",
            "street": "93 หมู่3 ถนนพุทธมณฑลสาย 5 ตำบลศาลายา อำเภอพุทธมณฑล",
            "zip": "73170"
        },
        "name": "ศิลปประยุกต์และเครื่องเคลือบดินเผา สำนักช่างสิบหมู่ กรมศิลปากร"
    },
    {
        "about": "ผลิตภัณฑ์เครื่องแก้วและเครื่องประดับ\n",
        "description": "ขายแหวนหางช้าง",
        "id": "380835668708742",
        "name": "Mazoufia แหวนหางช้าง มีด กริช เครื่องแก้วประดับ"
    },
    {
        "description": "บริษัทวาสก้า ออโต้พาร์ท จำกัด\nเป็นผู้นำเข้าและจัดจำหน่ายเครื่องมือและอุปกรณ์สำหรับใช้ในศูนย์บริการและอู่ซ่อมรถยนต์ภายใต้เครื่องหมาย “ WAPTOOL” สินค้าของบริษัทฯมีการรับประกันคุณภาพทุกชิ้นงาน \n\nสินค้า WAPTOOL\nสำหรับศูนย์บริการรถยนต์ ลิฟท์ยกรถ,เครื่องถอดยาง,เครื่องถ่วงล้อ,แม่แรงตะเข้ เป็นต้น\nสำหรับอู่รถยนต์ เช่น ลิฟท์ยกรถ,ฮอยยกรถ,ลิฟท์ 4 เสา,เครื่องถอดยาง,เครื่องถ่วงล้อ,เครื่องเติมลมยาง,ถังเติมน้ำมัน,ถังอัดจารบี,แม่แรงตะเข้,เครนยกเครื่อง,เครื่องมือช่าง\n\nลูกค้า\nศูนย์บริการรถยนต์\nอู่รถยนต์",
        "id": "1667500940153108",
        "name": "ลิฟท์ยกรถยนต์ เครื่องมือช่าง เเละอุปกรณ์ช่าง Waptool"
    },
    {
        "about": "จำหน่ายเครื่องมือช่างทุกชนิด ราคาย่อมเยาว์  ของดีมีคุณภาพ  สนใจ 0898756667  ไลน์  # chaiyos_2524\n",
        "id": "1616093675299044",
        "name": "Sur.จำหน่ายเครื่องมือช่างทุกชนิด"
    },
    {
        "id": "613230772149584",
        "name": "โรงงานผลิดเครื่องบดน้ำแข็ง ลูกสาวช่างธงนู๋ส้ม"
    },
    {
        "id": "799526636826674",
        "name": "ช่างพ่นสี\u0026ช่างเครื่อง MG"
    },
    {
        "id": "1911349212422734",
        "name": "ช่างควบคุมเครื่องสูบน้ำ"
    },
    {
        "id": "690997871030621",
        "name": "ช่างยนต์เครื่องมือพิเศษ"
    },
    {
        "id": "1692927584286716",
        "name": "ช่างคุมเครื่องเขียนโปรแกรม"
    },
    {
        "id": "182707278437406",
        "name": "ช่างเครื่องมือกล"
    },
    {
        "about": "-รับวางเครื่องซิ่ง เปลี่ยนอะไหล่\nราคา มิตรภาพ",
        "id": "523596034391698",
        "location": {
            "city": "Khlong Luang",
            "country": "Thailand",
            "latitude": 14.10293,
            "longitude": 100.74821,
            "street": "บงกช 75",
            "zip": "12110"
        },
        "name": "ช่างหน่อง รับทำเครื่องซิ่ง - คนบ้านอยู่กลางนา",
        "phone": "0812781515"
    },
    {
        "id": "707249409373704",
        "name": "ร้านดีถูก  เครื่องมือการช่าง + งานฝีมือ"
    },
    {
        "about": "งานเหล็กครบวงจร",
        "description": "เรารับทำติดตั้ง เหล็กดัด ประตูม้วน กันสาด โครงหลังคา งานต่อเติม และงานเหล็ก ครบวงจร ราคายุติธรรม",
        "emails": [
            "ta.all.star@hotmail.com"
        ],
        "id": "740467225995439",
        "location": {
            "city": "ใกล้ตัวเมืองชุมแพ",
            "street": "บ้านโนนคูณ ตำบลโนนคูณ อำเภอคอนสาร จังหวัดชัยภมูิ",
            "zip": "36180"
        },
        "name": "ทำงานเหล็กครบวงจร และจำหน่าย เครื่องมือช่างราคาถูก พี แอนด์ ที.การช่าง",
        "phone": "086 - 2394897 หรือ 090 - 0275244"
    },
    {
        "about": "รับสร้างอุปกรณ์ทำนา รับจัดหาอุปกรณ์ทำนามือสอง ท่อซิ่ง",
        "description": "ตั้งอยู่ 32/4 หมู่ที่ 7 ต.ไทรใหญ่ อ.ไทรน้อย จ.นนทบุรี",
        "id": "368874043226696",
        "name": "รถไถเฟืองเอวแบ็คโฮ และเครื่องมือทำนา ลัดการช่าง"
    },
    {
        "about": "เครื่องมือช่างคุณภาพ อุปกรณ์ฮาร์ดแวร์ ราคาย่อมเยาว์ ปลีก-ส่ง",
        "description": "เครื่องมือช่างคุณภาพ อุปกรณ์ฮาร์ดแวร์หลากหลาย",
        "emails": [
            "tonglang.hardware@gmail.com"
        ],
        "id": "1606849209599332",
        "location": {
            "city": "Chonburi",
            "country": "Thailand",
            "latitude": 13.36,
            "longitude": 100.98,
            "street": "428 Moo 5, T.Klongtumru, Muang, Chonburi",
            "zip": "20000"
        },
        "name": "Tong-Lang Hardware เครื่องมือช่างคุณภาพ อุปกรณ์ฮาร์ดแวร์หลากหลาย",
        "phone": "092-854-4535"
    },
    {
        "id": "998409393526762",
        "location": {
            "city": "เมืองขอนแก่น",
            "street": "118/20 หมู่ที่ 14 ถ.มิตรภาพ ตรงข้ามรศูนย์หัวใจสิริกิติ์",
            "zip": "40000"
        },
        "name": "สมาร์ทสโตร์และศูนย์รวมน๊อต เครื่องมือช่าง น๊อต สกรู 0995916698 0816622350"
    },
    {
        "about": "จำหน่ายสินค้าเกษตรและเครื่องมือช่างทุกชนิด",
        "id": "793943220623839",
        "location": {
            "city": "Lampang",
            "country": "Thailand",
            "latitude": 18.38166,
            "longitude": 99.44711,
            "street": "102 ถ.พหลโยธิน ต.สบตุ๋ย อ.เมือง จ.ลำปาง",
            "zip": "52100"
        },
        "name": "จำหน่ายสินค้าการเกษตรและอุปกรณ์เครื่องมือช่างทุกชนิด",
        "phone": "054-219106"
    },
    {
        "about": "จำหน่าย เครื่องถอดเครื่องถ่วง ลิฟยกรถ ฮ้อย ราคาสด ผ่อนติดต่อสอบถามได้ตลอดเวลา\n",
        "id": "484737691685172",
        "location": {
            "city": "Amphoe Bang Bua Thong",
            "country": "Thailand",
            "latitude": 13.9200401,
            "longitude": 100.4200668,
            "street": "100/975 ม.สวีทโฮม อ.บางบัวทอง ถนน บางกรวย-ไทรน้อย จังหวัด นนทบุรี",
            "zip": "11110"
        },
        "name": "จำหน่ายเครื่องมือช่าง ลิฟท์ ฮ้อย เครื่องถอดถ่วงยาง",
        "phone": "0870687834"
    },
    {
        "id": "185285131507886",
        "name": "ช่างผลิตเครื่องมือและแม่พิมพ์"
    },
    {
        "about": "จำหน่ายเครื่องใช้ไฟฟ้า เครื่องมือช่าง ของแท้ ราคาถูก",
        "id": "1403568763295425",
        "location": {
            "city": "Amphoe Pua",
            "country": "Thailand",
            "latitude": 19.15,
            "longitude": 100.9,
            "street": "115/3 หมู่ 2 ตำบลปัว อำเภอปัว จังหวัดน่าน",
            "zip": "55120"
        },
        "name": "ฮักน่าน เครื่องใช้ไฟฟ้า เครื่องมือช่าง ของแท้ ราคาถูกมาก",
        "phone": "0848944199"
    },
    {
        "id": "1409354209384479",
        "name": "เครื่องอุประกลอนช่างมือสอง"
    },
    {
        "id": "439889629484418",
        "location": {
            "city": "Bangkok",
            "country": "Thailand",
            "latitude": 13.774,
            "longitude": 100.65728,
            "street": "ราม152",
            "zip": "10240"
        },
        "name": "ต้นมาสเตอร์\u0026เครื่องมือช่างมีคุณภาพ",
        "phone": "0866298271"
    }
]