[
    {
        "about": "จักรเย็บผ้าอุตสาหกรรมเสียทำไงดีงานก็จะเอาด่วน\n",
        "description": "ช่างจักรคือสิ่งที่ทุกคนเรียนรู้ได้ไม่ว่าคุณจะเป็นใครเพศการศึกษาไม่มีความสำคัญแค่คุณตั้งใจที่จะเรียนรู้อย่างจริงจังคุณก็จะซ่อมจักรได้",
        "id": "358875887520971",
        "name": "ช่างซ่อมจักรเย็บผ้า"
    },
    {
        "id": "707430266059100",
        "location": {
            "city": "Khon Kaen",
            "country": "Thailand",
            "latitude": 16.4354897,
            "longitude": 102.8407211,
            "street": "ขอนแก่น",
            "zip": "40210"
        },
        "name": "รับซ่อมจักรเย็บผ้าทุกชนิด ขอนแก่น หนองเรือ",
        "phone": "0616892690"
    },
    {
        "id": "326631187539110",
        "location": {
            "city": "Bangkok",
            "country": "Thailand",
            "latitude": 13.6836917,
            "longitude": 100.441863
        },
        "name": "เอกชัย42ช่างทอง ซ่อมจักรเย็บผ้ายีนส์ เเละรับงานเย็บผ้ายีน"
    },
    {
        "id": "426802180801716",
        "location": {
            "city": "Nakhon Ratchasima",
            "country": "Thailand",
            "latitude": 14.9869701,
            "longitude": 102.0950459
        },
        "name": "ศูนย์ซ่อมจักรเย็บผ้า Elvira โคราช"
    },
    {
        "about": "รับซ่อมจักรอุตสาหกรรม เตารีดไอน้ำ เครื่องตัดผ้า รับพันมอเตอร์และปั๊มน้ำทุกชนิด\n",
        "id": "469075959849745",
        "location": {
            "city": "Bangkok",
            "country": "Thailand",
            "latitude": 13.60599,
            "longitude": 100.41691,
            "street": "เอกชัย76หมู่บ้านsk ถ.เอกชัย เขต.บางบอน",
            "zip": "10150"
        },
        "name": "รับซ่อม จำหน่ายจักรเย็บผ้าเเละด้ายเย็บผ้า",
        "phone": "+66 085 4161373"
    },
    {
        "about": "รับซ่อมจักรเย็บผ้า ปรึกษาแนะนำฟรี",
        "id": "1452536174984517",
        "location": {
            "city": "Bangkok",
            "country": "Thailand",
            "latitude": 13.774,
            "longitude": 100.65728,
            "street": "ซ.โพธิ์แก้ว4 แขวงคลองจั่น เขตบางกะปิ กรุงเทพมหานคร",
            "zip": "10240"
        },
        "name": "รับซ่อมจักรเย็บผ้า",
        "phone": "085-2247359"
    },
    {
        "about": "ร้านน้องเบียร์ อ.กุมภวาปี จำหน่ายจักรเย็บผ้าอุตสาหกรรมพร้อมอะไหล่และบริการรับซ่อม",
        "description": "จำหน่ายจักรเย็บผ้าอุตสาหกรรมพร้อมอะไหล่ทุกชนิด บริการรับซ่อมจักร\nรับ/ส่งแฟกส์ทั่วโลก เคลือบบัตร\nFax. 042-202-230\n ,โทร. 080-054-4754 , 084-202-6567\n",
        "id": "300409133482381",
        "location": {
            "city": "อุดรธานี",
            "street": "341/1 หมู่ 9  ต.กุมภวาปี อ.กุมภวาปี",
            "zip": "41110"
        },
        "name": "ร้านน้องเบียร์ อ.กุมภวาปี จำหน่ายจักรเย็บผ้าอุตสาหกรรมพร้อมอะไหล่และรับซ่อม",
        "phone": "0810544754"
    },
    {
        "about": "จำหน่ายและซ่อมจักรฯ และสินค้าเครื่องใช้ไฟฟ้า SINGER และอุปกรณ์เสริมจักรฯ",
        "description": "จำหน่าย :\nจักรเย็บผ้าทุกชนิด ทุกยี่ห้อ ทั้งใหม่และของมือสอง สภาพดี!! + อุปกรณ์อะไหล่เสริมทุกชนิด + สินค้าเครื่องใช้ไฟฟ้า SINGER ทุกชนิด + พร้อมการบริการหลังการขาย\nรับบริการซ่อมบำรุง - เปลี่ยนแปลง Upgrade :\nจักรเย็บผ้าทุกชนิด ทุกยี่ห้อ โดยช่างผู้ชำนาญ + รับแจ้งสินค้า SINGER มีปัญหา \nโดยท่านสามารถนำมาที่ร้านได้ทันที หรือติดต่อมาให้ช่างไปบริการถึงบ้าน โดยช่างศูนย์ SINGER ผู้ชำนาญเฉพาะทาง",
        "emails": [
            "britneynongyaya@hotmail.com"
        ],
        "id": "795342880532861",
        "location": {
            "city": "Amphoe Sadao",
            "country": "Thailand",
            "latitude": 6.6062,
            "longitude": 100.46921,
            "street": "108/29 ถนนปาดังเบซาร์ ตำบลสะเดา",
            "zip": "90120"
        },
        "name": "ร้าน ขาย-ซ่อมจักรเย็บผ้า และเครื่องใช้ไฟฟ้า บังนี Singer",
        "phone": "0899750794"
    },
    {
        "about": "จักรเย็บกระสอบ Newlong Made In Japan\n",
        "description": "เราเป็นตัวแทนผลิตภัณฑ์เดียวกับ Newlong Thailand จำหน่ายและให้บริการซ่อม จักรเย็บกระสอบมือถือ จักรเย็บกระสอบแบบติดแท่นยี่ห้อ นิวล็อง(NEWLONG) , NEWLONG NLI,สายพานลำเลียง,เครื่องชั่งบรรจุ พร้อมให้คำปรึกษาปัญหาโดยผู้ผ่านประสบการณ์จาก Newlong machine works (Thailand)มาอย่างยาวนาน",
        "id": "1392438581023688",
        "name": "จำหน่ายและบริการซ่อมจักรเย็บกระสอบ newlong"
    },
    {
        "about": "รับซอ่ม ขายจักรเย็บกระสอบ-เครื่องตัดผ้า",
        "id": "1464109720559610",
        "location": {
            "city": "Bangkok",
            "country": "Thailand",
            "street": "หมู่บ้านธนาคม",
            "zip": "10160"
        },
        "name": "ขาย-ซอ่ม จักรเย็บกระสอบ เครืองตัดผ้า",
        "phone": "0879244104"
    },
    {
        "id": "1571311126439808",
        "location": {
            "city": "Amphoe Si Racha",
            "country": "Thailand",
            "latitude": 13.07057,
            "longitude": 101.01935,
            "street": "บหมู่บ้านวินเพลส",
            "zip": "20230"
        },
        "name": "ขายจักรเย็บผ้ามือหนึ่ง มือสอง รับซ่อมจักรอุตสาหกรรม",
        "phone": "0856640548"
    },
    {
        "id": "401648679997380",
        "location": {
            "city": "ตระการพืชผล",
            "street": "บ้านเซเป็ด อ.ตระการพืชผล จ.อุบลราชธานี"
        },
        "name": "จักรเย็บผ้าซ่อมขายจักรทุกชนิดมีอะไหล่จักรทุกชนิด"
    },
    {
        "about": "รับซื้อขาย-แลกเปลี่ยน จักรทุกชนิด",
        "emails": [
            "kcrsewing@gmail.com"
        ],
        "id": "605454666255813",
        "location": {
            "city": "อ.ป้อมปราบฯ กรุงเทพฯ",
            "street": "78-80 ถ.วรจักร ต.บ้านบาตร",
            "zip": "10100"
        },
        "name": "ร้านกิจเจริญ ซื้อ ขาย เปลี่ยน ซ่อมจักรเย็บผ้าทุกชนิด",
        "phone": "02-22222-65 , 02-2211322"
    },
    {
        "id": "646865318758318",
        "location": {
            "city": "Amphoe Muang Nong Khai",
            "country": "Thailand",
            "latitude": 17.88861670924,
            "longitude": 102.76303491129,
            "zip": "43000"
        },
        "name": "ร้านจักรพงษ์ จำหน่ายจักรปัก จักรเย็บทุกชนิด รับซ่อมและเปลี่ยนอะไหล่"
    },
    {
        "id": "1499204760334864",
        "location": {
            "city": "Klaeng",
            "country": "Thailand",
            "latitude": 12.7783822,
            "longitude": 101.6491278
        },
        "name": "ร้านเอนกจักรเย็บสามย่าน ซ.3 ขาย/ซ่อม/อะไหร่/ใหม่/มือสอง",
        "phone": "0947711210"
    },
    {
        "id": "1549999805272319",
        "location": {
            "city": "Chiang Rai",
            "country": "Thailand",
            "latitude": 19.9,
            "longitude": 99.8333
        },
        "name": "ร้านซ่อมจักรเย็บผ้ากาดหลวง"
    },
    {
        "about": "รับซ่อมจักรเย็บผ้าอุตสาหกรรม ทุกชนิด รับบริการนอกสถานที่",
        "id": "1595460604046402",
        "location": {
            "city": "Amphoe Si Maha Phot",
            "country": "Thailand",
            "latitude": 13.9667,
            "longitude": 101.517,
            "street": "25 ม.10 ต.ศรีมหาโพธิ อ.ศรีมหาโพธิ จ.ปราจีนบุรี",
            "zip": "25140"
        },
        "name": "ซ่อมจักรเย็บผ้า อุตสาหกรรม 304 ปราจีนบุรี",
        "phone": "0819476576"
    },
    {
        "about": "ซ่อมจักรอุสาหกรรม  ขายจักรใหม่ มือสองJAPAN  CHINA",
        "emails": [
            "touch19815@gmail.com"
        ],
        "id": "487821747972894",
        "location": {
            "city": "Bangkok",
            "country": "Thailand",
            "latitude": 13.7363644,
            "longitude": 100.4872131,
            "street": "88 อิสรภาพ 26 ธนบุรี",
            "zip": "10600"
        },
        "name": "ช่างทัศน์ช่าง ซ่อม จักรเย็บผ้าอุตสาหกรรม บริการซ่อมจักรอุตสาหกรรมนอกสถานที่",
        "phone": "0812979689 ไอดีline"
    },
    {
        "about": "ช่างหมู รับซ่อมจักรเย็บผ้าทั้งในและนอกสถานที่",
        "id": "733199903382591",
        "location": {
            "city": "Nakhon Pathom",
            "country": "Thailand",
            "latitude": 13.81103,
            "longitude": 100.01429,
            "street": "53/2 ม.6 ต.ห้วยจรเข้",
            "zip": "73000"
        },
        "name": "ช่างหมูรับซ่อมจักรเย็บผ้า",
        "phone": "034-273217"
    }
]