[
    {
        "id": "635794203187309",
        "location": {
            "city": "Amphoe Huai Yot",
            "country": "Thailand",
            "latitude": 7.857063365,
            "longitude": 99.594999675,
            "street": "296/1 ม.10 ต.หนองช้างแล่น",
            "zip": "92130"
        },
        "name": "บ้านสองพี่น้อง ซ.2 หลังแรกเยื้องเสาโทรศัพท์"
    },
    {
        "id": "518119941555780",
        "location": {
            "city": "Bangkok",
            "country": "Thailand",
            "latitude": 13.770403047456,
            "longitude": 100.5323051453
        },
        "name": "ห้องช่าง ศูนย์โทรศัพท์ รพ.รร.๖"
    },
    {
        "id": "502651626570079",
        "location": {
            "city": "Samut Sakhon",
            "country": "Thailand",
            "latitude": 13.5333,
            "longitude": 100.283,
            "street": "แยกองค์การโทรศัพท์",
            "zip": "74002"
        },
        "name": "ช่างติรสเด็ด เนื้อตุ๋น-หมูตุ๋น",
        "phone": "0894128069"
    },
    {
        "id": "299245620202394",
        "location": {
            "city": "Chiang Mai",
            "country": "Thailand",
            "latitude": 18.775224974743,
            "longitude": 98.997400328095
        },
        "name": "ร้านโทรศัพท์ที่เจ๊แหววเฝ้า ช้างคลาน"
    },
    {
        "id": "276708299118961",
        "location": {
            "latitude": 9.1072973585772,
            "longitude": 99.485048968437
        },
        "name": "ชุมสาย โทรศัพท์ ช้างช้าย - Tot"
    },
    {
        "id": "1694921760742614",
        "location": {
            "city": "Muang Samut Sakhon",
            "country": "Thailand",
            "latitude": 13.5509337,
            "longitude": 100.26587683333,
            "street": "แยกองค์การโทรศัพท์ ข้างร.ร.วัดป้อม",
            "zip": "74000"
        },
        "name": "ช่างติรสเด็ด เตี๋ยว-เหลาเนื้อ,หมู"
    },
    {
        "id": "156094427789085",
        "location": {
            "city": "Bangkok",
            "country": "Thailand",
            "latitude": 13.710645395569,
            "longitude": 100.56659334593,
            "zip": "10110"
        },
        "name": "แผนกช่างโทรศัพท์ กทท."
    },
    {
        "about": "ขายเคสไอโฟน น่ารักๆ ถูกๆ",
        "id": "806076112782269",
        "location": {
            "city": "Amphoe Muang Chiang Mai",
            "country": "Thailand",
            "latitude": 18.83117,
            "longitude": 98.95191,
            "street": "70/3 ถ.ชัยภูมิ  ต.ช้างม่อย  อ.เมือง",
            "zip": "50300"
        },
        "name": "ขายเคสโทรศัพท์ไอโฟน  น่ารักๆ ถูกๆ",
        "phone": "0840437895"
    },
    {
        "about": "รับทำป้ายชื่อ คู่รัก เพื่อน ป้ายแต่งงาน  สีที่หลากหลายให้เลือก สนใจติดต่อได้ค่ะ",
        "id": "147703388773942",
        "location": {
            "city": "Songkhla",
            "country": "Thailand",
            "latitude": 7.12177,
            "longitude": 100.62622,
            "street": "63/51 ม.2 กาญจนวานิช ซอย8 กาญจนวานิช แขวง/ตำบล เขารูปช้าง เขต/อำเภอ เมืองสงขลา จังหวัด สงขลา 90000",
            "zip": "90000"
        },
        "name": "รับทำ ป้ายชื่อ Handmade พวงกุญแจ ที่ห้อยโทรศัพท์",
        "phone": "0895964944"
    }
]