[
    {
        "about": "บริการซ่อมหลังคา แก้ปัญหาหลังคารั่วซึม ติดตั้งรางน้ำ \n",
        "description": "บริการซ่อมหลังคา แก้ปัญหาหลังคารั่วซึม ดาดฟ้ารั่ว เปลี่ยนหลังคาใหม่ \nบริการติดตั้งรางน้ำฝน  ลงสำรวจพี้นที่พร้อมประเมินราคา ฟรี  \nงานซ่อมหลังคารับประกันผลงานเป็นระยะเวลา 1 ปี นับจากวันส่งมอบงาน\n*รับงานเฉพาะพื้นที่จังหวัดภูเก็ต *",
        "id": "320210971424149",
        "name": "ซ่อมหลังคา ติดตั้งรางน้ำ 087-2657088",
        "phone": "087-2657088"
    },
    {
        "about": "บริการซ่อมหลังคารั่ว พ่นสีกันร้อน/สะท้อนความร้อน ด้วยทีมงานช่างซ่อมหลังคามืออาชีพ",
        "emails": [
            "cm_coatingteam@hotmail.com"
        ],
        "id": "439750182784367",
        "location": {
            "street": "73/120 หมู่6 ต.เสาธงหิน อ.บางใหญ่",
            "zip": "11140"
        },
        "name": "CM-Coating บริการซ่อมหลังคารั่วและพ่นสีสะท้อนความร้อน",
        "phone": "02-903-2230 แฟกซ์ 02-903-1266"
    },
    {
        "about": "หลวงปู่แก้ว  วัดศรีโขง อ.เมือง จ.เชียงใหม่",
        "emails": [
            "wellwaterproof71@gmail.com"
        ],
        "id": "144187042458509",
        "location": {
            "city": "Chiang Mai",
            "country": "Thailand",
            "latitude": 18.78966,
            "longitude": 98.9844,
            "street": "71/1 ม.3 ต.ฟ้าฮ่าม อ.เมือง",
            "zip": "500000"
        },
        "name": "รับซ่อมหลังคารั่ว ทำกันซึมห้องน้ำ ดาดฟ้า จ.เชียงใหม่",
        "phone": "083-2805652"
    },
    {
        "about": "รับซ่อมหลังคารั่ว เชียงใหม่",
        "description": "รับซ่อมหลังคารั่ว และงานกันซึมทุกชนิด งานซ่อมรอยร้าวอาคาร",
        "emails": [
            "anongluk.hrp@gmail.com"
        ],
        "id": "416018468604839",
        "location": {
            "city": "Chiang Mai",
            "country": "Thailand",
            "latitude": 18.7622604,
            "longitude": 98.9929581,
            "street": "เชียงใหม่",
            "zip": "50000"
        },
        "name": "รับซ่อมหลังคารั่ว เชียงใหม่",
        "phone": "098-8092609"
    },
    {
        "id": "1621715671400543",
        "location": {
            "city": "Bangkok",
            "country": "Thailand",
            "latitude": 13.81952,
            "longitude": 100.6966705,
            "street": "763 ถ. พระยาสุเรนทร์ แขวง คลองสามวา เขต มีนบุรี",
            "zip": "10510"
        },
        "name": "รับเหมาต่อเติม ต่อมุกหน้าบ้าน ปูกระเบื้อง ปูทางเท้า ซ่อมหลังคา",
        "phone": "0896974586"
    },
    {
        "about": "ติดต่อ สอบถาม\nเบอร์โทร  081-2617465\nเบอร์โทร  081-4714865\nช่างไสว ",
        "emails": [
            "bigkungclub@gmail.com"
        ],
        "id": "1623265517924620",
        "location": {
            "city": "Khon Kaen",
            "country": "Thailand",
            "latitude": 16.4333,
            "longitude": 102.833,
            "street": "145 หมู่ 21 บ้านเกิ้ง ต.บ้านไผ่ อ.บ้านไผ่ จ.ขอนแก่น 40110"
        },
        "name": "ช่างไสว รับเหมามุงหลังคา,ซ่อมหลังคา",
        "phone": "เบอร์โทร 0812617465  ,  081-4714865"
    },
    {
        "about": "เพจนี้สร้างขึ้นเพื่อความบันเทิง โปรดใช้จักรยานในการเสพข้อมูล",
        "id": "581081705257611",
        "name": "ขอไลค์หน่อย จะเอาไปซ่อมหลังคาบ้าน"
    },
    {
        "about": "แก้ปัญหาที่เกิดจากหลังคา ซ่อมรั่ว เปลี่ยนสีหลังคา เปลี่ยนกระเบื้อง",
        "id": "736442749777289",
        "location": {
            "city": "Surat Thani",
            "country": "Thailand",
            "latitude": 9.09542,
            "longitude": 99.3073,
            "street": "239/418 อ.เมือง",
            "zip": "84000"
        },
        "name": "บริการให้คำปรึกษาด้านหลังคา ซ่อมรั่ว เปลี่ยนสี เปลี่ยนกระเบื้อง",
        "phone": "0831724559"
    },
    {
        "id": "808048212571975",
        "name": "รับทำหลังคารถกระบะ ซ่อม ต่อเติม"
    },
    {
        "id": "495441790595275",
        "name": "บังอาลีการช่าง รับเหมาซ้อมหลังคา และงาน ฝ้าเพดาน ทั่วไป 0807036654"
    },
    {
        "about": "อู่ทำสีรถยนต์ ซ่อม ต่อเติม ตัวถัง วางเครื่อง ติดตั้งหลังคาmoonroof ครบวงจร โทร 081-0181463",
        "id": "381760001948580",
        "name": "อู่ซ่อมตัวถัง สี 2k วางเครื่อง ซ่อม ปะผุ รับติดตั้งหลังคาmoonroof ครบวงจร"
    },
    {
        "id": "1556843344571648",
        "location": {
            "city": "Changwat Samut Prakan",
            "country": "Thailand",
            "latitude": 13.627383629804,
            "longitude": 100.6371905935
        },
        "name": "ชลดาการช่าง. ซ่อมโซฟา.  โครงหลังคารถยนต์"
    },
    {
        "id": "1503305883284728",
        "location": {
            "latitude": 14.02394905,
            "longitude": 102.68580627
        },
        "name": "เถียงนาน้อยหลังคาไม่รั่ว. ซ่อมแล้ว"
    },
    {
        "id": "1423164877968371",
        "location": {
            "city": "Bangkok",
            "country": "Thailand",
            "latitude": 13.89633,
            "longitude": 100.63934,
            "street": "รับซ่อมนอกสถานที่",
            "zip": "10220"
        },
        "name": "น้ำรั่ว ซึม หลังคา สามมิต แคลี่บอย แก้ไขใด้ รับติดตั้งหลังคามือ2",
        "phone": "0822248778"
    },
    {
        "id": "1065119546849727",
        "location": {
            "city": "Bangkok",
            "country": "Thailand",
            "latitude": 13.7522,
            "longitude": 100.494
        },
        "name": "ห้องน้ำที่เดิมหลังคาไม่ซ่อมย่านแจ้งวัฒนะ"
    },
    {
        "id": "819558638135555",
        "location": {
            "city": "Bangkok",
            "country": "Thailand",
            "latitude": 13.676794111859,
            "longitude": 100.53781887002
        },
        "name": "หอป้าเค็มหลังคาห้องน้ำรั่วครึ่งเดือนยังไม่ซ่อมเลยจ้า"
    },
    {
        "about": "ซ่อมหลังคารั่วโดยทีมงานมืออาชีพ",
        "description": "หากท่านเป็นคนหนึ่งที่หน้าฝนทีไร!!ทุกข์ใจกับปัญหาหลังคารั่ว ปรึกษาเราซิครับ เรามีทีมงานที่เชี่ยวชาญด้านนี้โยเฉพาะ ท่านจะหมดความกังวลคุ้มค่าคุ้มราคา เรามีประสบการณ์ยาวนานกว่า30 ปี หลังคารั่ว ปรึกษาเรา คุณสุกิจ โทร 09-8248-9778",
        "emails": [
            "tnkdoodee22@hotmail.com"
        ],
        "id": "748880308489904",
        "location": {
            "city": "Bangkok",
            "country": "Thailand",
            "latitude": 13.7522,
            "longitude": 100.494
        },
        "name": "รับซ่อมหลังคารั่วทุกชนิด Repair roof leaks",
        "phone": "0982489778"
    },
    {
        "id": "567825913322440",
        "location": {
            "city": "Bang Na",
            "country": "Thailand",
            "latitude": 13.678793793,
            "longitude": 100.60282665909
        },
        "name": "กระท่อมน้อยปลายนาหลังคารั่วแต่ซ่อมแล้ว"
    },
    {
        "id": "566130826822776",
        "location": {
            "city": "Rawai",
            "country": "Thailand",
            "latitude": 7.8070285756102,
            "longitude": 98.337957859039
        },
        "name": "ร้านซ่อมมอร์ไซค์ เล็กๆหลังคามุงสังกะสี ของผมเอง ใกล้ๆชายทะเล Bkt."
    },
    {
        "description": "บ้านครอบครัวหรรษา",
        "id": "549349588536331",
        "location": {
            "city": "Nam Phong",
            "country": "Thailand",
            "latitude": 16.713064857732,
            "longitude": 102.86820803818,
            "street": "งานซ่อมหลังคาบ้าน"
        },
        "name": "บ้านครอบครัวหรรษา"
    },
    {
        "id": "357945961059163",
        "location": {
            "latitude": 16.73728,
            "longitude": 98.61396
        },
        "name": "ห้องพัก 4 เดือนแล้วยังไม่ซ่อมหลังคาให้"
    },
    {
        "id": "257616837747679",
        "location": {
            "city": "Bangkok",
            "country": "Thailand",
            "latitude": 13.831562183996,
            "longitude": 100.6646241836
        },
        "name": "ห้องซ้อมใต้หลังคา"
    },
    {
        "id": "130074527137990",
        "location": {
            "city": "Ranong",
            "country": "Thailand",
            "latitude": 9.954874,
            "longitude": 98.612692
        },
        "name": "ซ่อมหลังคาบ้านเจ้ งานยาวเลยหิวแล้วนะ o_O!!!"
    },
    {
        "about": "สอบถามข้อมูล ใน inbox หรือโพส หน้าวอล\nเรื่องซื้อ,ขาย,ซ่อมโครงหลังคาทั้งมือ1,มือ2 ได้คับ",
        "description": "รับติดตั้ง โครงกระบะมือ1 มือ 2 หลังคามิเนียมตู้ทึบ โครงโดยสาร - สองแถว โครงคอก คอก + หลังคาสแตนเลส โครงผ้าใบ ตาช่าย รับซื้อมือสอง หลังคารถ มือสอง  หลังคารถมือ2",
        "id": "370059713199618",
        "location": {
            "city": "Amphoe Khlong Luang",
            "country": "Thailand",
            "latitude": 13.9736206,
            "longitude": 100.6171122,
            "street": "ตลาดสี่มุมเมือง,รังสิต,ตลาดไท",
            "zip": "12130"
        },
        "name": "เทคนิคช่าง :ซื้อ ขาย ซ่อม โครงหลังคารถกระบะ มือ1 มือ2",
        "phone": "0924042005"
    },
    {
        "id": "862286100519262",
        "location": {
            "city": "Bangkok",
            "country": "Thailand",
            "latitude": 13.8649454,
            "longitude": 100.6922607,
            "street": "763 ถ.พระยาสุเรนทร์ แขวง คลองสามวาเขต มีนบุรี",
            "zip": "10510"
        },
        "name": "รับเหมาต่อเติม ต่อมุกหน้าบ้าน ปูกระเบื้อง ปูทางเท้า ซ่อมหลังคา โรงจอดรถ",
        "phone": "0896974586"
    }
]