[
    {
        "id": "1636155056659689",
        "location": {
            "city": "Möng Lom Kao",
            "country": "Thailand",
            "latitude": 16.851109953656,
            "longitude": 101.19105491024
        },
        "name": "ห้องแล็บส่วนตัวของช้างสนิมที่มีคุณยายคอยเคาะประตูทั้งคืน"
    },
    {
        "id": "1594797494124439",
        "location": {
            "city": "Prachin",
            "country": "Thailand",
            "latitude": 14.0503,
            "longitude": 101.37
        },
        "name": "โรงงานช่างมณประตูม้วน ผลิตจำหน่ายประตูม้วนไฟฟ้า ล้อกโซ่."
    },
    {
        "id": "1548660288740214",
        "location": {
            "city": "Chiang Mai",
            "country": "Thailand",
            "latitude": 18.7903,
            "longitude": 98.9817
        },
        "name": "บัวลอยน้ำขิง ประตูช้างเผือก"
    },
    {
        "id": "1527904094127839",
        "location": {
            "city": "Chiang Mai",
            "country": "Thailand",
            "latitude": 18.800154814857,
            "longitude": 98.970100879669
        },
        "name": "หมูยอตลาดประตูช้างเผือก"
    },
    {
        "id": "1513275505621577",
        "location": {
            "city": "Ban Du",
            "country": "Thailand",
            "latitude": 19.9232818,
            "longitude": 99.8366868
        },
        "name": "ร้านณรงค์มอเตอร์ - ช่างนันประตู1",
        "phone": "0849859464"
    },
    {
        "id": "1497014457240804",
        "location": {
            "city": "Rayong",
            "country": "Thailand",
            "latitude": 12.687549865247,
            "longitude": 101.2390569225
        },
        "name": "ร้าน ช่างหนุ่ม ระยอง ตกแต่งรถตู้ Vip ประตูดูด"
    },
    {
        "id": "139882186166869",
        "location": {
            "city": "Chiang Mai",
            "country": "Thailand",
            "latitude": 18.795799072176,
            "longitude": 98.983760206067,
            "street": "Manee Nopparat",
            "zip": "50200"
        },
        "name": "โรงเรียนนิรันดร์ ประตูช้างเผือก"
    },
    {
        "id": "101728306610971",
        "location": {
            "city": "Chiang Mai",
            "country": "Thailand",
            "latitude": 18.796117123461,
            "longitude": 98.986442998837,
            "zip": "50200"
        },
        "name": "ข้าวมันไก่แซ้บบบบ ประตูช้างเผือก"
    },
    {
        "id": "1510170349205508",
        "location": {
            "city": "Amphoe Muang Chiang Mai",
            "country": "Thailand",
            "latitude": 18.79551148,
            "longitude": 98.98671191
        },
        "name": "หมูกระทะช้างเผือก สาขาประตูช้างเผือก"
    },
    {
        "about": "รับทำประตูหน้าต่างครบวงจร เเละรับทำบรรดันใม้ ทุกชนิด",
        "id": "546837085454420",
        "location": {
            "city": "Amphoe Bang Phli",
            "country": "Thailand",
            "latitude": 13.6,
            "longitude": 100.717,
            "street": "กิ่งเเก้ว ซ.9ข.",
            "zip": "10540"
        },
        "name": "ช่างจ่อย รับทำประตูหน้าต่าง ครบวงจร เเละบรรดันไม้ทุกชนิด",
        "phone": "0871396932"
    },
    {
        "id": "900989776648973",
        "location": {
            "city": "Samut Sakhon",
            "country": "Thailand",
            "latitude": 13.5555897,
            "longitude": 100.232666,
            "street": "5/21ม3 ต.บางกระเจ้า อ.เมือง",
            "zip": "74000"
        },
        "name": "รับสมัคร ช่างทำประตู ราวบันได รั้ว สแตนเลส และเด็กฝึกงาน",
        "phone": "0954908228"
    },
    {
        "about": "รับเหมางานสแตนเลส ประตูม้วน ประตูยืด \n                   กระจก อลูมิเนียม งานเหล็กทุกชนิด",
        "emails": [
            "apmhol@hotmail.com"
        ],
        "id": "786109808148529",
        "location": {
            "city": "Muang Surin",
            "country": "Thailand",
            "latitude": 14.90883,
            "longitude": 103.48616,
            "street": "หนึ่งการช่าง",
            "zip": "32000"
        },
        "name": "หนึ่ง สแตนเลส ประตูม้วน  0959276949",
        "phone": "0959276949,0930625947"
    },
    {
        "id": "384139458320558",
        "location": {
            "city": "Chiang Mai",
            "country": "Thailand",
            "latitude": 18.796071610344,
            "longitude": 98.986453712277,
            "zip": "50200"
        },
        "name": "บ้านไม้กาแฟ ประตูช้างเผือก"
    },
    {
        "about": "บริการติดตั้ง พื้นไม้ บันไดไม้ ประตูไม้ ด้วยช่างมืออาชีพ",
        "description": "หสม. แนซ คอเปอร์เรท\nบริการช่างติดตั้ง พื้นไม้ บันไดไม้ ประตูไม้ ด้วยช่างมืออาชีพ รับประกันงาน\nหากต้องการสร้างบ้านใหม่ ซ่อมแซมบ้าน ในส่วนที่เป็นพื้นไม้ บันไดไม้ ประตูไม้ ต้องการหาช่างมืออาชีพไม่อยากเสี่ยงช่างหนีงาน งานไม่มีคุณภาพ จะช่วยจัดการกับปัญหาเหล่านั้นเราทำหน้าที่หาช่างให้คุณ ดูแล ควบคุมหน้างานจนจบงาน พร้อมใบรับประกันงาน ",
        "emails": [
            "somporn.pup@gmail.com"
        ],
        "id": "1564367060447155",
        "location": {
            "city": "Bangkok",
            "country": "Thailand",
            "latitude": 13.67908,
            "longitude": 100.61183,
            "street": "225/85 ถ.สรรพาวุธ บางนา",
            "zip": "10260"
        },
        "name": "ช่างติดตั้ง พื้นไม้ บันไดไม้ ประตูไม้"
    },
    {
        "id": "804458232977854",
        "location": {
            "city": "Surin",
            "country": "Thailand",
            "latitude": 14.8833,
            "longitude": 103.483,
            "street": "26 ม. 10 ต.ด่าน.อ.กาบเชิง",
            "zip": "32210"
        },
        "name": "ไพศาลการช่าง รับทำงานเหล็กทุกชนิด ประตูเหล็ก โกดัง",
        "phone": "0930609893"
    },
    {
        "id": "264187367034667",
        "location": {
            "city": "Chiang Mai",
            "country": "Thailand",
            "latitude": 18.803015266546,
            "longitude": 98.985720951402,
            "zip": "50300"
        },
        "name": "เจ๊ขวัญ (เย็นตาโฟทรงเครื่อง) ประตูช้างเผือก"
    },
    {
        "about": "รับทำงานปั้นต่างๆ งานหล่อเรซิ่น งานประติมากรรม",
        "id": "1403394299891019",
        "location": {
            "city": "Bangkok",
            "country": "Thailand",
            "latitude": 13.70426,
            "longitude": 100.40088,
            "street": "วิทยาลัยเพาะช่าง",
            "zip": "10160"
        },
        "name": "งานปั้น  ประติมากรรม -  นักศึกษาศิลปะ",
        "phone": "0836050238"
    },
    {
        "id": "1678276779064663",
        "location": {
            "city": "Nakhon Si Thammarat",
            "country": "Thailand",
            "latitude": 8.426325137749,
            "longitude": 99.9741056934
        },
        "name": "ร้านช่างแดงประตูขาว"
    },
    {
        "id": "1654364064792319",
        "location": {
            "city": "ตากฟ้า",
            "latitude": 15.362491847803,
            "longitude": 100.50204999153,
            "street": "ซ.เขาหมีพัฒนา2  ต.สุขสำราญ  อ.ตากฟ้า  จ.นครสวรรค์"
        },
        "name": "ช่างพัฒ   รับทำงานเหล็กดัด,และงาตสแตนเลส, ประตูม้วน",
        "phone": "0911469476"
    },
    {
        "id": "1575216839392203",
        "location": {
            "city": "Chiang Mai",
            "country": "Thailand",
            "latitude": 18.8014947,
            "longitude": 98.9846045
        },
        "name": "ถนนประตูช้างเผือก"
    },
    {
        "id": "1530938137157156",
        "location": {
            "city": "Chiang Mai",
            "country": "Thailand",
            "latitude": 18.79737,
            "longitude": 98.986
        },
        "name": "ประตูช้างเผือก เชีบงใหม่"
    },
    {
        "id": "1523028061309524",
        "location": {
            "city": "Nakhon Ratchasima",
            "country": "Thailand",
            "latitude": 14.9623784,
            "longitude": 102.0760062,
            "street": "0844974487"
        },
        "name": "บ้านหลังหนึ่งย่านหนองแก้ช้างที่มีทางเข้าเป้นประตูทางออกเป้นหน้าต่าง.",
        "phone": "0844974487"
    },
    {
        "id": "134372503393778",
        "location": {
            "city": "Chiang Mai",
            "country": "Thailand",
            "latitude": 18.762933290581,
            "longitude": 98.97850122312,
            "street": "ประตูช้างเผือก",
            "zip": "50100"
        },
        "name": "North Gate"
    },
    {
        "id": "508313419310365",
        "location": {
            "city": "Chiang Mai",
            "country": "Thailand",
            "latitude": 18.81991187,
            "longitude": 98.972006573333,
            "street": "ประตูข้างสวนหลวง ร.9 ข้าง.สน.ช้างเผือก"
        },
        "name": "ร้านลุงหนวดข้าวแกงใต้"
    },
    {
        "description": "สนาม CMI Futsal เป็นสนามหญ้าเทียมแห่งแรกในเชียงใหม่ และแห่งแรกในเขตภาคเหนือตอนบน จำนวน 2 สนาม มีที่จอดรถสำหรับลูกค้า ร้านอาหาร Wi-Fi\n\nเปิดให้บริการทุกวัน\n\nสนใจเช่าสนามเพื่อแข่งรายวัน หรือจัดกิจกรรมต่างๆ \nติดต่อได้ที่ 084-803-9977\n",
        "emails": [
            "cmifutsal.cm@gmail.com"
        ],
        "id": "251211168233848",
        "location": {
            "city": "Amphoe Muang Chiang Mai",
            "country": "Thailand",
            "latitude": 18.7918797,
            "longitude": 98.9877701,
            "street": "ประตูช้างเผือก, ถนนพระปกเกล้า",
            "zip": "50000"
        },
        "name": "CMI Futsal Chiangmai"
    }
]