[
    {
        "id": "290677351006492",
        "location": {
            "city": "Chiang Mai",
            "country": "Thailand",
            "latitude": 18.795799435241,
            "longitude": 98.986077224984,
            "street": "ถนนมณีนพรัตน์",
            "zip": "50200"
        },
        "name": "ประตูช้างเผือก",
        "phone": "0824800895"
    },
    {
        "about": "ราคาเริ้มต้นที่50บาทต่อ ตรม.0884920472 0883746659ช่างจตุพล ราคากันเอง",
        "description": "บริการด้านงานพื้นปาร์เก้ บันได ประตู หรืองานไม้",
        "emails": [
            "payutasai@gmail.com"
        ],
        "id": "450124261713879",
        "location": {
            "city": "มีน",
            "street": "กรุงเทพ มีนบุรี หทัยราช 39 หมู่บ้านเคซี 3 สอย 3 บ้านเลขที่ 37/103"
        },
        "name": "ช่างจตุพลรับปูขัดขัดพื้นทาสียูรีเทนไม้ปาร์เก้รับติดตั้งประตูบันได0884920472",
        "phone": "0884920472  0883746659"
    },
    {
        "about": "\nช่างซ่อมประตูรีโมท0899455259",
        "id": "1621560311457970",
        "name": "ช่างประตูรีโมท0899455259"
    },
    {
        "about": "รับทำประตูม้วนเหล็กดัดทุกชนิด โดย ช่างชำนาญงาน",
        "description": "รับติดตั้งประตูม้วน ทุกระบบ ทุกชนิด มีคุณภาพ ช่างฝีมือมากกว่า20ปี ควบคุมงานเอง ราคาต่อรองกันได้  ราคากันเอง ถูกที่สุดในโลกกกกกกประตูม้วน ทุกระบบ\nรายละเอียด\nขายประตูม้วนทุกระบบ ครบวงจร ราคาถูกสุดพิเศษ พร้อมติดตั้งโดยช่างผู้ชำนาญงานกว่า20ปี\nคุณภาพมาตรฐาน ราคายุติธรรม ไม่เอาเปรียบผู้บริโภคที่นี่ที่เดียว\nประตูม้วนระบบมือดึง (spring operating system)\nประตูม้วนระบบรอก (chain operating system)\nประตูม้วนระบบมอเตอร์ไฟฟ้า (power motor operating system)\n... แบบลายประตู (เหล็กสีครีม+สีเทา - สแตนเลส ทุกสีที่มี)\n1.บานทึบลอนเดี่ยว\n2.บานทึบลอนคู่\n3.บานทึบปั้มลาย(ช่วยเพิ่มสเน่ห์ให้ทันสมัย)\n4.ลายโปร่งตาข่าย\n5.ลายอิฐสลับ\n6.ลายอิฐตรง\n7.บานโปร่งผสมบานทึบจากพื้นแล้วแต่ระยะที่ต้องการ",
        "emails": [
            "jitti_srimat@hotmail.com"
        ],
        "id": "292820814153536",
        "location": {
            "city": "Bangkok",
            "country": "Thailand",
            "latitude": 13.73845571,
            "longitude": 100.62958422,
            "street": "39/45 พระราม2 94 แขวง แสมดำ เขตบางขุนเทียน",
            "zip": "10150"
        },
        "name": "ช่างประตูม้วน พระราม2  ติดตั้งซ่อมประตูม้วน",
        "phone": "0814445844"
    },
    {
        "about": "www.autogate46.com\nช่างจำเนียร ประตู - รีโมท\nจำหน่าย ติดตั้ง ซ่อม มอเตอร์ ประตูรีโมท ",
        "description": "www.autogate46.com ช่างจำเนียร ประตูรีโมท\nจำหน่าย ติดตั้ง ซ่อม มอเตอร์ประตูรีโมท ทุกรุ่นทุกยี่ห้อ และรับงานเหล็ก สแตนเลสทุกชนิด\nติดต่อ : ช่างจำเนียร 085-843 8437 , ช่างก้อง 084-160 9902",
        "emails": [
            "autogate@hotmail.com"
        ],
        "id": "505000946260311",
        "location": {
            "street": "บริการทั่วกรุงเทพฯ และจังหวัดใกล้เคียง"
        },
        "name": "ช่างจำเนียร ประตู - รีโมท",
        "phone": "0858438437"
    },
    {
        "id": "463362013711402",
        "name": "ช่างศิลป ประติมากรรม"
    },
    {
        "id": "1650200118588864",
        "name": "ช่างประตูAuto"
    },
    {
        "about": "ศูนย์ฝึกหัดขับรถยนต์ประตูช้างเผือก สอนขับรถยนต์ รถเก๋ง,ปิกอัพทั้งเกียร์ธรรมดาและออโต้",
        "id": "309807775787406",
        "name": "สอนขับรถยนต์ประตูช้างเผือก"
    },
    {
        "about": "ช่างโสภณ0835457999     0846652562\nรับซ่อมติดตั้งประตูรีโมททุกรุุ่นทุกยี่ห้อ ทุกรูปแบบประตู id line 0835457999",
        "description": "รับซ่อม ติดตั้งระบบรีโมทประตู\n-บานเลื่อน , บานซ้อน ,บานโค้ง\n-บานสวิง , บานเซ๊้ยม\n-บานม้วน-auto door-garade door \n-ไม้กั้นรถ\n                 มีอะไหล่ สินค้า ราคาถูก\n",
        "emails": [
            "nun.sopon@gmail.com"
        ],
        "general_info": "132 ซ.ลาดพร้าว91 แขวง/เขต วังทองหลาง กทม.10310   ปวส. งานติดตั้งไฟฟ้า ว.การอาชีพปากช่อง จ.นครราชสีมา",
        "id": "1495262507380270",
        "location": {
            "city": "กรุงเทพมหานคร",
            "street": "132 ลาดพร้าว91 แขวงวังทองหลาง เขตวังทองหลาง",
            "zip": "10310"
        },
        "name": "ช่างโสภณ รับซ่อมติดตั้งประตูรีโมท ทุกรูปแบบประตู",
        "phone": "0835457999"
    },
    {
        "about": "ช่างเอส ประตูรีโมท รับติดตั้ง ซ่อม ย้าย ประตูบานเลื่อน  รีโมทประตู มอเตอร์ประตู แขนกั้น",
        "description": "รับติดตั้งมอเตอร์ประตูรีโมทบานเลื่อน บานสวิง ซ่อม ย้าย ราคาย่อมเยาว์ รับประกันสินค้า 2 ปี ติดต่อ ช่างเอสประตูรีโมท Tel:095-845-7911",
        "id": "802381396548014",
        "location": {
            "city": "Bangkok",
            "country": "Thailand",
            "latitude": 13.8996801,
            "longitude": 100.672142,
            "street": "ช่างเอส ประตูรีโมท 5/354 ซ.จตุโชติ ออเงิน สายไหม",
            "zip": "10220"
        },
        "name": "ช่างเอส ประตูรีโมท",
        "phone": "0958457911"
    },
    {
        "id": "1007965725912709",
        "name": "ประตูช้าง"
    },
    {
        "id": "930773633682814",
        "name": "ช่างประตู"
    },
    {
        "about": "รับซ่อมประตู, ช่างรับติดตั้งโช๊ค, ประตูกระจก, ประตูไม้, ช่างซ่อมประตูภูเก็ต",
        "description": "รับซ่อมประตู, ช่างรับซ่อมประตู, รับติดั้งประตู, ประตูกระจก, ประตูไม้, ช่างซ่อมประตู ภูเก็ต\nประตูบานเลื่อน บานสวิง บานแขน ประตูบานตก ประตูกับพื้น ดีดกลับแรง กระจกแตก เสียงดัง ล้อเลื่อนเสีย\nรับติดตั้งซ่อมแซมประตูไม้และประตูกระจกทุกชนิด",
        "id": "151823164912319",
        "name": "รับซ่อมประตู, ช่างซ่อมประตู, โทร.081 8932578 รับติดตั้งประตู, ช่างภูเก็ต"
    },
    {
        "about": "ร้านช่างศักดิ์ประตูเหล็ก ดำเงินการโดย ช่างศักดิ์ และเจ๊โอ๋ ",
        "description": "ร้านช่างศักดิ์ประตูเหล็ก รับทำงานเหล็ก งานสแตนเลส ทุกชนิด โครงหลังคาเหล็ก \nรับเหมาก่อสร้าง บ้านและอาคารพาณิชย์ ตัวแทนจำหน่ายใบอลูซิงค์ ผลิตและจำหน่ายใบประตูม้วน ระบบมือดึงครบชุด และ ระบบไฟฟ้า\nงานดีราคาถูก ",
        "general_info": "ร้านช่างศักดิ์ประตูเหล็ก ตั้งอยู่บ้านเลขที่ 947 ม.2 ต.ท่ามะเขือ อ.คลองขลุง จ.กำแพงเพชร\n",
        "id": "413268895393325",
        "location": {
            "city": "Kamphaeng Phet",
            "country": "Thailand",
            "street": "ท่ามะเขือ",
            "zip": "62120"
        },
        "name": "ช่างศักดิ์ประตูเหล็ก",
        "phone": "0817072728"
    },
    {
        "about": "รับทำงานเหล็กทุกชนิด ประสบการณ์กว่า40ปี",
        "id": "1043912232304447",
        "location": {
            "city": "Nakhon Sawan",
            "country": "Thailand",
            "latitude": 15.6937571,
            "longitude": 100.1163483,
            "street": "28/12 ถ.สวรรค์วิถี ต.ปากน้ำโพ",
            "zip": "60000"
        },
        "name": "ช่างเพชร ประตูเหล็ก",
        "phone": "0961064335"
    },
    {
        "about": "รับออกแบบและติดตั้งงานหลังคา กันสาด ต่อเติม ฯลฯ",
        "description": "- รับออกแบบ ติดตั้ง และให้คำปรึกษางานต่อเติม\n- หลังคา กันสาด โพลี่โปร่งแสง/เมทัลชีท/ดีไลท์, รางน้ำฝน, ผ้าใบไวนิล, โครงสร้างไม้/เหล็ก/อลูมิเนียม/สแตนเลส ฯลฯ\n- ตกแต่งภายในและภายนอก พร้อมเสนองานแบบ 3D\n- รับเหมาก่อสร้างตึกและอาคารพาณิชย์",
        "id": "1543457519261271",
        "location": {
            "city": "Khon Kaen",
            "country": "Thailand",
            "latitude": 16.4333,
            "longitude": 102.833,
            "zip": "40000"
        },
        "name": "ส.สมศักดิ์การช่างขอนแก่น หลังคา กันสาด รางน้ำ ประตู รั้ว งานเหล็กทุกชนิด",
        "phone": "084-786-8345, 085-659-0203"
    },
    {
        "id": "241409142692483",
        "location": {
            "city": "Bangkok",
            "country": "Thailand",
            "latitude": 13.75395,
            "longitude": 100.50224,
            "street": "ประตูน้ำ อโศก ดินแดง เพลินจิต นานา ชิดลม เสาวรีย์ชัย ราชเทวี กรุงเทพ",
            "zip": "10000"
        },
        "name": "ช่างกุญแจประตูน้ำ 082 473 1555",
        "phone": "0824731555"
    },
    {
        "about": "จำหน่ายและติดตั้งประตูม้วนทุกระบบ ขายถูกๆในราคาส่งช่าง พร้อมมอเตอร์ประตู  ราคาโรงงาน",
        "description": "จำหน่ายและติดตั้งประตูม้วนทุกระบบ ขายถูกๆในราคาส่งช่าง พร้อมจำหน่ายและติดตั้งชุดมอเตอร์+รีโมทประตูม้วนไฟฟ้าในราคาถูก รับติดตั้งมอเตอร์+รีโมทเข้าประตูชุดธรรมดาที่มีอยู่ และรับงานซ่อมมอเตอร์ประตูม้วนไฟฟ้าทั่วประเทศ โทร.085-1183908 คุณสุชิน",
        "emails": [
            "subpanya_mc@hotmail.com"
        ],
        "id": "304195216353218",
        "location": {
            "city": "Nakhon Pathom",
            "country": "Thailand",
            "latitude": 14.015446,
            "longitude": 100.1861552,
            "street": "100/4 ม.7 ต.บางเลน อ.บางเลน",
            "zip": "73130"
        },
        "name": "ทรัพย์ปัญญาการช่าง ประตูม้วนทุกระบบราคาโรงงาน-จำหน่ายและติดตั้ง",
        "phone": "034391908"
    },
    {
        "id": "1497398037226195",
        "name": "ช่างซ่อมประตูเหล็ก"
    },
    {
        "about": "จำหน่าย/สั่งทำ/ติดตั้ง ประตูไม้ หน้าต่าง วงกบ เฟอร์นิเจอร์built in อื่นๆ จัดส่งทั่วประเทศ",
        "id": "518777481618478",
        "name": "ช่างเนตรประตูไม้กม.10"
    },
    {
        "id": "430214983773135",
        "location": {
            "city": "Bangkok",
            "country": "Thailand",
            "latitude": 13.75395,
            "longitude": 100.50224,
            "street": "ประตูน้ำ ชิดลม เพลินจิต ราชเทวี ดินแดง อโศก พญาไท พัฒนาการ กรุงเทพ",
            "zip": "10000"
        },
        "name": "ช่างกุญแจประตูน้ำ 087 488 4333",
        "phone": "087 488 4333"
    },
    {
        "about": "เพจทางการเพื่ออัพเดทข้อมูล ข่าวสาร ความเคลื่อนไหวสาขาวิชาประติมากรรม วิทยาลัยเพาะช่าง ",
        "description": "เพจทางการสาขาวิชาประติมากรรม เพื่ออัพเดทข้อมูล ข่าวสาร ความเคลื่อนไหวสาขาวิชาประติมากรรม(สากล) วิทยาลัยเพาะช่าง ให้กับนักศึกษาและนักเรียนและผู้สนใจในศิลปะโดยทั่วไป",
        "id": "757791344308066",
        "location": {
            "city": "Bangkok",
            "country": "Thailand",
            "latitude": 13.744490154721,
            "located_in": "157267391143291",
            "longitude": 100.49915722466
        },
        "name": "วิทยาลัยเพาะช่าง สาขาประติมากรรม"
    },
    {
        "about": "ราคาเริ้มต้นที่ 50 บาทต่อ ตรม .0884920472 0883746659ช่างจตุพล ราคากันเอง",
        "description": "ปู ขัด ทำสี ปาร์เก้และพื้นไม้เก่าและไหม่ทุกชนิด ขัดราคาเริ้มต้น50บาทต่อตรม.ขัดทำสีเริ้มต้นที่200บาทต่อ ตรม.ก่อสร้างต่อเติมรับสร้างบ้านตกแต่งทุกชนิด \n\n0883746659 0884920472",
        "emails": [
            "payutasai@gmail.com"
        ],
        "id": "149309345207026",
        "location": {
            "street": "มีนบุรี"
        },
        "name": "ช่างจตุพลรับเหมาปาร์เก้ต่อเติมบ้านทุกชนิดติดตั้งประตูบันไดโทร0884920472",
        "phone": "0884920472  0883746659"
    },
    {
        "about": "ไม่รับโฆษณาทุกชนิด\nไม่รับเรื่องการเมือง\nไม่ใช้คำหยายคาย",
        "general_info": "หอประติมากรรมต้นแบบ เป็นหน่วยงานในส่วนกลุ่มประติมากรรม สังกัดสำนักช่างสิบหมู่ กรมศิลปากร กระทรวงวัฒนธรรม ตั้งอยู่ในบริเวณกรมศิลปากร เป็นสถานที่จัดแสดงงานรูปต้นแบบประติมากรรม รวมทั้งการจัดแสดงกระบวนการปั้นหล่อและหลอมโลหะ ผลงานเหล่านี้เกิดจากการปั้นรูปเพื่อนำไปสร้างอนุสาวรีย์แห่งชาติ พระพุทธรูป รูปเคารพและประติมากรรมส่วนประกอบอนุสาวรีย์ รุ่นครู อาจารย์และศิษย์รวบรวมไว้เป็นจำนวนมาก  ก่อนปี พ.ศ.2530 สถานที่แห่งนี้เคยเป็นที่ปฏิบัติงานปั้นหล่อและหลอมโลหะของหน่วยงานประติมากรรมและโรงงาน กองหัตถศิลป กรมศิลปากร ซึ่งตั้งอยู่ในเขตวังเดิมของสมเด็จพระเจ้าบรมวงศ์เธอเจ้าฟ้ามหามาลา กรมพระยาบำราบปรปักษ์ ต่อมาได้ย้ายไปปฏิบัติงาน ณ อาคารประติมากรรม ณ พุทธมณฑล สาย 5  สำนักช่างสิบหมู่ ต.ศาลายาจังหวัดนครปฐม เมื่อวันที่ 16 มกราคม 2530 โรงปั้นหล่อเดิทบางส่วนได้ใช้เป็นที่ปฏิบัติงานอื่นของกรมศิลปการอยู่ระยะหนึ่ง ต่อมานายนิคม มูสิกะคามะ (ดำรงตำแหน่งอธิบดีกรมศิลปากรในขณะนั้น ปัจจุบันถึงแก่อนิจกรรมแล้ว)ได้จัดสรรงบประมาณให้ทำโครงการ คณะทำงานโครงการหอศิลปต้นแบบงานศิลปกรรมไทย เพื่อปรับปรุงอาคารดำเนินการซ่อมรูปปั้น เพื่อจัดแสดงงานนิทรรศการพร้อมตั้งชื่ออาคารนี้ว่า หอประติมากรรมต้นแบบ Hall Of Sculpture เพื่อเป็นแหล่งเก็บข้อมูล แหล่งศึกษาค้นคว้างานด้านประติมากรรมและศิลปกรรมแก่นักเรียน นักศึกษา ประชาชนที่สนใจ",
        "id": "479855175383212",
        "location": {
            "street": "กรมศิลปากร"
        },
        "name": "หอประติมากรรมต้นแบบ สำนักช่างสิบหมู่ กรมศิลปากร",
        "phone": "02-2225820"
    },
    {
        "about": "เพชรคุณภาพ   ทองมาตรฐาน",
        "id": "129651570417465",
        "name": "ห้างเพชรทองกุลศรีสุวรรณ(ประตูช้างเผือก-นิมมานเหมินทร์)"
    }
]