[
    {
        "id": "149928158436609",
        "location": {
            "city": "Chiang Mai",
            "country": "Thailand",
            "latitude": 18.793229,
            "longitude": 98.9901786,
            "zip": "50200"
        },
        "name": "Nocky nail ประตูช้างเผือก"
    },
    {
        "id": "146041372250159",
        "location": {
            "city": "Bangkok",
            "country": "Thailand",
            "latitude": 14.1572278,
            "longitude": 100.6345367
        },
        "name": "ออฟฟิต ช่าง บ้านราชพฤษประตูน้ำพระอินทร์"
    },
    {
        "id": "140794962746610",
        "location": {
            "city": "Chiang Mai",
            "country": "Thailand",
            "latitude": 18.794641041075,
            "longitude": 98.993425431144,
            "zip": "50200"
        },
        "name": "คลีนิค ประตูช้างเผือก"
    },
    {
        "id": "140583112679939",
        "location": {
            "city": "Chiang Mai",
            "country": "Thailand",
            "latitude": 18.797178589298,
            "longitude": 98.986507908555
        },
        "name": "หมูปิ้งป้าสาคร @ประตูช้างเผือก"
    },
    {
        "id": "139257682949481",
        "location": {
            "latitude": 15.944227970902,
            "longitude": 103.57039063499
        },
        "name": "วัดประตูช้าง จ.ร้อยเอ็ด"
    },
    {
        "id": "131865780279478",
        "location": {
            "city": "Chiang Mai",
            "country": "Thailand",
            "latitude": 18.797137560976,
            "longitude": 98.982743626723,
            "zip": "50200"
        },
        "name": "@ประตูช้างเผือก..บ้านช้าน"
    },
    {
        "id": "160084277657104",
        "location": {
            "city": "Amphoe Muang Prachin Buri",
            "country": "Thailand",
            "latitude": 14.0503,
            "longitude": 101.37
        },
        "name": "โรงงานช่างมณประตูม้วน"
    },
    {
        "id": "104236649907771",
        "location": {
            "city": "Chonburi",
            "country": "Thailand",
            "latitude": 13.36,
            "longitude": 100.98
        },
        "name": "อู่ช่างหนุ่ม ม.เกษตร ประตู3"
    },
    {
        "about": "รับซ่อมเเละติดตั้งประตูรีโมท ด้วยช่างมืออาชีพ ประสบการณ์มากกว่า 10 ปี ",
        "id": "102783693399464",
        "location": {
            "city": "Amphoe Lam Luk Ka",
            "country": "Thailand",
            "latitude": 13.9333,
            "longitude": 100.75,
            "street": "14/85 หมู่ 18 ซ.ศรีสง่า ถ.ลำลูกกา  ต.คูคต",
            "zip": "12130"
        },
        "name": "ช่างประตูรีโมท",
        "phone": "0961829299"
    },
    {
        "id": "1786583938233662",
        "location": {
            "city": "Amphoe Muang Khon Kaen",
            "country": "Thailand",
            "latitude": 16.405720533368,
            "longitude": 102.81434356915
        },
        "name": "กาแฟดอยช้าง. ประตูน้ำขอนแก่น"
    },
    {
        "id": "1698426587050179",
        "location": {
            "city": "Makkasan",
            "country": "Thailand",
            "latitude": 13.7525833,
            "longitude": 100.5443257,
            "street": "ประตูน้ำ"
        },
        "name": "ช่างนพ ประตูน้ำ โมดิฟาย"
    },
    {
        "id": "1438667559717595",
        "location": {
            "city": "ลำพูน",
            "latitude": 18.63634682,
            "longitude": 99.00300598,
            "street": "บ้านล่ามช้าง ประตูป่า"
        },
        "name": "ครัววิไล โต๊ะจีน บ้านล่ามช้าง",
        "phone": "0898384289"
    },
    {
        "id": "1431837957064348",
        "location": {
            "city": "Lamphun",
            "country": "Thailand",
            "latitude": 18.629475,
            "longitude": 99.0002902
        },
        "name": "หน้าวัดล่ามช้าง ต.ประตูป่า"
    },
    {
        "id": "924171914290134",
        "location": {
            "city": "Khonkean",
            "country": "Thailand",
            "latitude": 16.415535099405,
            "longitude": 102.81768411398
        },
        "name": "กาแฟสดดอยช้าง ประตูน้ำขอนแก่น"
    },
    {
        "id": "750495988365544",
        "location": {
            "city": "Amphoe Muang Chiang Mai",
            "country": "Thailand",
            "latitude": 18.79595289,
            "longitude": 98.98572296
        },
        "name": "ประตูช้างเผือก Chiangmai"
    },
    {
        "id": "162184613922986",
        "location": {
            "city": "Chiang Mai",
            "country": "Thailand",
            "latitude": 18.7958151,
            "longitude": 98.9867041,
            "zip": "50200"
        },
        "name": "ป้าภัทราขนมจีน ประตูช้างเผือก"
    },
    {
        "id": "162575143808953",
        "location": {
            "city": "Chiang Mai",
            "country": "Thailand",
            "latitude": 18.79790762963,
            "longitude": 98.982084148148,
            "zip": "50200"
        },
        "name": "สุกี้ไทใหญ่เชื้อสายพม่า ประตูช้างเผือก"
    },
    {
        "id": "163523963799260",
        "location": {
            "city": "Chiang Mai",
            "country": "Thailand",
            "latitude": 18.796193639279,
            "longitude": 98.986536804688,
            "zip": "50200"
        },
        "name": "ข้าวมันไก่แซ๊บ\u0026ข้าวแกงป้าดวล ประตูช้างเผือก"
    },
    {
        "id": "166289173433496",
        "location": {
            "city": "Chiang Mai",
            "country": "Thailand",
            "latitude": 18.797760192945,
            "longitude": 98.986205363093,
            "zip": "50200"
        },
        "name": "ธ.ออมสิน สาขา ประตูช้างเผือก"
    },
    {
        "id": "167909076599785",
        "location": {
            "city": "Chiang Mai",
            "country": "Thailand",
            "latitude": 18.795402315789,
            "longitude": 98.983438631579,
            "zip": "50200"
        },
        "name": "ซุ้มสบาย สาขาประตูช้างเผือก"
    },
    {
        "id": "170489003128054",
        "location": {
            "city": "Chiang Mai",
            "country": "Thailand",
            "latitude": 18.80869,
            "longitude": 98.97778,
            "street": "Siritron Road"
        },
        "name": "สอนขับรถประตูช้างเผือก"
    },
    {
        "id": "174155056008320",
        "location": {
            "city": "Chiang Mai",
            "country": "Thailand",
            "latitude": 18.7995482,
            "longitude": 98.9861188,
            "zip": "50200"
        },
        "name": "แบงค์กรุงเทพ สาขาประตูช้างเผือก เชียงใหม่"
    },
    {
        "id": "177612225602497",
        "location": {
            "city": "Chiang Mai",
            "country": "Thailand",
            "latitude": 18.808442,
            "longitude": 98.982935
        },
        "name": "ข้าวมันไก่แซ้บประตูช้างเผือก55"
    },
    {
        "id": "182727538445419",
        "location": {
            "city": "Hat Yai",
            "country": "Thailand",
            "latitude": 7.04129373,
            "longitude": 100.48050568,
            "zip": "90110"
        },
        "name": "บุญดี การช่าง รับทำประตูบังตาและประตูยืดสเตนเลส",
        "phone": "0819578277"
    },
    {
        "id": "186674314997173",
        "location": {
            "city": "Chantaburi",
            "country": "Thailand",
            "latitude": 12.6,
            "longitude": 102.15
        },
        "name": "คฤหาสน์สุดหรู ประตูเท่าช้าง หน้าต่างเท่าห้อง"
    }
]