[
    {
        "id": "190433977761835",
        "location": {
            "city": "Amphoe Koh Sa-mui",
            "country": "Thailand",
            "latitude": 9.45597786,
            "longitude": 99.94142078
        },
        "name": "ประตูวัดช้าง"
    },
    {
        "id": "191512047623159",
        "location": {
            "city": "Tamot",
            "country": "Thailand",
            "latitude": 7.2791779608689,
            "longitude": 100.1642531911
        },
        "name": "@ประตูช้างเผือก (เชียงใหม่)"
    },
    {
        "id": "191867874323352",
        "location": {
            "city": "Nakhon Si Thammarat",
            "country": "Thailand",
            "latitude": 8.4480227,
            "longitude": 99.9912148
        },
        "name": "บ้านประตูช้าง"
    },
    {
        "id": "195513727301971",
        "location": {
            "city": "Bangkok",
            "country": "Thailand",
            "latitude": 13.715732744908,
            "longitude": 100.51626739102
        },
        "name": "ประตูช้างเผือก"
    },
    {
        "id": "198963086888182",
        "location": {
            "latitude": 8.665574,
            "longitude": 99.904584
        },
        "name": "@ บ้านแม่เฒ่า ศรีลัย เชาวลิต ประตูช้าง ไทยบุรี ^_*"
    },
    {
        "about": "บริการซ่อมไฟฟ้า ประปา งานท่อ และซ่อมเครื่องใช้ไฟฟ้าทั่วไป ",
        "id": "608879332522465",
        "location": {
            "city": "Bangkok",
            "country": "Thailand",
            "latitude": 13.77431,
            "longitude": 100.54686,
            "street": "ดินแดง รัชดา ประตูน้ำ และบริเวณใกล้เคียง",
            "zip": "10400"
        },
        "name": "ช่างประจำบ้าน ไฟฟ้า ประปา งานท่อ และซ่อมเครื่องใชัไฟฟ้าทั่วไป",
        "phone": "037012861"
    },
    {
        "id": "531234606927164",
        "location": {
            "city": "Chiang Mai",
            "country": "Thailand",
            "latitude": 18.794606932621,
            "longitude": 98.98728407667,
            "street": "ประตูช้างเผือก"
        },
        "name": "อ๋องทิพย์รส"
    },
    {
        "about": "ครัวอัจฉรา รับจัดงานเลี้ยงโต๊ะจีน นอกสถานที่บริการแบบมืออาชีพ ",
        "id": "500721876606201",
        "location": {
            "city": "Lamphun",
            "country": "Thailand",
            "latitude": 18.64061875,
            "longitude": 99.000854025,
            "street": "บ้านล่ามช้าง ต.ประตูป่า อ.เมือง จ.ลำพูน",
            "zip": "51000"
        },
        "name": "ครัวอัจฉรา ลำพูน",
        "phone": "0817961275"
    },
    {
        "id": "672982326083524",
        "location": {
            "city": "Nakhon Si Thammarat",
            "country": "Thailand",
            "latitude": 8.4215158,
            "longitude": 99.9621308
        },
        "name": "อาคารประติมากรรม ช่างศิลปนครศรีธรรมราช"
    },
    {
        "about": "รอ รับได้เลย",
        "id": "312724062185610",
        "location": {
            "city": "Bangkok",
            "country": "Thailand",
            "latitude": 13.77431,
            "longitude": 100.54686,
            "street": "ตลาด ประตูน้ำ มาเก็ต (ตรงข้าม ห้างแพทินั่ม)",
            "zip": "10400"
        },
        "name": "ร้าน พล การช่าง   ลับคม ปัตเลี่ยน กรรไกร ซ่อมใดร์ เป่าผม ฯ",
        "phone": "0851906871"
    },
    {
        "id": "374901442676018",
        "location": {
            "city": "Chiang Mai",
            "country": "Thailand",
            "latitude": 18.78966,
            "longitude": 98.9844,
            "street": "ประตูช้างเผือก เชียงใหม่"
        },
        "name": "ปาร์ตี้ บุฟเฟ่ห์ คูเมืองเชียงใหม่"
    },
    {
        "id": "366881366755306",
        "location": {
            "city": "Bangkok",
            "country": "Thailand",
            "latitude": 13.75395,
            "longitude": 100.50224,
            "street": "ดินแดง รัชดา ลาดพร้าว สุทธิสาร เสาวรีย์ ราชเทวี ประตูน้ำ",
            "zip": "10000"
        },
        "name": "ช่างกุญแจดินแดง 087 488 4333",
        "phone": "0874884333"
    },
    {
        "about": "ความอร่อยที่เราให้ด้วยใจ",
        "id": "619234661518301",
        "location": {
            "city": "Chiang Mai",
            "country": "Thailand",
            "latitude": 18.795795287878,
            "longitude": 98.983767258231,
            "street": "ประตูช้างเผือก หน้า บ.ยูเมะพลัส ข้างศูนย์ซัมซุง",
            "zip": "50300"
        },
        "name": "MAFIA Coffee",
        "phone": "092-1785780"
    },
    {
        "about": "ร้านกาแฟสด หอมกรุ่นรสอร่อย เค้กโฮมเมดจากวัตถุดิบคุณภาพดี @อยุธยา",
        "description": "บริการเบเกอรี่ต่างๆ เค้กส้มในตำนาน เค้กบลูเบอรี่ครีมสด โอริโอคุ้กกี้แอนด์ครีมเค้ก ไวท์ชอคโกแลตเค้ก เค้กแครอท ชีสเค้ก homemade. กาแฟสด เอสเพรสโซ คาราเมลแมคเคียโต มิ้นลาเต้ ทอฟฟี่นัทชิโน่ ยินดีต้อนรับทุกท่านค่ะ",
        "emails": [
            "chanikarn_nan@hotmail.com"
        ],
        "general_info": "มีที่จอดรถหน้าร้านและในบ้านด้วยค่ะ",
        "id": "208508049160713",
        "location": {
            "city": "Ayutthaya",
            "country": "Thailand",
            "latitude": 14.361049502195,
            "longitude": 100.57013072742,
            "street": "ถนนจักรพรรดิ สาย1ต.ประตูชัย",
            "zip": "13000"
        },
        "name": "ช้างแป๊นเบเกอรี่",
        "phone": "089-114-7119. 085-554-5407"
    },
    {
        "about": "ขายโจ๊ก ข้าวต้ม มาม่า ราคาโดนใจ!!",
        "id": "385685554932814",
        "location": {
            "city": "Muang Chieng Mai",
            "country": "Thailand",
            "latitude": 18.806712960234,
            "longitude": 98.985090312195,
            "street": "ตรงข้ามประตูคณะวิทยาการจัดการ ม.ราชภัฏเชียงใหม่ ถ.ช้างเผือก ก่อนถึงร้านสมุดลานนา"
        },
        "name": "โจ๊กมาเฟีย Chiangmai"
    },
    {
        "id": "211851732192879",
        "location": {
            "city": "Chiang Mai",
            "country": "Thailand",
            "latitude": 18.807792174658,
            "longitude": 98.984992217268,
            "street": "อาคาร ปากซอยเจดีย์ปล่อง ใกล้ประตูทางเข้าราชภัฏเชียงใหม่เดิม ถนนโชตนา ตำบลช้างเผือก",
            "zip": "50300"
        },
        "name": "ผัดไทยทักษิณ",
        "phone": "086-1185395"
    },
    {
        "id": "130312100645272",
        "location": {
            "city": "Chiang Mai",
            "country": "Thailand",
            "latitude": 18.7903,
            "longitude": 98.9817,
            "street": "ประตูเชียงใหม่",
            "zip": "50100"
        },
        "name": "ช่างกุญแจเชียงใหม่ ช่างเอสกุญแจ",
        "phone": "0992706711"
    },
    {
        "id": "231198217021472",
        "location": {
            "city": "Chiang Mai",
            "country": "Thailand",
            "latitude": 18.798739131769,
            "longitude": 98.986948054012,
            "street": "ประตูช้างเผือก",
            "zip": "50200"
        },
        "name": "รพ.ช้างเผือก"
    },
    {
        "id": "139693706174669",
        "location": {
            "city": "Chantaburi",
            "country": "Thailand",
            "latitude": 12.63073,
            "longitude": 101.9822,
            "street": "ได้ทามการมาติดตั้งประตูม้วน ร้านช่างเชน",
            "zip": "22120"
        },
        "name": "ปากน้ำแขมหนู",
        "phone": "0839836816"
    },
    {
        "about": "Food and Drink\n\nSalad,Steak,Fruit Shake,Some drink\n\nChaing mai",
        "id": "1515865015372046",
        "location": {
            "city": "Chiang Mai",
            "country": "Thailand",
            "latitude": 18.794697396667,
            "longitude": 98.98714073,
            "street": "ประตูช้างเผือก ตรงข้ามก๋วยเตี๋ยวอ๋องทิพย์รส",
            "zip": "50200"
        },
        "name": "Churn เชิญ"
    },
    {
        "id": "280691901951804",
        "location": {
            "city": "Suphan Buri",
            "country": "Thailand",
            "latitude": 14.475870184869,
            "longitude": 100.11476083513,
            "street": "ถนน ขุนช้าง ท่าพี่เลียง ใกล้วัดประตูสาร",
            "zip": "72000"
        },
        "name": "กะทะทองย่างเกาหลี",
        "phone": "0800870821"
    },
    {
        "id": "272221722800727",
        "location": {
            "city": "Chiang Mai",
            "country": "Thailand",
            "latitude": 18.795385955588,
            "longitude": 98.987063888273,
            "street": "ประตูช้างเผือก",
            "zip": "50200"
        },
        "name": "North Gate,, JaZZ  co-op !!"
    },
    {
        "id": "437942356318904",
        "location": {
            "city": "Bangkok",
            "country": "Thailand",
            "latitude": 13.75395,
            "longitude": 100.50224,
            "street": "เพลินจิต ชิดลม บางรัก สยาม ราชเทวี ประตูน้ำ สุขุมวิท สีลม สาทร พญาไท รางน้ำ สี่พระยา",
            "zip": "10000"
        },
        "name": "ช่างกุญแจเพลินจิต ชิดลม 083 1111 938",
        "phone": "0831111938"
    },
    {
        "id": "256533357802738",
        "location": {
            "city": "Muang Lamphun",
            "country": "Thailand",
            "latitude": 18.6300392,
            "longitude": 98.9965515,
            "street": "บ้านล่ามช้าง ซอย 4 ตำบลประตูป่า",
            "zip": "51000"
        },
        "name": "ครัวบุญมา (Krua Bunma) โต๊ะจีนนอกสถานที่",
        "phone": "0-5353-1376, 081-7657841, 085-7073474"
    },
    {
        "about": "ขายรถมือสอง อะไหล่มือสอง ซ่อมมอเตอร์ไซด์",
        "id": "211312542412862",
        "location": {
            "city": "Amphoe Muang Pathum Thani",
            "country": "Thailand",
            "latitude": 14.0201,
            "longitude": 100.52357,
            "street": "ซอยประตูน้ำเชียงราก, บางกระดี",
            "zip": "120000"
        },
        "name": "ช่างอาร์ม เจริญยนต์",
        "phone": "086-3442353"
    }
]