[
    {
        "id": "261219680742582",
        "location": {
            "city": "Chiang Mai",
            "country": "Thailand",
            "latitude": 18.795480458889,
            "longitude": 98.986355134444
        },
        "name": "ประตูช้างเผือก แห่งศรีนครเชียงใหม่มหานคร"
    },
    {
        "id": "331917313578569",
        "location": {
            "city": "Chiang Mai",
            "country": "Thailand",
            "latitude": 18.795693995216,
            "longitude": 98.984857174929
        },
        "name": "ประตูช้างเผือก คูเมืองเชียงใหม่"
    },
    {
        "id": "248687221839687",
        "location": {
            "city": "Chiang Mai",
            "country": "Thailand",
            "latitude": 18.795797573086,
            "longitude": 98.98558914172,
            "street": "ตลาดช้างเผือก (ตอนกลางคืน)",
            "zip": "50200"
        },
        "name": "ข้าวขาหมูคาวบอย ประตูช้างเผือก"
    },
    {
        "id": "205055099513636",
        "location": {
            "city": "Chiang Mai",
            "country": "Thailand",
            "latitude": 18.797639596075,
            "longitude": 98.986142778287,
            "zip": "50200"
        },
        "name": "ธนาคารออมสินสาขาประตูช้างเผือก"
    },
    {
        "id": "347745278634516",
        "location": {
            "city": "Chiang Mai",
            "country": "Thailand",
            "latitude": 18.805407279841,
            "longitude": 98.985303350911
        },
        "name": "กาดประตูช้างเผือก"
    },
    {
        "id": "453510421394193",
        "location": {
            "city": "Chiang Mai",
            "country": "Thailand",
            "latitude": 18.795554166761,
            "longitude": 98.986393770946,
            "zip": "50200"
        },
        "name": "ข่วงประตูช้างเผือก"
    },
    {
        "id": "297857206994443",
        "location": {
            "city": "Chiang Mai",
            "country": "Thailand",
            "latitude": 18.794787422723,
            "longitude": 98.987100546873,
            "zip": "50200"
        },
        "name": "ืโรตีกู@ประตูช้างเผือก"
    },
    {
        "id": "538171312929026",
        "location": {
            "city": "Suphan Buri",
            "country": "Thailand",
            "latitude": 14.476417534102,
            "longitude": 100.11495133787,
            "zip": "72000"
        },
        "name": "ร้านช่างพีประตูสาร ถ.ขุนช้าง ท่าพี่เลี้ยง"
    },
    {
        "id": "150268311705914",
        "location": {
            "city": "Chiang Mai",
            "country": "Thailand",
            "latitude": 18.801546832217,
            "longitude": 98.985640626087,
            "zip": "50200"
        },
        "name": "@ ไทยพาณิชย์ ประตูช้างเผือก"
    },
    {
        "id": "148101978656797",
        "location": {
            "city": "Chiang Mai",
            "country": "Thailand",
            "latitude": 18.7972332,
            "longitude": 98.9881966,
            "zip": "50200"
        },
        "name": "เซเว่น ประตูช้างเผือก"
    },
    {
        "id": "1398804320387357",
        "location": {
            "city": "Tha Maka",
            "country": "Thailand",
            "latitude": 13.874191492809,
            "longitude": 99.709798274654
        },
        "name": "ร้านช่าง ประตูน้ำ เขาช่อง"
    },
    {
        "id": "179083678809576",
        "location": {
            "city": "Chiang Mai",
            "country": "Thailand",
            "latitude": 18.581483983194,
            "longitude": 99.008007917144,
            "zip": "51000"
        },
        "name": "วัดประตูช้างสี"
    },
    {
        "id": "304537019676994",
        "location": {
            "city": "Chiang Mai",
            "country": "Thailand",
            "latitude": 18.795645480294,
            "longitude": 98.988448928668,
            "zip": "50200"
        },
        "name": "คูเมือง ประตูช้างเผือก"
    },
    {
        "id": "645010145642704",
        "location": {
            "city": "Amphoe Muang Khon Kaen",
            "country": "Thailand",
            "latitude": 16.403217175714,
            "longitude": 102.81327223429,
            "street": "อาคาร6ปรัตูน้ำขอนแก่น"
        },
        "name": "ร้านกาแฟดอยช้างประตูน้ำขอนแก่น"
    },
    {
        "id": "1447875368807429",
        "location": {
            "city": "Chiang Mai",
            "country": "Thailand",
            "latitude": 18.8907072,
            "longitude": 99.0165037
        },
        "name": "หมูกระทะ Abc ประตูช้างเผือก"
    },
    {
        "id": "410559728956880",
        "location": {
            "city": "Chiang Mai",
            "country": "Thailand",
            "latitude": 18.795349873636,
            "longitude": 98.986545509106,
            "zip": "50200"
        },
        "name": "นิรันดร์รัตน์ ประตูช้างเผือก"
    },
    {
        "id": "284111454945892",
        "location": {
            "latitude": 18.63831801,
            "longitude": 99.00353736
        },
        "name": "วัดล่ามช้าง  ประตูป่า"
    },
    {
        "description": "สอนตัดเสื้อ เสริมสวย และการออกแบบ ",
        "id": "1379859305604616",
        "location": {
            "city": "Chiang Mai",
            "country": "Thailand",
            "latitude": 18.77684595,
            "longitude": 98.98762744,
            "street": "221 ถ.พระปกเกล้า ต.ตรีภูมิ อ.เมือง",
            "zip": "50200"
        },
        "name": "โรงเรียนสอนตัดเสื้อเสริมสวย นิรันดร์รัตน์ ประตูช้างเผือก"
    },
    {
        "id": "166645810142159",
        "location": {
            "city": "Ban Klong Klung",
            "country": "Thailand",
            "latitude": 16.222409566667,
            "longitude": 99.728762233333
        },
        "name": "ช่างศักดิ์ประตูเหล็ก"
    },
    {
        "id": "767873103281057",
        "location": {
            "city": "Lamphun",
            "country": "Thailand",
            "latitude": 18.63812008,
            "longitude": 99.00387358
        },
        "name": "บ้านล่ามช้าง ต.ประตูป่า จ.ลำพูน"
    },
    {
        "id": "289634117744274",
        "location": {
            "city": "Chiang Mai",
            "country": "Thailand",
            "latitude": 18.798014333333,
            "longitude": 98.987201,
            "zip": "50200"
        },
        "name": "บ้านประตูช้างเผือก"
    },
    {
        "id": "107326766038431",
        "location": {
            "city": "Chiang Mai",
            "country": "Thailand",
            "latitude": 18.795864938181,
            "longitude": 98.985335726392,
            "zip": "50200"
        },
        "name": "อเมริกัน มอเตอร์ [ศูนย์ฟอร์ด ประตูช้างเผือก]"
    },
    {
        "id": "641908425879015",
        "location": {
            "city": "Muang Loei",
            "country": "Thailand",
            "latitude": 17.491942254894,
            "longitude": 101.71474838211,
            "zip": "42000"
        },
        "name": "ร้านกาแฟดอยช้างประตู 2 เลยพิทยาคม"
    },
    {
        "id": "305202746265728",
        "location": {
            "city": "Chiang Mai",
            "country": "Thailand",
            "latitude": 18.785687864308,
            "longitude": 98.993428511684,
            "zip": "50200"
        },
        "name": "ประตูท่าแพร ช้างคลาน เชียงใหม่"
    },
    {
        "id": "214999441966697",
        "location": {
            "city": "Muang Sara Buri",
            "country": "Thailand",
            "latitude": 14.526840922351,
            "longitude": 100.91576838587,
            "street": "ประตูทอง",
            "zip": "18000"
        },
        "name": "โรงกลึง BMK ประตูทอง(ช่างเบลล์) สระบุรี",
        "phone": "0852737260"
    }
]