[
    {
        "id": "1434848196737872",
        "location": {
            "city": "Chamai",
            "country": "Thailand",
            "latitude": 8.1718734232785,
            "longitude": 99.652216136548
        },
        "name": "บ้านแสนสวย มีประตูด้วย ช่างงามน่าดู"
    },
    {
        "id": "1433237550236060",
        "location": {
            "city": "Chiang Mai",
            "country": "Thailand",
            "latitude": 18.78978729,
            "longitude": 99.02361135
        },
        "name": "โรงเรียนสอนขับรถยนต์ประตูช้างเผือก"
    },
    {
        "id": "840026576033369",
        "location": {
            "city": "Amphoe Phra Nakhon Si Ayutthaya",
            "country": "Thailand",
            "latitude": 14.3302632,
            "longitude": 100.5477088
        },
        "name": "ร้านช่างตุ้มหน้าโรงเรียนประตูชัย"
    },
    {
        "id": "878270402230755",
        "location": {
            "city": "กระบี่",
            "latitude": 8.1227432101996,
            "longitude": 98.869814949025
        },
        "name": "จุดชมวิวสู่ประตูอ่างนาง ที่ควนหมอแค่ๆบ้านเขาหัวช้าง"
    },
    {
        "id": "847287325342918",
        "location": {
            "city": "Chiang Mai",
            "country": "Thailand",
            "latitude": 18.7999642,
            "longitude": 98.9830056
        },
        "name": "ประตูช้างเผือก+ประตูท่าแพ"
    },
    {
        "id": "826414984074815",
        "location": {
            "city": "Chiang Mai",
            "country": "Thailand",
            "latitude": 18.81154238,
            "longitude": 98.98430339
        },
        "name": "ธนาคารออมสิน สาขาประตูช้างเผือก"
    },
    {
        "about": "ร้านซ่อมเครื่องตัดหญ้า เครื่องยนต์เล็ก เครื่องสกู๊ตเตอร์ ลับมีด กรรไกร  มีดพวงกรีนกอล์ฟ ",
        "description": "ให้บริการซ่อมเครื่องตัดหญ้าและเครื่องยนต์เล็กทุกชนิด เครื่องตัดกรีนกอล์ฟ เครื่องพ่นหมอกฆ่ายุง เครื่องสกู๊ดเตอร์ เลื่อยยนต์ ลับมีด ลับกรรไกรงานสวน กรรไกรตัดแต่งกิ่ง",
        "id": "1533675233545657",
        "location": {
            "city": "Bangkok",
            "country": "Thailand",
            "latitude": 13.89633,
            "longitude": 100.63934,
            "street": "ตลาดประตูกรุงเทพพลาซ่า ถนนพหลโยธิน 54/2(กม.25) แขวงสายไหม เขตสายไหม",
            "zip": "10220"
        },
        "name": "คลีนิคเครื่องตัดหญ้า จ.การช่าง",
        "phone": "0809377750"
    },
    {
        "id": "1550908781798076",
        "location": {
            "city": "Chiang Mai",
            "country": "Thailand",
            "latitude": 18.78966,
            "longitude": 98.9844,
            "street": "ประตูช้างเผือก"
        },
        "name": "กาแฟมาเฟีย หน้า บ.ยูเมะพลัส"
    },
    {
        "id": "244353212415010",
        "location": {
            "city": "Phayao",
            "country": "Thailand",
            "latitude": 19.19155,
            "longitude": 99.87996,
            "street": "ถนน รอบเวียงประตูกลอง"
        },
        "name": "ไทยเจริญการช่าง"
    },
    {
        "id": "371098919617598",
        "location": {
            "city": "Chiang Mai",
            "country": "Thailand",
            "latitude": 18.805630104661,
            "longitude": 98.977282610422,
            "zip": "50300"
        },
        "name": "ประตูช้างเผือก~@ Chiang Mai~"
    },
    {
        "id": "159646220854938",
        "location": {
            "city": "Chiang Mai",
            "country": "Thailand",
            "latitude": 18.788039148745,
            "longitude": 98.994337038836,
            "street": "398 ถ.ท่าแพ ต.ช้างม่อย อ.เมือง จ.เชียงใหม่",
            "zip": "50300"
        },
        "name": "โรงแรมรุ่งเรือง ประตูท่าแพ"
    },
    {
        "id": "424910320864046",
        "location": {
            "city": "Chiang Mai",
            "country": "Thailand",
            "latitude": 18.795821263333,
            "longitude": 98.981593223333,
            "zip": "50200"
        },
        "name": "S\u0026P ประตูช้างเผือก จ.เชียงใหม่"
    },
    {
        "id": "262601950448378",
        "location": {
            "city": "Chiang Mai",
            "country": "Thailand",
            "latitude": 18.796771327051,
            "longitude": 98.986341403889,
            "zip": "50200"
        },
        "name": "ประตูช้างเผือก เวียงเจียงใหม่."
    },
    {
        "id": "360287337424234",
        "location": {
            "city": "Nakhon Si Thammarat",
            "country": "Thailand",
            "latitude": 8.4141364211169,
            "longitude": 99.975488048631,
            "street": "Thanon Pattanakarn-khukhwang",
            "zip": "80000"
        },
        "name": "เกียการช่างประตูม้วน",
        "phone": "075321884"
    },
    {
        "id": "1416531308641183",
        "location": {
            "city": "Chiang Mai",
            "country": "Thailand",
            "latitude": 18.7983407,
            "longitude": 98.9859704
        },
        "name": "ธนาคารออมสิน สาขาประตูช้างเผือก",
        "phone": "053212409"
    },
    {
        "id": "304961306285095",
        "location": {
            "city": "Phitsanulok",
            "country": "Thailand",
            "latitude": 16.810453771629,
            "longitude": 100.30151054272,
            "zip": "65000"
        },
        "name": "ค่ายเอกาทศรฐ ประตูหลัง ( โคกช้าง )"
    },
    {
        "id": "688425861199524",
        "location": {
            "city": "Chiang Mai",
            "country": "Thailand",
            "latitude": 18.79612491611,
            "longitude": 98.985744970466,
            "street": "ช้างเผือก",
            "zip": "50200"
        },
        "name": "ร้านหมี่ผีคุณแม่ ประตูช้างเผือก"
    },
    {
        "id": "412659532219359",
        "location": {
            "city": "Amphoe Muang Chiang Mai",
            "country": "Thailand",
            "latitude": 18.795849108155,
            "longitude": 98.986640302557
        },
        "name": "ตลาดโต้รุ่งประตูช้างเผือก"
    },
    {
        "id": "1468747323343772",
        "location": {
            "city": "นครศรีธรรมราช",
            "latitude": 8.6514883,
            "longitude": 99.9089874,
            "street": "ท่าศาลา"
        },
        "name": "บ้านประตูช้างตก",
        "phone": "0873852737"
    },
    {
        "id": "1453681698266308",
        "location": {
            "city": "Muang Nan",
            "country": "Thailand",
            "latitude": 18.792130780125,
            "longitude": 100.78096365126
        },
        "name": "สี่แยกช้างเผือกเลี้ยวซ้ายไปท่าวังผา เลี้ยวขวาไปประตูป่อง"
    },
    {
        "id": "1452795798316622",
        "location": {
            "city": "Chiang Mai",
            "country": "Thailand",
            "latitude": 18.795594416069,
            "longitude": 98.986806059429
        },
        "name": "North Gate ประตูช้างเผือก"
    },
    {
        "id": "1451587818471146",
        "location": {
            "city": "Muang Chiang Mai",
            "country": "Thailand",
            "latitude": 18.7903,
            "longitude": 98.9817,
            "street": "169/1-3 ถนนโชตนา ต.ช้างเผือก อ.เมือง เชียงใหม่ 50000"
        },
        "name": "ธ.ไทยพาณิชย์ สาขาประตูช้างเผืก"
    },
    {
        "id": "1470875776560068",
        "location": {
            "city": "ท่าศาลา",
            "latitude": 8.6633677,
            "longitude": 99.9048515
        },
        "name": "บ้านประตูช้างตก ม. 3"
    },
    {
        "id": "1657850591127616",
        "location": {
            "city": "Bangkok",
            "country": "Thailand",
            "latitude": 13.92771,
            "longitude": 100.63048
        },
        "name": "ร้านช่างยนต์ไม้เก่าประตูกรุงเทพ"
    },
    {
        "id": "1639557452948113",
        "location": {
            "city": "Chiang Mai",
            "country": "Thailand",
            "latitude": 18.7903,
            "longitude": 98.9817
        },
        "name": "ธนาคารกรุงเทพ สำนักธุรกิจ ประตูช้างเผือก"
    }
]