[
    {
        "about": "Department of fineart sculpture Thailand",
        "id": "604785186276068",
        "location": {
            "city": "นครปฐม",
            "street": "ศาลายา",
            "zip": "73170"
        },
        "name": "ประติมากรรม สำนักช่างสิบหมู่ กรมศิลปากร"
    },
    {
        "about": "รับปั้น-หล่อ แกะโฟม เพ้นสี ตกแต่งฉากเวที ตามออเดอร์\n",
        "id": "207078542786072",
        "location": {
            "city": "กรุงเทพฯ ",
            "street": "เคหะรามคำแหง มีนบุรี",
            "zip": "10510"
        },
        "name": "ช่างปั้น รับงานประติมากรรมพุทธศิลป์ไทยสากล",
        "phone": "0897509519"
    },
    {
        "id": "771594132956543",
        "location": {
            "city": "Khon Kaen",
            "country": "Thailand",
            "zip": "40110"
        },
        "name": "ช่างปูปาร์เก้ขัดพื้นหน้าต่างประตูไม้",
        "phone": "0878058522"
    },
    {
        "about": "ทุกอย่างที่เกี่ยวกับประตูรถยนต์ และ ระบบล๊อค",
        "description": "รับซ่อม  กลอนประตูรถยนต์ กระจกไฟฟ้า/มือหมุน กุญแจ ยางขอบประตู เซ็นทรันล๊อค \nทุกอย่างที่เกี่ยวกับประตูรถยนต์ และ ระบบล๊อค",
        "emails": [
            "ruksiam_11@hotmail.com"
        ],
        "id": "1376954222621600",
        "location": {
            "city": "Amphoe Kabin Buri",
            "country": "Thailand",
            "latitude": 13.9772359,
            "longitude": 101.7486954,
            "street": "39/3 ม.13 ต.เมืองเก่า อ.กบินทร์บุรี จ.ปราจีนบุรี",
            "zip": "25240"
        },
        "name": "ดี อรัญการช่าง - กลอนประตูรถยนต์ กระจกไฟฟ้า",
        "phone": "0831135997"
    },
    {
        "about": "ช่างกุญแจภูเก็ต 089-6481818 เปิดประตูบ้าน รถ ตู้เซฟ กุญแจรีโมทฝังซิปราคาถูก",
        "description": "ช่างกุญแจกะตะ ภูเก็ต  089-648-1818 รับทำกุญแจทุกชนิด กุญแจรถ กุญแจบ้าน กุญแจสำนักงาน       ตู้เซฟ  บริการทั้งในและนอกสถานที่ เปิดรถ เปิดบ้าน กุญแจรีโมทฝังซิป Immobilizer โตโยต้า ฮอนด้า      นิสสัน ฟอร์ด มิตซู และยี่ห้ออื่นๆ      ค่าบริการทำดอกกุญแจรีโมทฝังซิปเราทำได้ถูกกว่าที่ท่านทำที่ศูนย์บริการ\n",
        "id": "529151633809490",
        "location": {
            "city": "Phuket",
            "country": "Thailand",
            "latitude": 7.8237775100878,
            "longitude": 98.302246892452,
            "street": "161 ถนนปฎัก ตำบลกะรน อำเภอเมือง",
            "zip": "83100"
        },
        "name": "ช่างกุญแจภูเก็ต 089-6481818 เปิดประตูบ้าน รถ ตู้เซฟ กุญแจรีโมทฝังซิปราคาถูก",
        "phone": "089-648-1818"
    },
    {
        "about": "ช่างไม้ งานไม้ รับทำวงกบ ประตูหน้าต่าง บริการงานไม้ครบวงจร",
        "id": "1420597158244477",
        "location": {
            "city": "Amphoe Hang Chat",
            "country": "Thailand",
            "latitude": 18.3264,
            "longitude": 99.3478,
            "street": "ห้างฉัตร",
            "zip": "52190"
        },
        "name": "ช่างไม้ลำปาง รับทำวงกบประตูหน้าต่าง",
        "phone": "0862533217"
    },
    {
        "id": "384832225038051",
        "location": {
            "city": "Bangkok",
            "country": "Thailand",
            "latitude": 13.6696865,
            "longitude": 100.4108403,
            "street": "3/201พฤกษาวิลล่า53/2ซ.สะแกงาม14แขวงแสมดำ เตบางขุนเทียน",
            "zip": "10150"
        },
        "name": "ช่างอั๋น ซ่อมเครื่องดนตรี พันธ์ุทิพย์ประตูน้ำ",
        "phone": "0907900197"
    },
    {
        "about": "ช่างเปิดตู้เซฟ ทั่วไทยโทร0895024977เปิดประตูรถยนต์ ",
        "id": "184430768432510",
        "location": {
            "city": "Bangkok",
            "country": "Thailand",
            "latitude": 13.81103,
            "longitude": 100.01429,
            "street": "นครปฐม",
            "zip": "73000"
        },
        "name": "ช่างเปิดตู้เซฟ  เปิดประตูรถยนต์ โทร0895024977 กำแพงแสน นครชัยศรี กระทุ่มแบน",
        "phone": "0895024977"
    },
    {
        "id": "204030826348853",
        "location": {
            "city": "Bangkok",
            "country": "Thailand",
            "latitude": 13.7710276,
            "longitude": 100.5400085,
            "street": "พหลโยธิน 48 (ตรงข้ามศูนย์ Honda วงเวียนบางเขน)",
            "zip": "10220"
        },
        "name": "ก.การช่าง รับทำงานประตู/หน้าต่าง ตามแบบและสำเร็จรูป",
        "phone": "02-521-2845"
    },
    {
        "id": "1461059104122844",
        "location": {
            "city": "Bangkok",
            "country": "Thailand",
            "latitude": 13.07332,
            "longitude": 99.94521,
            "street": "135 หมุ่ 2 ช่องสะเเก",
            "zip": "76000"
        },
        "name": "ช่างดำ รับเหมาะ เติมต่อบ้าน ช่างโกน ตามวัด สุ่มประตู หน้าต่าง",
        "phone": "0822964599"
    },
    {
        "about": "ช่างติ๊กกุญแจโทร0895024977รถยนต์ฝังชิฟ-รีโหมท-เปิดตู้เซฟ เปิดประตูรถยนต์ มืออาชีพ\n\n",
        "description": "ช่างกุญแจเปิดรถ เปิดตู้เซฟมืออาชีพโทร0895024977บริการพัทยาใต้ พัทยาเหนือ พัทยากลางหาดจอมเทียนบ้านอำเภอ สัตหีบหาดจอมเทียนบ้านฉางเขาตะโล บางแสนบ่อวินโลงโป๊ะเขาสามมุกชลบุรีศรีราชาเขาน้อยนครปฐมบางเลนกำแพงแสนห้วยพลูบางพระ ท่ามะกา บ้านแพ้ว ดอนยายหอมกระทุ่มแบนตลาดน้ำ ดอนหวายสามพรานนครชัยศรีท่าเรือ ท่าล้อท่ามะกา ท่าผากาญจนบุรี ราชบุรี โพธารามบ้านโป่ง หนองโพ บางแพดำเนิน บ่อตะกั่ว ท่าตำหนัก อ้อมน้อย อ้อมใหญ่ ท่าตำหนักสมุทรสาครสมุทรสงครามตลาดอัมพวาหุ่นขี้ผึ้งพุทธมณฑลสาย1สาย2สาย3สาย4สาย5สาย6สาย7บางปิ้งดอนตูมสามง่ามสวนผึ้งโพธารามหนองโพบ้านบึงฟามจระเข้สวนเสือสวนนกสวนนงนุซฟามช้างตลาดนำ้โคกพระบ่อตะกั่วธรรมศาลาท่าตำหนักสนามไทยแลนเซอกิตสุพรรณบุรีกาญจนบุรีสมุทรสงครามสมุทรสาครโพหักบ้านแพ้วอ้อมน้อยวัดไร่ขิงสวนส้มนครปฐมปากท่อทั่วปริมณฑล\n\n",
        "id": "826114320801628",
        "name": "ช่างกุญแจเปิดประตูรถยนต์พัทยา หนองปรือ บางละมุงโทร0895024977มืออาชีพ",
        "phone": "0895024977"
    },
    {
        "about": "ซ่อมกระจกไฟฟ้า - รีโมทกันขโมย รถยนต์  - กุญแจฝังชิพ immobilizer  - ก๊อปปี้รีโมทรถ - รีโมทบ้าน",
        "description": "รับติดตั้งกระจกไฟฟ้า    รถยนต์  ทุกรุ่น\nรับติดตั้งรีโมทกันขโมย รถยนต์  ทุกรุ่น\nซ่อมกลอนประตูรถยนต์ \nติดตั้ง เซ็นเซอร์ถอยหลัง \nสลิงรางยกกระจกไฟฟ้า \nมอเตอร์กระจไฟฟ้ารถยนต์ ญี่ปุ่น ยุโรบ เกาหลี \nมือเปิด นอก - ใน \nสวิทกระจกไฟฟ้ารถยนต์ \nซ่อมกระจกมองข้างพับ   ติดตั้ง กระจกมองข้างพับ ออโต้ เวลาล็อครถ \nอัพเกตรีโมทกันขโมย เพิ่มสัญญาณเสียง\nมอเตอร์เซ็นทรัลล็อค ",
        "emails": [
            "mk_powerlock_@hotmail.com"
        ],
        "id": "510301099071800",
        "location": {
            "city": "Rangsit",
            "country": "Thailand",
            "latitude": 13.989422771847,
            "longitude": 100.63834276282,
            "street": "ถนน รังสิต - นครนายก 27",
            "zip": "12130"
        },
        "name": "ร้านmk ออยส์ เซอร์วิส กระจกไฟฟ้ารถยนต์ กลอนประตู รีโมทกันขโมย  ช่าง กล้า",
        "phone": "0851216376"
    },
    {
        "about": "บทกลอน คำคม ความคิด การใช้ชีวิต และคุณธรรม",
        "description": "เผยแพร่ผลงานที่อาจจะเป็นประโยชน์ออกสู่สาธารณะ",
        "emails": [
            "rutandee@hotmail.com"
        ],
        "id": "528146143879552",
        "name": "Way Rutan ( ช่างซ่อมประตู เวย์ รู้ทัน )",
        "phone": "-"
    },
    {
        "about": "\nช่างติ๊กกุญแจโทร0895024977รถยนต์ฝังชิฟ-รีโหมท-เปิดตู้เซฟ เปิดประตูรถยนต์ มืออาชีพ\n",
        "description": "ช่างกุญแจเปิดรถ เปิดตู้เซฟมืออาชีพโทร0895024977บริการพัทยาใต้ พัทยาเหนือ พัทยากลางหาดจอมเทียนบ้านอำเภอ สัตหีบหาดจอมเทียนบ้านฉางเขาตะโล บางแสนบ่อวินโลงโป๊ะเขาสามมุกชลบุรีศรีราชาเขาน้อยนครปฐมบางเลนกำแพงแสนห้วยพลูบางพระ ท่ามะกา บ้านแพ้ว ดอนยายหอมกระทุ่มแบนตลาดน้ำ ดอนหวายสามพรานนครชัยศรีท่าเรือ ท่าล้อท่ามะกา ท่าผากาญจนบุรี ราชบุรี โพธารามบ้านโป่ง หนองโพ บางแพดำเนิน บ่อตะกั่ว ท่าตำหนัก อ้อมน้อย อ้อมใหญ่ ท่าตำหนักสมุทรสาครสมุทรสงครามตลาดอัมพวาหุ่นขี้ผึ้งพุทธมณฑลสาย1สาย2สาย3สาย4สาย5สาย6สาย7บางปิ้งดอนตูมสามง่ามสวนผึ้งโพธารามหนองโพบ้านบึงฟามจระเข้สวนเสือสวนนกสวนนงนุซฟามช้างตลาดนำ้โคกพระบ่อตะกั่วธรรมศาลาท่าตำหนักสนามไทยแลนเซอกิตสุพรรณบุรีกาญจนบุรีสมุทรสงครามสมุทรสาครโพหักบ้านแพ้วอ้อมน้อยวัดไร่ขิงสวนส้มนครปฐมปากท่อทั่วปริมณฑล\n\n",
        "id": "910670488977852",
        "location": {
            "street": "565/2หมู่10ถ.พัทยาใต้ต.หนองแรือ"
        },
        "name": "ช่างทำกุญแจบางแสนโทร.0895024977 เปิดประตูรถยนต์-บ้าน-ตู้เซฟ",
        "phone": "0895024977"
    },
    {
        "about": "ช่างสะเดาะกุญแจตู้เซฟ, รับเปิดตู้เซฟทุกยี่ห้อ, รับซ่อมตู้เซฟทุกชนิด,",
        "description": "\t\nลืมกุญแจตู้เซฟ  ดอกกุญแจหาย - ลืมรหัสตู้เซฟ มีรหัสเปิดไม่ออก - ดอกกุญแจหักคา(รับเปิดตู้เซฟทั่วราชอณาจักรไทย)\n\n",
        "general_info": "รับเปิดตู้เซฟ รับทำกุญแจตู้เซฟ รับซ่อมตู้เซฟ,รับเปิดระบบล๊อค,รับแก้ไขเปลี่ยนแปลงรหัสเซฟ, รับติดตั้งกุญแจตู้เซฟ ,แนะนำวิธีตั้งรหัสเซฟ, รับเปิดรับทำกุญแจเซฟทุยี่ห้อ",
        "id": "272678986089374",
        "name": "รับเปิดตู้เซฟ 085-7826622 ช่างตู้เซฟ รับเปิดประตูนิรภัย สะเดาะกุญแจตู้เซฟ"
    },
    {
        "about": "ช่างกุญแจสามพรานนครชัยศรีโทร0895024977\n\n",
        "description": "ช่างกุญแจเปิดรถ เปิดตู้เซฟมืออาชีพโทร0895024977บริการพัทยาใต้ พัทยาเหนือ พัทยากลางหาดจอมเทียนบ้านอำเภอ สัตหีบหาดจอมเทียนบ้านฉางเขาตะโล บางแสนบ่อวินโลงโป๊ะเขาสามมุกชลบุรีศรีราชาเขาน้อยนครปฐมบางเลนกำแพงแสนห้วยพลูบางพระ ท่ามะกา บ้านแพ้ว ดอนยายหอมกระทุ่มแบนตลาดน้ำ ดอนหวายสามพรานนครชัยศรีท่าเรือ ท่าล้อท่ามะกา ท่าผากาญจนบุรี ราชบุรี โพธารามบ้านโป่ง หนองโพ บางแพดำเนิน บ่อตะกั่ว ท่าตำหนัก อ้อมน้อย อ้อมใหญ่ ท่าตำหนักสมุทรสาครสมุทรสงครามตลาดอัมพวาหุ่นขี้ผึ้งพุทธมณฑลสาย1สาย2สาย3สาย4สาย5สาย6สาย7บางปิ้งดอนตูมสามง่ามสวนผึ้งโพธารามหนองโพบ้านบึงฟามจระเข้สวนเสือสวนนกสวนนงนุซฟามช้างตลาดนำ้โคกพระบ่อตะกั่วธรรมศาลาท่าตำหนักสนามไทยแลนเซอกิตสุพรรณบุรีกาญจนบุรีสมุทรสงครามสมุทรสาครโพหักบ้านแพ้วอ้อมน้อยวัดไร่ขิงสวนส้มนครปฐมปากท่อทั่วปริมณฑล\n\n",
        "id": "1602412893378116",
        "name": "ช่างกุญแจสามพรานนครชัยศรีโทร0895024977เปิดตู้เซฟ เปิดประตูรถยนต์ มืออาชีพ",
        "phone": "0895024977"
    },
    {
        "id": "332221390308343",
        "name": "ช่างทำกุญแจ เปิดประตูรถยนต์ เปิดตู้เซฟ พัทยา โทร0895024977ทางเข้าพัทยาใต้"
    },
    {
        "id": "966332160045627",
        "name": "ช่างกุญแจดอนตูม สามง่าม บางเลนโทร0895024977เปิดประตูรถกุญแจหาย เปิดตู้เซฟ"
    },
    {
        "about": "ช่างกุญแจสามพราน นครชัยศรีโทร0895024977มืออาชีพ\n\n",
        "description": "ช่างกุญแจสามพราน นครชัยศรีโทร0895024977มืออาชีพ\n\n",
        "id": "1414091502247494",
        "name": "ช่างกุญแจสามพราน นครชัยศรีโทร0895024977เปิดประตูรถยนต์ เปิดตู้เซฟมืออาชีพ",
        "phone": "0895024977"
    },
    {
        "about": "ช่างกุญแจสามพรานโทร0895024977ทำกุญแจรถยนต์และรีโหมท เปิดประตูรถ เปิดตู้เซฟ\n\n",
        "description": "ช่างกุญแจสามพรานโทร0895024977ทำกุญแจรถยนต์และรีโหมท เปิดประตูรถ เปิดตู้เซฟ ประสบการมากกว่า30ปี มืออาชีพบริการทั่วไทย\n",
        "id": "837375519664856",
        "name": "ช่างกุญแจสามพรานโทร0895024977ทำกุญแจรถยนต์และรีโหมท เปิดประตูรถ เปิดตู้เซฟ",
        "phone": "โทร0895024977"
    },
    {
        "about": "ช่างกุญแจบ้านแพ้ว ดอนยายหอมโทร0895024977เิปิดประตูรถ เปิดตู้เซฟ มืออาชีพ\n",
        "id": "1596445160626674",
        "name": "ช่างกุญแจบ้านแพ้ว ดอนยายหอมโทร0895024977เิปิดประตูรถ เปิดตู้เซฟ มืออาชีพ"
    },
    {
        "about": "ติดตั้งประตูม้วน ซ่อมประตูม้วนทุกระบบ โดยเอกการช่าง รังสิต",
        "description": "รับติดตั้งประตูม้วน ซ่อมประตูม้วน ประตูม้วนมือดึง ประตูม้วนมอเตอร์ ประตูม้วนโรงงาน ประตูม้วนลายโปร่ง ประตูม้วนสแตนเลส ประตูม้วนทุกระบบ",
        "emails": [
            "akesteel@hotmail.com"
        ],
        "id": "660893570677974",
        "location": {
            "city": "Amphoe Thanyaburi",
            "country": "Thailand",
            "latitude": 14.0167,
            "longitude": 100.75,
            "street": "69 ถ.รังสิตปทุม ต.ประชาธิปัตย์ อ.ธัญบุรี จ.ปทุมธานี",
            "zip": "12130"
        },
        "name": "ประตูม้วนรังสิต ติดตั้ง ซ่อม ประตูม้วน โดย เอกการช่าง รังสิต",
        "phone": "02-531-0708"
    },
    {
        "about": "ช่างเปิดประตูรถชลบุรีโทร0895024977ทำกุญแจรถยนต์ฝังชิฟและรีโมท-เปิดตู้เซฟเซฟ\n\n",
        "description": "ช่างกุญแจเปิดรถ เปิดตู้เซฟมืออาชีพโทร0895024977บริการพัทยาใต้ พัทยาเหนือ พัทยากลางหาดจอมเทียนบ้านอำเภอ สัตหีบหาดจอมเทียนบ้านฉางเขาตะโล บางแสนบ่อวินโลงโป๊ะเขาสามมุกชลบุรีศรีราชาเขาน้อยนครปฐมบางเลนกำแพงแสนห้วยพลูบางพระ ท่ามะกา บ้านแพ้ว ดอนยายหอมกระทุ่มแบนตลาดน้ำ ดอนหวายสามพรานนครชัยศรีท่าเรือ ท่าล้อท่ามะกา ท่าผากาญจนบุรี ราชบุรี โพธารามบ้านโป่ง หนองโพ บางแพดำเนิน บ่อตะกั่ว ท่าตำหนัก อ้อมน้อย อ้อมใหญ่ ท่าตำหนักสมุทรสาครสมุทรสงครามตลาดอัมพวาหุ่นขี้ผึ้งพุทธมณฑลสาย1สาย2สาย3สาย4สาย5สาย6สาย7บางปิ้งดอนตูมสามง่ามสวนผึ้งโพธารามหนองโพบ้านบึงฟามจระเข้สวนเสือสวนนกสวนนงนุซฟามช้างตลาดนำ้โคกพระบ่อตะกั่วธรรมศาลาท่าตำหนักสนามไทยแลนเซอกิตสุพรรณบุรีกาญจนบุรีสมุทรสงครามสมุทรสาครโพหักบ้านแพ้วอ้อมน้อยวัดไร่ขิงสวนส้มนครปฐมปากท่อทั่วปริมณฑล\n\n",
        "id": "356626801197028",
        "name": "ช่างเปิดประตูรถชลบุรีโทร0895024977ทำกุญแจรถยนต์ฝังชิฟและรีโมท-เปิดตู้เซฟเซฟ",
        "phone": "0895024977"
    },
    {
        "id": "851181971608367",
        "location": {
            "city": "Phuket",
            "country": "Thailand",
            "latitude": 7.900253965,
            "longitude": 98.3408263,
            "street": "26/7ม.7ถ.วิชิตสงคราม ต.กะทู้ จ.ภูเก็ต",
            "zip": "83120"
        },
        "name": "ภูเก็ตรวมช่าง งาน เหล็กทุกชนิด ประตูม้วน เหล็กดัด แอร์ ฝ่าเพดาน",
        "phone": "0907080563 "
    },
    {
        "about": "ช่างกุญแจบ้านแพ้ว ดอนยายหอมโทร0895024977เิปิดประตูรถ เปิดตู้เซฟ มืออาชีพ\n\n",
        "description": "ทำกุญแจรถยนต์ระบบฝังชิฟและรีโหมทรถยนต์ บ้านเปิดประตูรถยนต์ เปิดตู้เซฟบริการนอกสถานที่โทร0895024977มืออาชีพบริการทั่วไทย",
        "id": "864075886960997",
        "name": "ช่างกุญแจบ้านแพ้ว ดอนยายหอมโทร0895024977เิปิดประตูรถ เปิดตู้เซฟ มืออาชีพ",
        "phone": "โทร 0895024977"
    }
]