[
    {
        "about": "ตั้งค่า ช่างกุญแจนครปฐมเปิดประตูรถยนต์เปิดตู็เซฟโทร0895024977\n",
        "id": "1476276072599833",
        "name": "ช่างกุญแจนครปฐมเปิดประตูรถยนต์เปิดตู็เซฟโทร0895024977"
    },
    {
        "about": "ตั้งค่า เปิดประตูรถยนต์เปิดตู้เซฟโทร0895024977 สมุทรสาคร สมุทรสงคราม อัมพวา\n",
        "id": "1418906245017284",
        "name": "ช่างเปิดประตูรถยนต์เปิดตู้เซฟโทร0895024977 สมุทรสาคร สมุทรสงคราม อัมพวา"
    },
    {
        "about": "ตั้งค่า ช่างเปิดประตูรถtoyota Isuzu Nissin Ford Mitsubihi Mazda\n",
        "id": "1420847088157014",
        "name": "ช่างเปิดประตูรถtoyota  Ford Mitsubihi Mazda โทร0895024977ช่างติ๊กกุญแจ"
    },
    {
        "id": "1630749703865315",
        "location": {
            "latitude": 8.582751005888,
            "longitude": 99.812048301101
        },
        "name": "ตึกประติมากรรมใหม่ของวิทยาลัยช่างศิลปนครศรีธรรมราช"
    },
    {
        "about": "ตั้งค่า ช่างเปิดตู้เซฟเปิดประตูรถยนต์โทร0895024977กาญจนบุรี ท่าม่วง ม่าล้อ ท่ามะกา\n",
        "id": "1385332185063533",
        "name": "ช่างเปิดตู้เซฟเปิดประตูรถยนต์โทร0895024977กาญจนบุรี ท่าม่วง ม่าล้อ ท่ามะกา"
    },
    {
        "about": "รับทำโครงหลังคา เหล็กดัด กันสาด ประตูม้วน มุ้งลวด โดย ณรงค์การช่าง พิษณุโลก",
        "id": "734857479992718",
        "location": {
            "city": "Phitsanulok",
            "country": "Thailand",
            "latitude": 16.8158,
            "longitude": 100.264,
            "street": "บ้านพักส่วนสนามบิน",
            "zip": "65000"
        },
        "name": "รับทำโครงหลังคา เหล็กดัด กันสาด ประตูม้วน มุ้งลวด โดย ณรงค์การช่าง พิษณุโลก",
        "phone": "084-6202939"
    },
    {
        "about": "ตั้งค่า ช่างเปิดประตูรถยนต์เปิดตู้เซฟโทร0895024977ท่าผา ท่าเรือ ท่าม่วง ท่ามะกา\n",
        "id": "254130191421244",
        "name": "ช่างเปิดประตูรถยนต์เปิดตู้เซฟโทร0895024977ท่าผา ท่าเรือ ท่าม่วง ท่ามะกา"
    },
    {
        "about": "รับทำวงกบ ประตู หน้าต่าง ฝาทรงไทย งานนอกไซด์ ราคาไม่แพง. สอบถามได้ที่ 0911869567 สุพจน์",
        "id": "766706736734572",
        "name": "ร้านค้าไม้ วงกบ ประตู  หน้าต่าง ช่างวุธเมืองแพร่."
    },
    {
        "id": "1459077867697727",
        "location": {
            "city": "Nakhon Ratchasima",
            "country": "Thailand",
            "latitude": 14.8843321095,
            "longitude": 102.025767681,
            "street": "199 ม.6 ต.สุรนารี อ.เมือง จ.นครราชสีมา",
            "zip": "30000"
        },
        "name": "ร้านล้างรถและซ้อมรถมอเตอร์ไซค์ ช่างแดงหน้า มทส. ประตู 1 ติดกับตลาดหน้ามอ",
        "phone": "0803741797"
    },
    {
        "about": "สนใจสอบถามก่อนได้ครับ เบอร์โทร 0846105888\nID line payapom ",
        "id": "554047541411966",
        "name": "รับทำประตูรีโมททุกชนิดโดยช่างผู้ชำนาญและมีประสบการณ์"
    },
    {
        "id": "527694530719774",
        "location": {
            "city": "Roi Et",
            "country": "Thailand",
            "latitude": 16.035625,
            "longitude": 103.64800333333
        },
        "name": "ร้านช่างนพ ประตูน้ำร้อยเอ็ด"
    },
    {
        "id": "905168032906859",
        "location": {
            "city": "Amphoe Kamphaeng Saen",
            "country": "Thailand",
            "latitude": 14,
            "longitude": 100
        },
        "name": "บ้านช่างรับทำประตู"
    },
    {
        "about": "สร้างบ้านตามใจ ผู้อยู่คับ",
        "description": "วัตถุดิบหลักของเราก็จะเป็น ไม้สัก นะครับ\nส่วนเรื่องการสั่งของ ลูกค้าสามารถมา สั่งเองได้ครับ ตามที่อยู่ หรือเบอร์ติดต่อ ",
        "emails": [
            "fukky4555@gmail.com"
        ],
        "id": "680814152064349",
        "location": {
            "city": "Roi Et",
            "country": "Thailand",
            "latitude": 16.05,
            "longitude": 103.667,
            "street": "บ.เชียงใหม่ ต.เชียงใหม่ อ.โพธิ์ย จ.ร้อยเอ็ด",
            "zip": "45230"
        },
        "name": "สุระศักดิ การช่าง ผลิตและจำหน่าย วงกบ ประตูหน้าต่าง",
        "phone": "0890233193"
    },
    {
        "about": "รับทำ ประตูเหล็กดัด หลังคากันสาด ประตูม้วน มุ้งลวด สนามเด็กเล่น และงานเหล็กทุกชนิด ",
        "id": "499651726840540",
        "location": {
            "city": "Yasothon",
            "country": "Thailand",
            "latitude": 15.651492544211,
            "longitude": 104.31343172351,
            "street": "721/2 ต. ลุมพุก อ. คำเขื่อนเเก้ว จ. ยโสธร",
            "zip": "35110"
        },
        "name": "ร้านประเสริฐการช่าง รับทำ เหล็กดัด หลังคากันสาด ประตูเหล็กดัด ประตูม้วน",
        "phone": "089718734608971672650943587175"
    },
    {
        "about": "สนใจสอบถามก่อนได้ครับราคาคุยกันได้\nโทร0846105888\nID line payapom",
        "id": "739034732869936",
        "name": "รับทำประตูรีโมททุกชนิดโดยช่างผู้ชำนาญและมีประสบการณ์"
    },
    {
        "id": "1487042784952639",
        "name": "เคยเรียน ประติมากรรม สากล   ปวส.ปมศ. เพาะช่าง"
    },
    {
        "id": "963942153667012",
        "location": {
            "city": "Bangkok",
            "country": "Thailand",
            "latitude": 13.7591098,
            "longitude": 100.5678319
        },
        "name": "ดาวพลูโตเดินตรงไป เลี้ยวซ้ายแยกข้างหน้าเล็ก เลี้ยวเข้าประตูทางช้างเผือก"
    },
    {
        "about": "จำหน่ายและผลิต สินค้าถนนคนเดินเชียงใหม่ ทั้งปลีกและส่ง ในราคาย่อมเยา",
        "description": "จำหน่ายและผลิต สินค้าถนนคนเดินเชียงใหม่ ทั้งปลีกและส่ง ในราคาย่อมเยา\nเป็นเว๊ปเพจส่วนตัว ประชาสัมพันธ์และขายสินค้าถนนคนเดินเชียงใหม่ ประตูท่าแพ ไม่เกี่ยวกับส่วนราชการหรือให้จัดจองสถานที่จำหน่ายสินค้า",
        "emails": [
            "tsmc2555@yahoo.com"
        ],
        "id": "136143806560480",
        "location": {
            "city": "Chiang Mai",
            "country": "Thailand",
            "latitude": 18.788508723881,
            "longitude": 98.986237795243,
            "street": "133/14 ถ.รัตนโกสินทร์ ต.ช้างม่อย อ.เมือง จ.เชียงใหม่",
            "zip": "50300"
        },
        "name": "ถนนคนเดินเชียงใหม่-ประตูท่าแพ",
        "phone": "0819515525"
    },
    {
        "id": "311298288971221",
        "location": {
            "city": "Chiang Mai",
            "country": "Thailand",
            "latitude": 18.8113340592,
            "longitude": 98.9844116834,
            "zip": "50300"
        },
        "name": "ประตูช้างเผือก จ.เชียงใหม่"
    },
    {
        "id": "274652329375762",
        "location": {
            "city": "Sung Noen",
            "country": "Thailand",
            "latitude": 14.8721795,
            "longitude": 101.83132745,
            "zip": "30170"
        },
        "name": "ร้าน ช่างเดี่ยว ส.ประตูเสือ"
    },
    {
        "id": "253018978111971",
        "location": {
            "city": "Chiang Mai",
            "country": "Thailand",
            "latitude": 18.812278722924,
            "longitude": 98.984030557571
        },
        "name": "Tonmai's Star สาขาย่อยประตูช้างเผือก"
    },
    {
        "id": "256590334478454",
        "location": {
            "city": "Chiang Mai",
            "country": "Thailand",
            "latitude": 18.795799072176,
            "longitude": 98.983760206067,
            "street": "Manee Nopparat"
        },
        "name": "ผามตุง\u0026ผามจ้างฟ้อน ณ ข่วงประตูช้างเผือกมา"
    },
    {
        "id": "260496843974782",
        "location": {
            "city": "Chiang Mai",
            "country": "Thailand",
            "latitude": 18.799240606694,
            "longitude": 98.985503767924,
            "zip": "50200"
        },
        "name": "Miracle Coffee ประตูช้างเผือก"
    },
    {
        "id": "263144937171927",
        "location": {
            "city": "Chiang Mai",
            "country": "Thailand",
            "latitude": 18.796652049331,
            "longitude": 98.986697599427
        },
        "name": "ร้านข้าวแกง ประตูช้างเผือก"
    },
    {
        "id": "263808320409472",
        "location": {
            "city": "San Buri",
            "country": "Thailand",
            "latitude": 15.004436894109,
            "longitude": 100.14664462053
        },
        "name": "ประตูดินสายใต้ทางช้างเผือก"
    }
]