[
    {
        "id": "180193622084330",
        "location": {
            "city": "Chiang Mai",
            "country": "Thailand",
            "latitude": 18.811874002543,
            "longitude": 98.985531311858,
            "zip": "50300"
        },
        "name": "ประตูช้างเผือก @เชียงใหม่"
    },
    {
        "id": "176609769173993",
        "location": {
            "city": "Chiang Mai",
            "country": "Thailand",
            "latitude": 18.797182862838,
            "longitude": 98.986389889749,
            "street": "Chang Phueak Road"
        },
        "name": "ตลาดเช้า ประตูช้างเผือก"
    },
    {
        "id": "197304600312218",
        "location": {
            "city": "Chiang Mai",
            "country": "Thailand",
            "latitude": 18.801536591881,
            "longitude": 98.985722350564,
            "zip": "50200"
        },
        "name": "SCB ประตูช้างเผือก"
    },
    {
        "id": "840698605968958",
        "location": {
            "city": "Sam Phran",
            "country": "Thailand",
            "latitude": 13.7277992,
            "longitude": 100.26207554,
            "street": "61/15 ซ.เทศบาลอ้อมใหญ่8 ถ.เพชรเกษม ต.ไร่ขิง อ.สามพราน จ.นครปฐม",
            "zip": "73210"
        },
        "name": "ร้านศุภชัย - ช่างไก่รับทำประตูเหล็กม้วนประตูยืดทุกชนิด"
    },
    {
        "id": "920031044683269",
        "location": {
            "latitude": 8.663043,
            "longitude": 99.912032
        },
        "name": "หมู่บ้านประตูช้างออก"
    },
    {
        "id": "917603441640031",
        "location": {
            "city": "Amphoe Muang Chiang Mai",
            "country": "Thailand",
            "latitude": 18.788660965387,
            "longitude": 98.972804257535
        },
        "name": "ข้าวขาหมู ประตูช้างเผือก"
    },
    {
        "id": "914821648541656",
        "location": {
            "city": "Nong Sua",
            "country": "Thailand",
            "latitude": 14.069169044495,
            "longitude": 100.87036132812
        },
        "name": "ร้านเสนาะการช่าง สาขาค.12 วงกบ ประตู หน้าต่าง ไม้แปรรูป"
    },
    {
        "id": "882919845086888",
        "location": {
            "city": "Chiang Mai",
            "country": "Thailand",
            "latitude": 18.806492500062,
            "longitude": 98.985426992587
        },
        "name": "ประตูช้างเผือก เชียงใหม่"
    },
    {
        "id": "844616398903243",
        "location": {
            "city": "Bangkok",
            "country": "Thailand",
            "latitude": 13.922507064792,
            "longitude": 100.64717071908
        },
        "name": "ช่างเอก สายไหม่กลอนประตูรถยนต์ เจ้าเก่า 18ปี",
        "phone": "0822223734"
    },
    {
        "id": "951526248190783",
        "location": {
            "city": "Bangkok",
            "country": "Thailand",
            "latitude": 13.73204204495,
            "longitude": 100.50417902459
        },
        "name": "หน้าประตูวิทยาลัยเพาะช่าง"
    },
    {
        "id": "830605100298716",
        "location": {
            "city": "Tha Sala",
            "country": "Thailand",
            "latitude": 8.6602221,
            "longitude": 99.9230242,
            "street": "บ้านห้วยย้ง"
        },
        "name": "บ้านประตูช้างตก",
        "phone": "0873852737"
    },
    {
        "id": "826070107463479",
        "location": {
            "city": "อ.พรเจริญ จ.บึงกาฬ",
            "latitude": 18.02359,
            "longitude": 103.711595,
            "street": "อ.พรเจริญ จ.บึงกาฬ"
        },
        "name": "ช่าง จีนประตูเหล็ก",
        "phone": "0836794766"
    },
    {
        "id": "816195801829585",
        "location": {
            "city": "Ban Khok Kruat",
            "country": "Thailand",
            "latitude": 14.8692633,
            "longitude": 102.0050162,
            "street": "บ้านสะพานหิน ต.สุรนารี อ.เมือง จ.นครราชสีมา",
            "zip": "30000"
        },
        "name": "ร้านก๋วยเต๋ยวขุนช้างโคราช มทส.ประตู3"
    },
    {
        "id": "801345546603880",
        "location": {
            "city": "Ban Na Jomtian",
            "country": "Thailand",
            "latitude": 12.809372176667,
            "longitude": 100.91990928222
        },
        "name": "วิทลัยไฮโซที่บ้านอำเภอมียามคอยเปิดประตูมีครูคอยตรวจกระโปรงเด็กช่างโดนเง็บผม"
    },
    {
        "id": "798940676851337",
        "location": {
            "city": "Amphoe Muang Khon Kaen",
            "country": "Thailand",
            "latitude": 16.47889,
            "longitude": 102.82676,
            "street": "46 ถ.รื่นจิตร ต.ในเมือง อ.เมือง จ.ขอนแก่น",
            "zip": "40000"
        },
        "name": "ชัยเจริญศิริการช่าง - ประตูเหล็ก"
    },
    {
        "id": "645291595558872",
        "location": {
            "city": "Chanthaburi",
            "country": "Thailand",
            "latitude": 12.58816,
            "longitude": 102.06608
        },
        "name": "ประตูสระช้าง ประตูช้าง"
    },
    {
        "id": "670908506297946",
        "location": {
            "latitude": 15.3158397,
            "longitude": 99.7163082
        },
        "name": "ทีี่เดิมประตูบ้านช่างหนุ่ม"
    },
    {
        "id": "795086000552494",
        "location": {
            "city": "Muang Roi Et",
            "country": "Thailand",
            "latitude": 16.047808,
            "longitude": 103.6618359
        },
        "name": "ประตูชัยการช่าง",
        "phone": "043519121"
    },
    {
        "id": "761401050598757",
        "location": {
            "city": "Bangkok",
            "country": "Thailand",
            "latitude": 13.755932729704,
            "longitude": 100.55785822691,
            "zip": "10400"
        },
        "name": "ห้องนอนที่กำลังจะซ่อมประตู ทำฝ้า ทาสีห้อง แล้วแต่อารมณ์ช่าง"
    },
    {
        "id": "737625726295531",
        "location": {
            "latitude": 18.64019,
            "longitude": 99.01108
        },
        "name": "วัดล่ามช้าง ต.ประตูป่า"
    },
    {
        "id": "731877330254638",
        "location": {
            "city": "Chiang Mai",
            "country": "Thailand",
            "latitude": 18.7903,
            "longitude": 98.9817
        },
        "name": "ศูนย์ฝึกหัดขับรถยนต์ประตูช้างเผือก"
    },
    {
        "id": "694026797278896",
        "location": {
            "city": "Ayutthaya",
            "country": "Thailand",
            "latitude": 14.359559321324,
            "longitude": 100.55235060407,
            "zip": "13000"
        },
        "name": "อู่ช่างโอ๋ แถวประตูชัย"
    },
    {
        "id": "674964572549232",
        "location": {
            "city": "Tha Sala",
            "country": "Thailand",
            "latitude": 8.66709,
            "longitude": 99.93151,
            "street": "111ม.2 ต. ไทยบุรี"
        },
        "name": "บ้านประตูช้างตก",
        "phone": "0873852737"
    },
    {
        "id": "966948836665717",
        "location": {
            "city": "Bangkok",
            "country": "Thailand",
            "latitude": 14.035915536585,
            "longitude": 100.77185492927,
            "street": "28/15 หมู่2",
            "zip": "12110"
        },
        "name": "ร้านเสนาะการช่าง ค.7 วงกบ ประตู หน้าต่าง ไม้แปรรูป",
        "phone": "0819050730"
    },
    {
        "id": "125766994232496",
        "location": {
            "city": "Chiang Mai",
            "country": "Thailand",
            "latitude": 18.789815520885,
            "longitude": 98.970555514189,
            "zip": "50200"
        },
        "name": "วัดประตูช้างสี จ.ลำพูน"
    }
]