[
    {
        "about": "wedding  make up   Organize\n086-3035392",
        "description": "รับแต่งหน้า ทำผมเจ้าสาว รับปริญญา ไปงาน\nถ่ายภาพแต่งงาน ภาพครอบครัว แฟชั่นรับปริญญา\nสั่งตัด ให้เช่าชุดเจ้าสาว ชุดเจ้าบ่าว\nรับจัดงงาน ออร์แกไนซ์และเวดดิ้งแพลนเนอร์",
        "emails": [
            "kk_wonderfulworld@hotmail.com"
        ],
        "id": "235152816573608",
        "location": {
            "city": "ขอนแก่น",
            "street": "เดอะ มิราเคิล สตูดิโอ ขอนแก่น",
            "zip": "40000"
        },
        "name": "ช่างแต่งหน้าขอนแก่น อ๋อมแอ๋ม wedding\u0026organizer",
        "phone": "086-3035392  "
    },
    {
        "about": "Kimmie Makeup บริการแต่งหน้าเจ้าสาว รับปริญญา พรีเวดดิ้ง แต่งหน้าไปงานเลี้ยงต่าง ๆ \n",
        "description": "บริการแต่งหน้าเจ้าสาว รับปริญญา พรีเวดดิ้ง แต่งหน้าไปงานเลี้ยงต่าง ๆ \nด้วยเครื่องสำอางคุณภาพดี ติดทนตลอดวัน ในราคาที่คุณสัมผัสได้\nติดต่อสอบถาม จองคิวทาง inbox,Line,Tel ได้เลยจ้า",
        "emails": [
            "kalyanee_1@hotmail.com"
        ],
        "id": "628975220476664",
        "location": {
            "city": "Bangkok",
            "country": "Thailand",
            "latitude": 13.60378,
            "longitude": 100.86336,
            "street": "เอแบค บางนา",
            "zip": "10560"
        },
        "name": "ช่างแต่งหน้ามืออาชีพ รับแต่งหน้าทำผมนอกสถานที่ By Kimmie Makeup",
        "phone": "0814861318"
    },
    {
        "about": "การสรรสร้างให้ทุกท่านเผยความงามในแบบของตัวเอง คือสิ่งที่เรารัก By Peat Make Up And Hair",
        "id": "393770880701708",
        "location": {
            "zip": "10900"
        },
        "name": "แต่งหน้า ทำผม ช่างแต่งหน้ามืออาชีพ",
        "phone": "080-5536241"
    },
    {
        "about": "บริการให้เช่า ชุดแต่งงานในราคาประหยัด แต่งหน้า ทำผม\n\n",
        "description": " ร้านโอเค เมคอัพ บริการให้เช่าชุดแต่งงาน ทั้งชุดไทยและชุดสากล ในราคาไม่แพง เริ่มต้นที่ 2,000 บาท และชุดตัดใหม่ สั่งตัดเช่าราคาถูก รวมทั้งงานถ่ายพรีเวดดิ้ง  ( Pre-Wedding ) ในราคาที่สามารถเลือกได้ ให้ไฟล์ภาพทั้งหมด บริการวางแผนการจัดงานแต่งงาน ตั้งแต่เริ่มต้นการจัดการวางแผนจนถึงวันแต่งงานจริง พร้อมงานตกแต่งสถานที่แต่งงานตามคอนเซป และรับแต่งหน้า-ทำผม เจ้าสาวโดยช่างที่มีประสบการณ์ เครื่องสำอางค์คุณภาพ ร้านตั้งอยู่ที่ อ.ดอยสะเก็ด จังหวัดเชียงใหม่ และทางร้านยังรับแต่งหน้างานทั่วไป เจ้าสาว รับปริญญา งานเลี้ยง งานบายเนียร์ ทั้งในและนอกสถานที่และต่างจังหวัด รับชมผลงานได้ที่\nhttps://www.facebook.com/FongtamMakeup\nติดต่องาน\nโอ่ง 091-6359161\nนัท  095-6904425\n - แต่งหน้าไปงานเลี้ยง Party ,แต่งหน้าเจ้าสาว , แต่งหน้าแฟชั่น - Fancy  , Cheerleader \n\n    - รับจัดงาน event  + งานแต่ง\n                             + เปิดตัวสินค้า \n                             + งานเลี้ยงต่าง\n                                และงานอื่นๆ",
        "emails": [
            "ok.makeup.cnx@gmail.com"
        ],
        "id": "305808286162405",
        "location": {
            "city": "Chiang Mai",
            "country": "Thailand",
            "street": "107 ม.4 ต.ป่าป้อง อ.ดอยสะเก็ด",
            "zip": "50220"
        },
        "name": "โอ่ง ช่างแต่งหน้าเชียงใหม่",
        "phone": "0916359151"
    },
    {
        "about": "บริการแต่งหน้าโดยMAKEUP GURU ชื่อดังของประเทศไทย พี่มีนนีรชา 080-3097978",
        "description": "ยินดีให้บริการทั้งในกรุงเทพและต่างจังหวัดด้วยทีมงานมืออาชีพชื่อดังกว่า10ท่านด้วยเครื่องสำอางค์แบรนด์เนม 5ดาวและยังยึดถือความซื่อตรง การบริการอย่างเอาใจใส่ และฝีมือที่เยี่ยมยอดในทุกๆครั้งสำหรับลูกค้าทุกคนค๊ะ",
        "emails": [
            "makeupsociety@hotmail.com"
        ],
        "id": "1572695839665678",
        "location": {
            "city": "นนท์บุรี",
            "street": "อ.เมือง",
            "zip": "11000"
        },
        "name": "ช่างแต่งหน้าเจ้าสาวมืออาชีพ..มีนนีรชา",
        "phone": "091-2097060"
    },
    {
        "about": ": รับแต่งหน้าทำผม เจ้าสาว งานเลี้ยง การแสดง กองถ่าย รับปริญญา ฯลฯ ติดต่อ 094-6354092 หรือ Line : patcha_makeup ",
        "emails": [
            "pongpatkattiya2802@gmail.com"
        ],
        "id": "153931634757131",
        "location": {
            "street": "รับแต่งหน้าทำผม"
        },
        "name": "คุณพัดชา ช่างแต่งหน้าเชียงใหม่",
        "phone": "โทร 094-6354092 "
    },
    {
        "id": "598929996806921",
        "location": {
            "city": "Bangkok Noi",
            "country": "Thailand",
            "latitude": 13.7487993,
            "longitude": 100.4697189,
            "street": "788 จรัญสนิทวงศ์",
            "zip": "10700"
        },
        "name": "ช่างแต่งหน้ารับปริญญา งานแต่งงาน",
        "phone": "0813629846"
    },
    {
        "about": "แต่งหน้าเจ้าสาวอิสลาม Tel.084-9144654 , Line.themodel89",
        "description": "บริการให้เช่าชุดวิวาห์ แต่งหน้าเจ้าสาว ถ่ายพรีเวดดิ้ง แต่งหน้ารับปริญญา แต่งหน้าไปงานต่างๆๆ ราคาย่อมเยาว์ บริการเป็นกันเองรับประกันความพอใจครับ",
        "id": "394519827268958",
        "location": {
            "street": "กทม"
        },
        "name": "ช่างแต่งหน้าเจ้าสาวอิสลาม by เด่นเมคอัพ",
        "phone": "084"
    },
    {
        "about": "รับแต่งหน้าทำผม รับปริญญา แต่งหน้าเจ้าสาว แต่งหน้าไปงาน081-4707033",
        "description": "บริการแต่งหน้าทำผมทั้งในและนอกสถานที่ติดต่อหาเรา081-4707033\n(คุณโทรมาเราดีใจ คุณสวยกลับไปเราแฮบปี้)",
        "emails": [
            "ratchanee7033@gmail.com"
        ],
        "id": "472821636092282",
        "location": {
            "street": "กทม."
        },
        "name": "เจี๊ยบช่างแต่งหน้าทำผม",
        "phone": "081-4707033"
    },
    {
        "about": "แต่งหน้าเจ้าสาว ช่างแต่งหน้าเจ้าสาว รับแต่งหน้าเจ้าสาว โดย ช่างมิ้ลค์",
        "description": "  สวัสดีค่ะดิฉันเป็นนักออกแบบการแต่งหน้าที่ทันสมัย และสามารถสร้างผลงานการแต่งหน้าได้หลายรูปแบบหลายสไตล์ ทั้งงานแต่งหน้ารับปริญญา แต่งหน้าเจ้าสาว แต่งหน้านิตยสาร งานแต่งหน้าในสตูดิโอ แต่งหน้ารายการโทรทัศน์ แต่งหน้าแฟนซี แต่งหน้าไปงานต่างๆ แต่งหน้านางนพมาศ แต่งหน้าประกวด  มีเทคนิคและอุปกรณ์ที่ทันสมัยและมีประสบการณ์ เน้นการแต่งหน้าเพื่อความสวยงามและการแต่งหน้าให้เหมาะสมกับงานที่ลูกค้าต้องการ การทำงานของเราละเอียดทุกขั้นตอนการปฎิบัติงาน ตรงต่อเวลา พูดจาสุภาพ เป็นกันเอง  \n\n***รับแต่งหน้าทำผมรับปริญญา ทั้งแบบเดี่ยว หรือ กลุ่มใน ราคาพิเศษ ใช้เครื่องสำอางแบรนด์ดัง จากของ อเมริกา อังกฤษ เกาหลี ไทย และ ขนตาปลอมหลายแบบให้น้องๆได้เลือกตามความชอบ เครื่องสำอางติดคงทน สวยใส ไม่ดูเว่อร์ ปกปิดริ้วรอยด่างดำ สิว ต่างๆให้อย่างแนบเนียนที่สุด ทางเราสามารถให้น้องๆเลือกสไตล์การแต่งหน้าที่ถูกใจและชื่นชอบได้ตามที่ต้องการ\n\n***รับแต่งหน้าเจ้าสาวและเจ้าบ่าว พิธีเช้าและเย็น  ใช้เครื่องสำอางแบรนด์ดัง จากของ อเมริกา อังกฤษ เกาหลี ไทย และ ขนตาปลอมหลายแบบให้ได้เลือกตามความชอบ เครื่องสำอางติดคงทนสวยนาน ไม่เยิ้ม ไม่ลอก สวยมีออร่า ตั้งแต่หัวจรดเท้าแน่นอนค่ะ ในกรณีที่แต่งหน้าทำผมทั้งพิธีเช้าและเย็น ในรอบบ่ายทางเรายินดีที่จะให้ล้างเครื่องสำอางเพื่อแต่งหน้าและทำผมใหม่ให้นะคะ เพื่อความสวยงาม\n\n***รับแต่งหน้าทำผมไปงานต่างๆ ทั้งแบบเดี่ยว หรื่อกลุ่มในราคาพิเศษ ใช้เครื่องสำอางแบรนด์ดัง จากของ อเมริกา อังกฤษ เกาหลี ไทย และ ขนตาปลอมหลายแบบให้ได้เลือกตามความชอบ เครื่องสำอางติดคงทน ปกปิดริ้วรอยด่างดำ สิว ต่างๆให้อย่างแนบเนียนที่สุด\n\nสนใจดูผลงานและจองคิวการแต่งหน้าได้ที่\nhttp://www.tachudamakeup.com\nCall : 087-671-4516 Line id : tachuda\n\nช่างแต่งหน้ามิ้ว ^^",
        "emails": [
            "milk.tachuda@gmail.com"
        ],
        "id": "243209035885453",
        "location": {
            "city": "Bangkok",
            "country": "Thailand",
            "latitude": 13.8030796,
            "longitude": 100.8133087,
            "street": "825/55 ลุมพินีนวมินทร์ แขวงคลองจั่น เขตบางกะปิ",
            "zip": "10240"
        },
        "name": "แต่งหน้าเจ้าสาว ช่างแต่งหน้าเจ้าสาว โดยช่างแต่งหน้ามิลค์",
        "phone": "0876714516"
    },
    {
        "id": "1532434813669964",
        "location": {
            "city": "Bangkok",
            "country": "Thailand",
            "latitude": 13.7688006,
            "longitude": 100.7347331,
            "street": "Khonkaen",
            "zip": "40000"
        },
        "name": "ช่างแต่งหน้าขอนแก่น นิวเมคอัพ",
        "phone": "0887101710"
    },
    {
        "about": "แต่งหน้าทำผมThe best make up จองคิว0909408432 เมย์จร้า",
        "description": "รับแต่งหน้า ทำผม รับปริญญา แต่งหน้าเจ้าสาว\nแต่งหน้า Pre wedding แต่งหน้าไปงาน แต่งหน้างานอื่นๆ ฯลฯ\nเครื่องสำอางcounter brand ในห้างดังของไทยเท่านั้น ของแท้แน่นอน\n รับทั้งในกรุงเทพฯและต่างจังหวัด\nติดต่อจองคิว 0909408432 เมย์\nLine ID:The best makeup\nInbox : https://www.facebook.com/jiratya.may?sk=messages_inbox ",
        "emails": [
            "maythebestmakeup@gmail.com"
        ],
        "id": "1395280347391184",
        "location": {
            "city": "กทม.",
            "street": "พระราม3 ช่องนนทรี ยานนาวา",
            "zip": "10120"
        },
        "name": "ช่างแต่งหน้ารับปริญญา ทรงผมรับปริญญา",
        "phone": "090-9408432"
    },
    {
        "about": "http://www.ช่างแต่งหน้าเจ้าสาว.com--http://changtaengna.circlecamp.com/index.php?page=home\n---\n098-2507779",
        "description": "\nhttp://www.ช่างแต่งหน้าเจ้าสาว.com\nhttp://blogger-vikkimakeup.blogspot.com/\n",
        "emails": [
            "vikkibangkokmakeup@gmail.com"
        ],
        "general_info": "สตูดิโอเวดดิ้ง ,แต่งหน้าทำผม, pre wedding , แต่งหน้าเจ้าสาว ,เช่าชุดเจ้าสาว, จัดดอกไม้ , พานขันหมาก , ",
        "id": "237391556321827",
        "location": {
            "city": "Bangkok",
            "country": "Thailand",
            "street": "สุขุมวิท 107",
            "zip": "10270"
        },
        "name": "ช่างแต่งหน้าทำผมบริการถึงบ้านคุณ",
        "phone": "0982507779"
    },
    {
        "about": "รับแต่งหน้าเจ้าสาวอิสลาม ไทยพุทธ  พาเหรด เชียร์ลีดเดอร์และโอกาสพิเศษอื่น 0612164905 และ 095-4383176 ",
        "id": "664701373591430",
        "name": "ชามีม ชามีม ช่างแต่งหน้ามืออาชีพ"
    },
    {
        "about": "รับแต่งหน้า-รับแต่งหน้ารับปริญญา-รับแต่งหน้าเจ้าสาว-ช่างแต่งหน้า-รับแต่งหน้าทำผม",
        "id": "604728672870984",
        "location": {
            "street": "ไทย"
        },
        "name": "ช่างแต่งหน้า รับแต่งหน้าทำผมนอกสถานที่"
    },
    {
        "about": "Freelance Make-up Artist \u0026 Photographer\n\nติดต่อ Line:: walan.tik /khonlangklong",
        "description": "สำหรับท่านที่มองหาช่างแต่งหน้าและช่างภาพมืออาชีพ\nเรารับถ่ายภาพและงานแต่งหน้าทำผมทั่วไปทั้งในและนอกสถานที่ \nช่างภาพที่มีประสบการณ์มากกว่า 10 ปี\nช่างแต่งหน้าสามารถเนรมิตคให้คุณสวยใสเป็นธรรมชาติ\nอยากได้แบบไหนสไตล์ไหนบอกเรา เราจัดให้ได้คะ\nเราเน้นงานคุณภาพอุปกรณ์ถ่ายภาพและเครื่องสำอางค์มั่นใจได้เลยค่ะ เราใช้ของคุณภาพดีทุกชิ้น ให้งานคุณสวยอย่างมั่นใจในวันสำคัญของคุณ บริการเป็นกันเองในราคามิตรภาพ \n\nMake-up Artist : ติ๊ก \nPhotographer : khonlangklong",
        "id": "273708629404253",
        "name": "ช่างแต่งหน้า ช่างถ่ายภาพ มืออาชีพ"
    },
    {
        "about": "แต่งหน้ารับปริญญา แต่งหน้าเจ้าสาวนอกสถานที่ แพคเกจถ่ายพรีราคาถูก รับจัดงานครบวงจร",
        "id": "209577962509890",
        "location": {
            "city": "Bangkok",
            "country": "Thailand",
            "street": "88/2583 แขวงแสมดำ เขตบางขุนเทียน",
            "zip": "10150"
        },
        "name": "ช่างแต่งหน้า แต่งหน้าเจ้าสาว แต่งหน้านอกสถานที่",
        "phone": "0824924847"
    },
    {
        "id": "385266945012369",
        "name": "Makeup Artist"
    },
    {
        "about": "รับบริการแต่งหน้า ทำผม ในงานต่างๆเช่น แต่งงาน รับปริญญา \nราคาไม่แพง และคุ้มค่า",
        "id": "1627838350788578",
        "location": {
            "city": "Bangkok",
            "country": "Thailand",
            "latitude": 13.7522,
            "longitude": 100.494,
            "street": "Chula",
            "zip": "10130"
        },
        "name": "ช่างแต่งหน้า Make-up artist by พุดดี้",
        "phone": "0955952998"
    },
    {
        "about": "ไก่ช่างแต่งหน้าดารา บริการแต่งหน้า - ทำผม ลองโทรมาปรึกษากันได้ค่ะ 0879199917",
        "id": "421383754600461",
        "location": {
            "city": "Bangkok",
            "country": "Thailand",
            "street": "เจริญกรุง",
            "zip": "10120"
        },
        "name": "ไก่ช่างแต่งหน้าดารา บริการแต่งหน้า-ทำผม",
        "phone": "0879199917"
    },
    {
        "about": "รับแต่งหน้า ช่างแต่งหน้า นอกสถานที่",
        "description": "รับแต่งหน้ารับปริญญา รับแต่งหน้าเจ้าสาว แต่งหน้าทำผมออกงาน\nแต่งหน้านอกสถานที่ 0839908671 ช่างแต่งหน้าหนูนา",
        "id": "239720782870368",
        "name": "หนูนา รับแต่งหน้า ช่างแต่งหน้านอกสถานที่"
    },
    {
        "about": "Now, let me enhance your natural beauty. Because, looking gorgeous is the perfect way to start your very special day... Call:080 947 3456",
        "emails": [
            "makeupbypook@hotmail.com"
        ],
        "id": "129764523727850",
        "location": {
            "city": "Bangkok",
            "country": "Thailand",
            "latitude": 13.6994801,
            "longitude": 100.5310287,
            "street": "340/11 Thanon Sathu Pradit Yan Nawa",
            "zip": "10120"
        },
        "name": "ช่างแต่งหน้าเจ้าสาว Pook Makeup Artist",
        "phone": "0809473456"
    },
    {
        "id": "978424972189212",
        "location": {
            "city": "Surat Thani",
            "country": "Thailand",
            "street": "บ้านนาสาร",
            "zip": "84120"
        },
        "name": "แพรซี่ช่างแต่งหน้าเจ้าสาวสุราษฎร์ธานี",
        "phone": "0859006119"
    },
    {
        "about": "ช่างแต่งหน้า รับแต่งหน้า ทำผม",
        "id": "826884724010084",
        "location": {
            "city": "Bangkok",
            "country": "Thailand",
            "zip": "10240"
        },
        "name": "ช่างแต่งหน้าราคาถูก",
        "phone": "0856591121"
    },
    {
        "id": "339914742792616",
        "location": {
            "city": "Bangkok",
            "country": "Thailand",
            "latitude": 13.77803,
            "longitude": 100.4854,
            "street": "Tak",
            "zip": "10700"
        },
        "name": "ช่างแต่งหน้าทำผม",
        "phone": "0842113921"
    }
]