[
    {
        "about": "รับแต่งหน้าทำผมทุกแบบทุกสไตร์ในเขตพัทยา,ชลบุรี,ระยอง,กรุงเทพ,สัตหีบ และทั่วประเทศ",
        "id": "1527858104105081",
        "name": "ช่างแต่งหน้าพัทยา"
    },
    {
        "about": "รับแต่งหน้าทำผม เจ้าสาว บัณฑิตย์รับปริญญา แต่งหน้าไปงานทั่วไป",
        "emails": [
            "pawantri99@yahoo.com"
        ],
        "id": "458715580935706",
        "location": {
            "city": "นนทบุรี",
            "street": "ซอยสามัคคี ถนนสามัคคี ปากเกร็ด นนทบุรี",
            "zip": "11120"
        },
        "name": "Sandysai Makeup ช่างแต่งหน้า-ทำผม",
        "phone": "090-2244615"
    },
    {
        "about": "ช่างแต่งหน้ามืออาชีพ 080-4469944",
        "description": "ปริญญา เหล็กเพชร ช่างแต่งหน้า ทำผมมืออาชีพ ด้วยประสบการณ์ที่ผ่านมาในหน้านิตยสารแฟชั่นชั้นนำ งานถ่ายแฟชั่น และงานอื่นๆ ที่ต้องการคุณภาพชั้นเยี่ยม สำหรับ \"หน้าและผม\" \n\nหากต้องการใช้บริการช่างแต่งหน้า - ทำผมคุณภาพสูง ในราคาย่อมเยา ติดต่อได้ที่ \nโทร.080-446-9944 \nLine ID: 0804469944 \nIG: bank9_make up",
        "emails": [
            "bbb.345.bb@gmail.com"
        ],
        "id": "613186892037046",
        "location": {
            "city": "Bangkok",
            "country": "Thailand",
            "zip": "10900"
        },
        "name": "ช่างแต่งหน้า-ทำผมมืออาชีพ รับงานทั่วราชอาณาจักร",
        "phone": "0804469944"
    },
    {
        "about": "บริการแต่งหน้าทำผมเจ้าสาว รับปริญญา งานแสดง พริตตี้ MC\nติดต่อสอบถาม 0816842628\nLine id patchaya666",
        "description": "รับแต่งหน้า ทำผม เจ้าสาว รับปริญญา แต่งหน้าไปงาน 0809132268",
        "id": "226316907385443",
        "name": "Boom make up ช่างแต่งหน้าเจ้าสาว รับปริญญา"
    },
    {
        "id": "1530288750592657",
        "location": {
            "city": "Bangkok",
            "country": "Thailand",
            "latitude": 13.81913,
            "longitude": 100.67546,
            "street": "บางนา",
            "zip": "10230"
        },
        "name": "ช่างแต่งหน้าณเกศ ถ่ายงานรถbmw",
        "phone": "0815655464"
    },
    {
        "about": "รับแต่งหน้าในและนอกสถานที่บริเวณเมืองพัทยา/ชลบุรี",
        "id": "669383883114080",
        "location": {
            "city": "Pattaya",
            "country": "Thailand",
            "latitude": 13.36211,
            "longitude": 100.98371,
            "street": "วิวทะเลจอเทียน ทัพยา หนองปรือ บางละมุง ชลบุรี",
            "zip": "20260"
        },
        "name": "Pichaya chaiarsa ช่างแต่งหน้า พัทยา/ชลบุรี",
        "phone": "0878347929"
    },
    {
        "id": "112568082275628",
        "location": {
            "city": "Bangkok",
            "country": "Thailand",
            "latitude": 13.77431,
            "longitude": 100.54686,
            "street": "31/3 ซ.อารีย์สัมพันธ์4 ถ.พหลโยธิน5 เขต พญาไท  แขวง สามเสนใน กรุงเทพฯ 10400",
            "zip": "10400"
        },
        "name": "รับสมัครช่างแต่งหน้า",
        "phone": "0834348434"
    },
    {
        "about": "ชักภาพ สตูดิโอ \nTel. 088-333-663-1 ,083-339-330-1 \nFan Page : http://www.facebook.com/chuckpabStudio",
        "description": "ชักภาพ สตูดิโอ : ช่างภาพ รับถ่ายภาพ รับจ้างถ่ายรูป ตากล้อง งานแต่ง งานหมั้น รับปริญญา งานบวช อีเว้นท์ ในจังหวัดสกลนคร นครพนม อุดรธานี มุกดาหาร กาฬสินธุ์ ร้อยเอ็ด สารคาม ขอนแก่น และจังหวัดอื่นๆ ทั่วประเทศไทย : Pre Wedding/Wedding ,Fastion Portrait งานบุญ งานขึ้นบ้านใหม่ ฯลฯ ถ่ายภาพวีดีโอ/รับทำวีดีโอพรีเซ็นเทชั่น \nแต่งหน้า ทำผม เช่าชุดวิวาห์ \nEmail : ChuckpabStudio@hotmail.com \nTel. 088-333-663-1 ,083-339-330-1 \nFan Page : http://www.facebook.com/chuckpabStudio",
        "id": "402342156496607",
        "name": "ช่างภาพขอนแก่น รับถ่ายภาพ ตากล้อง งานแต่ง รับปริญญา เช่าชุด แต่งหน้า ทำผม"
    },
    {
        "about": "เช่าชุดถ่ายพรีเวดดิ้ง 081 297 6867",
        "description": "เช่าชุดถ่ายพรีเวดดิ้งนอกสถานที่ราคาสำหรับช่างภาพ บริการช่างแต่งหน้าทำผมตามไปดูแลด้วย มีรถตู้ให้เปลี่ยนชุดได้ บริการกรุงเทพและต่างจังหวัด ติดต่อ แอ๊น 0812976867 ID:LINE  antvdo007",
        "id": "426951174032828",
        "location": {
            "city": "ฉะเชิงเทรา",
            "street": "74 หมู่7 ต.บ้านซ่อง อ.พนมสารคาม",
            "zip": "24120"
        },
        "name": "ให้ช่างภาพเช่าชุดถ่ายพรีเวดดิ้งและช่างแต่งหน้า",
        "phone": "0812976867"
    },
    {
        "about": "บริการแต่งหน้า-ทำผมในโอกาสพิเศษต่างๆ Tel:099-516-6629",
        "emails": [
            "aey2821@gmail.com"
        ],
        "id": "1688612368031824",
        "name": "Aey makeup เอ้เมคอัพ ช่างแต่งหน้า",
        "phone": "0995166629"
    },
    {
        "about": "เพราะความสวยสร้างได้ ",
        "emails": [
            "ืีืnungee2011@gmail.com"
        ],
        "id": "354832604617142",
        "name": "ช่างหนึ่ง  รับแต่งหน้าเจ้าสาว งานรับปริญญา",
        "phone": "0814273293"
    },
    {
        "about": "แต่งหน้า ทำผม. ทั่วไทย\nรับปริญญา  เจ้าสาว  โอกาสพิเศษต่างๆ\nด้วยเครื่องสำอางคุณภาพ แท้100% \n",
        "emails": [
            "isarakorn145@gmail.com"
        ],
        "id": "555371327896137",
        "location": {
            "street": "เชียงราย. เชียงใหม่ กรุงเทพฯ"
        },
        "name": "พี่อ้อช่างแต่งหน้า-ทำผม",
        "phone": "0819924549"
    },
    {
        "id": "202275849802010",
        "name": "ช่างแต่ง"
    },
    {
        "id": "138192286383574",
        "name": "แต่งหน้าทำผมช่างมืออาชีพ ปริญญา เจ้าสาว ไทย-อิสลาม by yaki"
    },
    {
        "id": "826717434064903",
        "location": {
            "city": "Bangkok",
            "country": "Thailand",
            "latitude": 13.7246237,
            "longitude": 100.5647125,
            "street": "สุขุมวิท",
            "zip": "10230"
        },
        "name": "ช่างแต่งหน้าณเกศ เจ้าสาวโรงเรียนสายน้ำผึ้ง",
        "phone": "0815655464"
    },
    {
        "id": "1624914137748316",
        "location": {
            "city": "Bangkok",
            "country": "Thailand",
            "latitude": 13.7246237,
            "longitude": 100.5647125,
            "street": "สุขุมวิท",
            "zip": "10230"
        },
        "name": "ช่างแต่งหน้าณเกศ เพื่อนเจ้าสาววินเทจ",
        "phone": "0815655464"
    },
    {
        "id": "727223607290973",
        "name": "ช่างเด่น รับแต่งหน้าเจ้าสาว รับปริญญา"
    },
    {
        "about": "บริการแต่งหน้า ทำผม ให้คุณมั่นใจในวันสำคัญของคุณค่ะ\n\n\n\n",
        "description": "เพราะเราเข้าใจถึงวันสำคัญของคุณค่ะ การแต่งหน้าจะเติมเต็มวันสำคัญของคุณ เปลี่ยนโฉมให้คุณดูดี มั่นใจในวันพิเศษของคุณ\n\n เรามีช่างแต่งหน้า ทำผม มืออาชีพ พร้อมที่จะบริการถึงที่ค่ะ \n\nติดต่อสอบถามข้อมูลเพิ่มเติมได้ที่ \n\nTel. 0922296915\nLine punika.rangchaya\n",
        "emails": [
            "punika.rangchaya64@gmail.com"
        ],
        "id": "267641096733337",
        "location": {
            "city": "Bangkok",
            "country": "Thailand"
        },
        "name": "Punika Make Up Artist ช่างแต่งหน้า ทำผม รับแต่งหน้า ทำผม",
        "phone": "0922296915"
    },
    {
        "about": "รับแต่งหน้า - ทำผม ทั้งใน - นอกสถานที่\nรับประกันความสวยด้วยช่างมืออาชีพ\nTel.0848730257  line id : pawwaw0257",
        "id": "1622921237979672",
        "location": {
            "city": "Rayong",
            "country": "Thailand",
            "latitude": 12.6742,
            "longitude": 101.279,
            "street": "558/12  ข้างแหลมทองระยอง ต.เนินพระ อ.เมือง"
        },
        "name": "ช่างแต่งหน้าทำผมระยอง' แป๋ว แอ๊ก '",
        "phone": "0848730257"
    },
    {
        "id": "893541040696512",
        "location": {
            "city": "Amphoe Chiang Rai",
            "country": "Thailand",
            "latitude": 19.897353930063,
            "longitude": 99.820846436085
        },
        "name": "ร้านนายบาสเมคอัพ ช่างแต่งหน้าเชียงราย",
        "phone": "0954474064"
    },
    {
        "id": "958084290908455",
        "location": {
            "city": "Bangkok",
            "country": "Thailand",
            "latitude": 13.707943,
            "longitude": 100.3961411,
            "street": "เพชรเกษม",
            "zip": "10230"
        },
        "name": "ช่างแต่งหน้าณเกศ CastงานโฆษณาDutchMill",
        "phone": "0815655464"
    },
    {
        "about": "สามารถติดต่อสอบถามได้นะคะ รับทำผมแต่งหน้าเจ้าสาว-ทำผมแต่งหน้ารับปริญญา และอื่นๆนะคะ\n",
        "id": "523727724400706",
        "location": {
            "city": "Pathum Thani",
            "country": "Thailand",
            "latitude": 13.965939300357,
            "longitude": 100.53564814431,
            "street": "วรุณพรซอย6",
            "zip": "12120"
        },
        "name": "ช่างปิ๋ม รับแต่งหน้าทำผมทั้งใน-นอกสถานที่",
        "phone": "0803028759"
    },
    {
        "id": "980561308633635",
        "name": "ช่างแต่งหน้าอุดรธานี"
    },
    {
        "about": "ช่างแต่งหน้าทำผมบ่าวสาว รับปริญญา หน้า ผม สวย ใส เป๊ะ เวอร์",
        "description": "บริการแต่งหน้าทำผมบ่าว-สาว รับปริญญา แต่งหน้าไปงาน พิธีการต่างๆ ด้วยเทคนิคการแก้ไขรูปหน้า ดวงตาที่โดดเด่น อ่อนหวาน เนรมิตให้คุณดุจดังเจ้าหญิง สนใจติดต่อ 087-5233218 ตฤณ 087-5355974 นะ ด้วยราคามิตรภาพ",
        "emails": [
            "pontawa_wedding@hotmail.com"
        ],
        "id": "650898341602239",
        "location": {
            "city": "Bangkok",
            "country": "Thailand",
            "latitude": 13.82341,
            "longitude": 100.52563,
            "street": "บางซื่อ",
            "zip": "10800"
        },
        "name": "ช่างแต่งหน้าทำผมบ่าวสาว รับปริญญา หน้า ผม สวย ใส เป๊ะ เวอร์",
        "phone": "087-5233218"
    },
    {
        "about": "รับทำผม-แต่งหน้า รับถ่ายภาพ \u003e\u003e ในราคากันเอง ",
        "id": "565674880142582",
        "location": {
            "city": "Nakhon Ratchasima",
            "country": "Thailand",
            "latitude": 14.959615474096,
            "longitude": 102.06066066906,
            "street": "เมือง",
            "zip": "30000"
        },
        "name": "รับทำผม-แต่งหน้า โดยช่างยิ้ม และถ่ายภาพโดยทีมงานมืออาชีพ",
        "phone": "095-772-0485 ช่างยิ้มค่ะ"
    }
]