[
    {
        "about": "Freelance Makeup artist specialized in Beauty makeup,Bridal and Indian bridal makeup,Fashion,Stage and Show makeup,Fantasy and Special effect makeup",
        "id": "718415431612079",
        "name": "Jaruwan Dufour Makeup Artist/หาช่าง ค้นหาช่าง ช่างแต่งหน้า ทำผม มืออาชีพ",
        "phone": "0847310915"
    },
    {
        "about": "www.weddingsquare.com/jeenaTel.  085 - 4436399  จีน่า",
        "id": "100399176787718",
        "name": "รับแต่งหน้าเจ้าสาวให้สวยด้วยช่างมืออาชีพ  9,000.- / รอบ"
    },
    {
        "about": "ทำผม แต่งงาน เจ้าสาว และรับปริญญา ทั้งกรุงเทพ และปริมณฑล\nAAMMAKEUP",
        "id": "1459614850996408",
        "name": "อ๋อมแอ๋ม ช่างแต่งหน้าทำผมฟรีแลนซ์ 081-7527826"
    },
    {
        "id": "339590976215557",
        "name": "ช่างแต่งหน้าอุดร Makeup Udon"
    },
    {
        "about": "รับแต่งหน้าทำผมเนื่องในโอกาศพิเศษต่างๆ\nรับจัดซุ้มแต่งงานจัดดอกไม้สดบายศรี",
        "id": "1594848360751654",
        "location": {
            "city": "Lamphun",
            "country": "Thailand",
            "latitude": 17.79602,
            "longitude": 98.90325,
            "street": "4  หมู่5 ตำบลป่าไผ่ อำเภอลี้ จังหวัดลำพูน",
            "zip": "51110"
        },
        "name": "ช่างแต่งหน้าอำเภอลี้-NewTun'Make up.",
        "phone": "0995672478"
    },
    {
        "about": "สวย เนียน เนิ่นนาน ลืมปัญหาหน้าสังขยาไปได้เลย",
        "description": "Natural Improvement  Make up คือ การแต่งหน้าสไสตล์กึ่งธรรมชาติ ที่เราเน้นที่การลบเลือนจุดด้อยปรับโครงหน้าให้ดูเข้ารูปโดยการสร้างมิติแสงเงาบนใบหน้า  และให้โดดเด่นยิ่งขึ้นที่ดวงตาโดยใช้เทคนิคพิเศษมาปรับโครงสร้างของดวงตาให้สมบูรณ์แบบที่สุดสิ่งสำคัญอีกสิ่งหนึ่ง คือ การเลือกขนตาชนิดเส้นละเอียดแผ่กระจายเส้นต่อเส้น เสมือนขนตาจริง ไม่ดูเป็นกันสาดหรือเป็นช่อจนดูจงใจเกินไป แม้ว่าคุณอยู่ระยะไกล ก็สวยเด่งจนต้องเหลียวหลัง เมื่อยามอยู่ใกล้ระยะประชิด ทุกรายละเอียดยังโดดเด่นและบางเบา\n             ด้วยเครื่องสำอางที่คัดสรรค์มาแล้วทั้งคุณภาพและแบร์นดัง  สามารถทำให้คุณ สวยเนียน เนิ่นนานตลอดทั้งงาน ไม่ว่าจะเป็นงาน  In door หรืองาน Out door  ก็คลายกังวลเรื่องหน้าสังขยาไปได้เลย ด้วยบริการที่เป็นกันเองเน้นความพอใจของคุณเป็นหลัก เพียงคุณตัดสินใจใช้บริการแต่งหน้าทำผมกับเรา คุณจะได้สัมผัสกับคำว่า สวยกว่าที่เคยสวย    สวยดั่งใช้แอพพลิเคชั่น\n                  เลือกเราเป็นผู้ดูแลคุณ  A-Make Natural Improvement  Make up             \n\n",
        "emails": [
            "a7day@windowslive.com"
        ],
        "id": "470930706265520",
        "location": {
            "city": "Bangkok",
            "country": "Thailand",
            "latitude": 13.8054895,
            "longitude": 100.8110199,
            "street": "Ladpraow",
            "zip": "10900"
        },
        "name": "ช่างแต่งหน้าเจ้าสาว แต่งหน้ารับปริญญา แต่งหน้าแฟชั่น โดย เอ ธนัช",
        "phone": "0846365469"
    },
    {
        "about": "makeuppopular.com บริการแต่งหน้า ทำผม ทุกโอกาส ทั้งในและนอกสถานที่ ราคาเป็นกันเอง",
        "id": "224545677669750",
        "location": {
            "city": "Bangkok",
            "country": "Thailand",
            "latitude": 13.7733498,
            "longitude": 100.6679688,
            "street": "รามคำแหง",
            "zip": "10240"
        },
        "name": "ช่างแต่งหน้า รับแต่งหน้าทำผมนอกสถานที่ค่ะ",
        "phone": "0850637258"
    },
    {
        "about": "ช่างแต่งหน้านครสวรรค์ นครสวรรค์",
        "id": "512194968827484",
        "location": {
            "city": "Nakhon Sawan",
            "country": "Thailand"
        },
        "name": "ช่างแต่งหน้าแป๊ะซะ by ภาคิน ไตรภูวนารท",
        "phone": "0866769322"
    },
    {
        "emails": [
            "vivibolove@gmail.com"
        ],
        "id": "738541146264904",
        "location": {
            "city": "Bangkok",
            "country": "Thailand"
        },
        "name": "Makeup artist ช่างแต่งหน้า By พี่โบวี่",
        "phone": "089-2157387"
    },
    {
        "about": "รับแต่งหน้าทำผมนอกสถานที่ 09-6497-5288 ไลน์ aummakeupcnx ",
        "description": "ช่างแต่งหน้าทำผมเชียงใหม่\nTel : 09-6497-5288\nLine : AUMMAKEUPCNX",
        "emails": [
            "charnphollaphat31@gmail.com"
        ],
        "id": "255790501288788",
        "location": {
            "city": "Amphoe Muang Chiang Mai",
            "country": "Thailand",
            "street": "Chiang Mai, Thailand",
            "zip": "50180"
        },
        "name": "Aummakeup chiangmai ช่างแต่งหน้า-ทำผม เชียงใหม่ ไม่แพง",
        "phone": "09-6497-5288"
    },
    {
        "about": "หมีเว้ดดิ้ง แต่งหน้า เช่าชุดแต่งงาน",
        "id": "950312638328464",
        "location": {
            "city": "Nakhon Ratchasima",
            "country": "Thailand",
            "latitude": 14.959615474096,
            "longitude": 102.06066066906,
            "street": "สนามกีฬากลางนครราชสีมา",
            "zip": "300000"
        },
        "name": "ช่างแต่งหน้า โคราช 081-2647046 By มีมี่",
        "phone": "0812647046"
    },
    {
        "about": "บริการ แต่งหน้า-ทำผม. ทุกระดับงาน.  ราคาสบายกระเป๋า",
        "id": "790372524339090",
        "name": "ช่างแต่งหน้า-ทำผม  byท่านชาย"
    },
    {
        "about": "รับสอนแต่งหน้า เริ่มตั้งแต่พื้นฐานจนไปถึงระดับมืออาชีพ ทั้งในและนอกสถานที่ ทั่วประเทศ\n\n",
        "emails": [
            "myaaasri@gmail.com"
        ],
        "id": "871469339567595",
        "location": {
            "city": "Jatujak",
            "street": "Wipavadee 22",
            "zip": "10900"
        },
        "name": "เรียนแต่งหน้า สอนแต่งหน้า แต่งหน้าตัวเอง แต่งหน้ามืออาชีพ โดยช่างมืออาชีพ",
        "phone": "086-880-4355"
    },
    {
        "id": "1485006511826636",
        "name": "ช่างแต่งหน้า-ทำผม ฟรีแลนซ์"
    },
    {
        "about": "บริการแต่งหน้า ทำผม ทุกโอกาส ",
        "id": "209783095855585",
        "name": "ลูกหมู เมคอัพ ช่างแต่งหน้าเชียงใหม่"
    },
    {
        "id": "676968135759384",
        "location": {
            "city": "Bangkok",
            "country": "Thailand",
            "latitude": 13.68365,
            "longitude": 100.4384766,
            "street": "ดอนเมือง",
            "zip": "10230"
        },
        "name": "ช่างแต่งหน้าณเกศ เจ้าสาวโคราช",
        "phone": "0815655464"
    },
    {
        "id": "1546894962251884",
        "location": {
            "city": "Bangkok",
            "country": "Thailand",
            "latitude": 13.81913,
            "longitude": 100.67546,
            "street": "บางนา",
            "zip": "10230"
        },
        "name": "ช่างแต่งหน้าณเกศ ถ่ายนิตยสาร FHM",
        "phone": "0815655464"
    },
    {
        "id": "246056852268240",
        "location": {
            "city": "Rangsit",
            "country": "Thailand",
            "latitude": 13.986330796106,
            "longitude": 100.60407486044,
            "street": "รังสิต",
            "zip": "12130"
        },
        "name": "รับแต่งหน้าทำผมรับปริญญา เจ้าสาว โดยช่างมืออาชีพ",
        "phone": "0880890724, 0968915187"
    },
    {
        "about": "บริการแสงสี เสียง ครบวงจร สนใจติดต่อ0811714811 ,0924179991",
        "description": "บริการแต่งหน้าทำผม 2500บาท งานรับปริญญา บริการทั่วทุกจังหวัด\nประสบการณ์ทำงานMAC 5 ปี สนใจติดต่อสอบถาม\n0924179991พี่นุ้ย\n",
        "id": "344229478936951",
        "location": {
            "city": "บางใหญ่",
            "street": "หมู่บ้านพระปิ่น3(หน้าตลาดพระปิ่น3)",
            "zip": "11140"
        },
        "name": "ร้านพี่นุ้ย ช่างแต่งหน้าทำผม"
    },
    {
        "about": "รับแต่งหน้าทำผม ทุกงาน ทุกแบบ ทุกสถานที่ \nสนใจติดต่อสอบถามไ้ด้จ้า\nID Line : puii-pui\nTel : 093 941 0964",
        "emails": [
            "lovable_puy@hotmail.com"
        ],
        "id": "723810391041037",
        "location": {
            "city": "เมืองระยอง",
            "zip": "21000"
        },
        "name": "Ratcha Makeup\u0026Hair design ช่างแต่งหน้าทำผมระยอง",
        "phone": "093 941 0964"
    },
    {
        "about": " พื้นที่แสดงผลงานของ ช่างภาพ ช่างวีดีโอ และช่างแต่งหน้า ",
        "emails": [
            "photoshareth@gmail.com"
        ],
        "id": "1612579912360421",
        "name": "หาช่างภาพ หาช่างวีดีโอ หาช่างแต่งหน้า Photoshare"
    },
    {
        "about": "วิกผมแฟชั่น\nวิกเกล้า \nทรงต่างๆมากมาย",
        "id": "1602415763373666",
        "name": "แต่งหน้า\u0026ทำผม\u0026เกล้าวิก โดย เอฟช่างผมร้อยหัว"
    },
    {
        "about": "ชักภาพ สตูดิโอ รับถ่ายภาพทุกประเภท : Tel. 088-333-663-1 Line / IG : chuckpabstudio \n© www.fb.com/ChuckpabStudio",
        "id": "1640314562872937",
        "name": "ช่างภาพอุดรธานี รับถ่ายภาพ งานแต่ง รับปริญญา อีเว้นท์ แต่งหน้า ทำผม"
    },
    {
        "id": "967512193297018",
        "location": {
            "city": "Bangkok",
            "country": "Thailand",
            "latitude": 13.8030796,
            "longitude": 100.8133087,
            "street": "ประเทศไทย",
            "zip": "10230"
        },
        "name": "ช่างแต่งหน้าณเกศ เครื่องสำอางค์ไทย Brandใหม่ Alayna",
        "phone": "025782290"
    },
    {
        "about": "แต่งช่างเซอร์ฝากได้นร้าแอดไม่หยิ่ง #ฝากไลค์เพจด้วย \u003e\u003c",
        "id": "359595210856238",
        "name": "ช่างแต่งเซอร'ร์"
    }
]