[
    {
        "about": "บริการแต่งหน้า-ทำผม ทุกรูปแบบ",
        "description": "-บริการแต่งหน้า-ทำผม เจ้าสาว รับปริญญาทุกมหาวิทยาลัย นางแบบ นางงาม แฟชั่น ไปงานต่างๆ  รับหมดทุกสไตล์ค่ะ\n-บริการในจังหวัดเชียงใหม่ และต่างจังหวัดค่ะ\n-ติดต่อได้ที่ 085-1079400 (บอย)\n  LINE : boymakeup\n  Ibstagram : boymakeup ",
        "emails": [
            "pretty_zuza9113@hotmail.com"
        ],
        "id": "608266565868718",
        "location": {
            "city": "Chiang Mai",
            "country": "Thailand",
            "latitude": 18.7622604,
            "longitude": 98.9929581,
            "street": "เชียงใหม่",
            "zip": "50000"
        },
        "name": "BOY MAKE UP  ช่างแต่งหน้า-ทำผมเชียงใหม่",
        "phone": "085-1079400"
    },
    {
        "about": "บริการแต่งหน้า ทำผม เจ้าสาว รับปริญญา ออกงาน และทุกโอกาส\n",
        "description": "บริการแต่งหน้าทำผม ทุกโอกาส เครื่องสำอางคุณภาพ  ราคากันเอง ",
        "emails": [
            "princess_mashimaro@hotmail.com"
        ],
        "id": "755949391113830",
        "location": {
            "city": "Chiang Mai",
            "country": "Thailand",
            "latitude": 18.7903,
            "longitude": 98.9817,
            "zip": "50140"
        },
        "name": "NITDA Make-up ช่างแต่งหน้าเชียงใหม่",
        "phone": "0895531805"
    },
    {
        "id": "169323603258290",
        "name": "ช่างเด่น รับแต่งหน้าเจ้าสาว รับปริญญา ชุดวิวาห์ให้เช่าราคาถูก",
        "phone": "0849144654"
    },
    {
        "description": "รับแต่งหน้าในงานหรือวันสำคัญต่างๆของคุณ และเปิดครอสสอนแต่งหน้า ทั้งรายบุคคลและรายกลุ่ม สนใจติดต่อผ่านแฟนเพจ หรือ ที่ tunyawan_edc@hotmail.com ค่ะ",
        "id": "115710781959946",
        "location": {
            "city": "ชลบุรี"
        },
        "name": "ช่างแต่งหน้าชลบุรี และพื้นที่ใกล้เคียง makeup by tunya1"
    },
    {
        "about": "รับแต่งหน้า - ทำผม ในและนอกสถานนี่ งานรับปริญญา/งานแต่ง/Pre wedding/แต่งหน้าไปงานต่าง ๆ ",
        "description": "รับแต่งหน้า - ทำผม ในและนอกสถานที่ งานรับปริญญา/งานแต่ง/Pre wedding/แต่งหน้าไปงานปาร์ตี้ งานเลี้ยง ฯลฯ มันใจในคุณภาพและบริการ ทางร้านใช้เครื่องสำอางค์เค้าเตอร์แบรนด์อย่างดี \nติดต่อสอบถาม 094-787-0250 ,Line: jibngai ",
        "id": "224070774437179",
        "location": {
            "city": "Bangkok",
            "country": "Thailand",
            "latitude": 13.6761198,
            "longitude": 100.5914764,
            "street": "คันทรี่ คอมเพล็กซ์ คอนโด อาคารซี สรรพาวุธ บางนา",
            "zip": "10260"
        },
        "name": "รับแต่งหน้าทำผม โดย จุ๊บจิ๊บช่างแต่งหน้า-JubJib makeup",
        "phone": "0961696463"
    },
    {
        "about": "รับจัดอะไหล่ไฟหน้า/กันชัน/มองข้างbmwe60e39e66e90z4 benz211s280c180ยุโรป/ญี่ปุ่นทุกรุ่น",
        "description": "ขายของมือ2",
        "emails": [
            "thavechai2010@hotmail.com"
        ],
        "id": "264437517011581",
        "location": {
            "street": "810 จรัล 13 ปากซอยบาวงแวก78",
            "zip": "10160"
        },
        "name": "ทวีชัยการช่าง ขายไฟหน้ารถยนต์มือสองแท้ทุกรุ่นกะบะ เก๋ง ไฟแต่งแท้",
        "phone": "0814310403"
    },
    {
        "about": "บริการรับแต่งหน้าในโอกาสสำคัญของคุณ สนใจติดต่อ 0843235438 Line:iballbar2557",
        "id": "535432253163056",
        "name": "ช่างแต่งหน้า-รับแต่งหน้าทำผม",
        "phone": "0843235438"
    },
    {
        "about": "I'm make up artist who like to create the new look ",
        "id": "432332663467334",
        "location": {
            "city": "Bangkok",
            "country": "Thailand",
            "latitude": 13.8054895,
            "longitude": 100.8110199,
            "street": "พญาไท",
            "zip": "10330"
        },
        "name": "บริการแต่งหน้ารับปริญญา  งานอีเว้น  ฯลฯ โดยช่างแอนนี่",
        "phone": "0824922855"
    },
    {
        "about": "กลุ่มช่างแต่งหน้า ทำผม การันตีคุณภาพค่ะ",
        "description": "รับแต่งหน้าทำผม รับปริญญา เจ้าสาว และทุกวาระโอกาส ทั่วประเทศ\nรับถ่ายภาพทั้งในและนอกสถานที่ สนใจ \nId line : manazarr\nId line : temtuntongtae",
        "id": "495648803857789",
        "name": "ช่างแต่งหน้า Make-up beauty"
    },
    {
        "id": "516164458425494",
        "location": {
            "city": "Bangkok",
            "country": "Thailand",
            "latitude": 13.75395,
            "longitude": 100.50224,
            "street": "bangkapi"
        },
        "name": "ช่างแต่งหน้าทำผม,มืออาชีพราคาถูก",
        "phone": "0847877593"
    },
    {
        "about": "รับแต่งหน้า ทำผม To 08 2449 2417\nLine:Phutada_1988\nIg:PHUTADA1\nwww.phutadamakeup.com",
        "id": "294630240667405",
        "name": "ช่างแต่งหน้า ทำผม ภูธดา รับแต่งหน้า ทำผม",
        "phone": "0824492417"
    },
    {
        "about": "รับแต่งหน้าทำผมนอกสถานที่ ต่างจังหวัด กทม ปริมณฑล ราคากันเอง สบายกระเป๋าคะ \nContract 095 985 4058 line : Avaeveava ",
        "id": "1030324036995588",
        "location": {
            "street": "bangkok, chonburi"
        },
        "name": "Ava makeup ช่างแต่งหน้า"
    },
    {
        "description": "รับแต่งหน้า ทำผม\n งานบายเนียร์ งานรับปริญญา งานแต่งงาน\nสนใจติดต่อ 0874181623 มิว , Line:saniporn_me",
        "emails": [
            "e.noo@hotmail.com"
        ],
        "id": "171829079552252",
        "location": {
            "city": "26/7 Moo.1 Kathu, Phuket 83120"
        },
        "name": "Melovely Makeup  ช่างแต่งหน้าภูเก็ต รับปริญญา Prewedding ฯลฯ",
        "phone": "087-4181623 คุณมิว"
    },
    {
        "about": "ดูเบอร์ติดต่อช่างได้ในส่วนของ About ตรงนี้เลยนะ\n",
        "description": "เบอร์ติดต่อช่างแต่งหน้าในจังหวัดภูเก็ต\n\nเอ็ม Phuket Duo Makeup : 096 6351524\nโบโบ้ Bobomakeup : 089 471 5069\nปอนด์ Makeup Masterclass : 089 731 8507\nเป้า Makeup Neversleep : 087 932 1982\nพีท Pete Makeup : 086 416 7326\nจุก Pattie Jookie : 084 440 1400\nวา Riski Wedding : 087 417 6031\nเปิ้ล Watchasan : 088 394 0619\nกุ้ง K\u0026K Makeup : 083 633 3288\nพี่มล : 086 278 2769\n\nช่างทำผม\nคม : 084 507 0227\nคิม เกียรติศักดิ์ : 093 104 1713",
        "id": "736271329835009",
        "location": {
            "city": "Changwat Phuket",
            "country": "Thailand"
        },
        "name": "ช่างแต่งหน้าภูเก็ต Phuket Makeup Artists"
    },
    {
        "about": "ช่างแต่งหน้า \u0026 ทำผม",
        "id": "220681544776227",
        "location": {
            "city": "Bangkok",
            "country": "Thailand",
            "latitude": 13.70107,
            "longitude": 99.74072,
            "street": "โพธาราม",
            "zip": "70120"
        },
        "name": "ช่างแต่งหน้า \u0026 ทำผม มืออาชีพ",
        "phone": "0919928244"
    },
    {
        "about": "เปิดกรุ๊ปแต่งหน้าทำผม น้องๆ มหาวิทยาลัยรามคำแหง",
        "id": "613193722094179",
        "location": {
            "city": "Bangkok",
            "country": "Thailand",
            "latitude": 13.774,
            "longitude": 100.65728,
            "street": "หัวหมาก บางกะปิ",
            "zip": "10240"
        },
        "name": "ช่างแต่งหน้า รับปริญญา มืออาชีพ",
        "phone": "0851463446"
    },
    {
        "about": "สูตรดารา มาตราฐานCeleb ให้บริการ24ชั่วโมง line:hanhyera2  โทร .081-565-5464",
        "id": "1472600142999741",
        "name": "ช่างแต่งหน้าณเกศ สูตรดารา มาตราฐานCeleb",
        "phone": "0815655464"
    },
    {
        "about": "รับแต่งหน้า-ทำผม เจ้าสาว รับปริญญา งานต่างๆ เชียงราย เชียงใหม่ พะเยา\nTel.087-8195022   \nLine Id jeabmakeup99                         ",
        "description": " บริการแต่งหน้า ทำผม รับปริญญา เจ้าสาว แต่งหน้าไปงานต่างๆ \nทั้ง เชียงราย เชียงใหม่ พะเยา กรุงเทพฯ \nด้วยเครื่องสำอางแบรนด์เนม ติดทนตลอดวัน \nTel.087-8195022 คุณเจี๊ยบ     \nId.jeabmakeup99                                                                                          \n                                              ",
        "emails": [
            "bjeab2552@hotmait.com"
        ],
        "id": "507153105966815",
        "location": {
            "city": "เชียงราย เชียงใหม่ พะเยา กรุงเทพฯ                              "
        },
        "name": "ช่างแต่งหน้า-ทำผม เชียงราย เชียงใหม่ พะเยา",
        "phone": "0878195022"
    },
    {
        "id": "159095464288359",
        "location": {
            "city": "Bangkok",
            "country": "Thailand",
            "latitude": 13.75395,
            "longitude": 100.50224,
            "street": "ิbangkok",
            "zip": "10320"
        },
        "name": "ช่างแต่งหน้า โดย แบงค์ 0804469944",
        "phone": "080-4469944"
    },
    {
        "id": "892989124071461",
        "location": {
            "city": "Udon Thani",
            "country": "Thailand",
            "latitude": 17.42029,
            "longitude": 102.7702637,
            "street": "อุดรธานี",
            "zip": "41000"
        },
        "name": "ช่างแต่งหน้ารับปริญา เจ้าสาว งานเลี้ยงทั่วประเทศ",
        "phone": "0962411508"
    },
    {
        "about": "รับแต่งหน้าทำผมเจ้าสาว งานรับปริญญา  บายเนียร์",
        "description": "\"เราทำให้คุณสวยที่สุด  ในแบบที่เป็นคุณ\" การแต่งหน้าและทำผม\nแบบประณีตและบรรจงทำให้คุณสวยที่สุดในแบบที่คุณเป็น\nในงานที่สำคัญทั้งงานหมั้น งานแต่งงาน\n พิธีพระราชทานปริญญาบัตร รับปริญญา เราพร้อมที่จะให้บริการทุกท่านค่ะ",
        "id": "665498693464871",
        "location": {
            "city": "Chiang Mai",
            "country": "Thailand",
            "latitude": 18.845326226291,
            "longitude": 99.043554889446,
            "street": "425/6 ต.สันทรายหลวง อ.สันทราย จ.เชียงใหม่",
            "zip": "50210"
        },
        "name": "ช่างแต่งหน้าทำผมเชียงใหม่ มิว มิวโมนิก้า  แฮร์ซาลอนเน่",
        "phone": "0817839639"
    },
    {
        "about": "ติดตามเพจใหม่ที่ http://www.facebook.com/toymakeupart\nTel: 084-9048497  LineID: toymakeupart",
        "id": "646024378756770",
        "name": "รับสอนแต่งหน้า เรียนแต่งหน้าราคาถูก โดยช่างมืออาชีพ Toy Makeup Art"
    },
    {
        "about": "รับแต่งหน้าทั่วภูเก็ต",
        "description": "รับแต่งหน้า-ทำผมนอกสถานที่ด้วยเครื่องสำอางเคาทเตอร์แบรนด์  ออกงาน-เจ้าสาว-รับปริญญา-ถ่ายแฟชั่น-แฟนซี-กีฬาสี-พาเหรด",
        "emails": [
            "postboys96@gmail.com"
        ],
        "id": "1673615642871582",
        "location": {
            "city": "Phuket",
            "country": "Thailand",
            "latitude": 7.8793063,
            "longitude": 98.3927078,
            "street": "40/3 ม.2 ต.ราไวย์ ถ.วิเศษ",
            "zip": "83130"
        },
        "name": "ช่างแต่งหน้าภูเก็ต BANK make up",
        "phone": "0887688436"
    },
    {
        "about": "รับแต่งหน้าทำผมเจ้าสาว รับปริญญา ออกงาน \nMakeup \u0026 Hairstylist by Nui Blissmore\nTel : 091-7046420\nwww.makeupbynuiblissmore.com\n",
        "description": "รับแต่งหน้าทำผมเจ้าสาว รับปริญญา ออกงาน \nMakeup \u0026 Hairstylist by Nui Blissmore\nTel : 091-7046420",
        "id": "548698991934796",
        "location": {
            "city": "Pathum Thani",
            "country": "Thailand",
            "street": "ลำลูกกาคลองสอง อ.ลำลูกกา",
            "zip": "12130"
        },
        "name": "Makeup by Nui Blissmore ช่างแต่งหน้าทำผมนอกสถานที่ Tel.091-7046420",
        "phone": "091-7046420"
    },
    {
        "about": "รับแต่งหน้าเจ้าสาว แต่งหน้ารับปริญญา แต่งหน้าเพื่อนเจ้าสาว",
        "emails": [
            "oui_up@hotmail.com"
        ],
        "id": "639422032812517",
        "location": {
            "city": "ลำพูน",
            "street": "190/1 ถ.รอบเมืองนอก ต.ในเมือง อ.เมือง",
            "zip": "51000"
        },
        "name": "Ticha Makeup World : ช่างแต่งหน้า เชียงใหม่ ลำพูน",
        "phone": "0908914689"
    }
]