[
    {
        "id": "1459553291010273",
        "name": "Makeup By Mimmie ช่างแต่งหน้า รับแต่งหน้า ภาคกลาง อยุธยา อ่างทอง สุพรรณบุรี"
    },
    {
        "id": "418187498366974",
        "name": "ยาซีน ยาซีน ช่างแต่งหน้า"
    },
    {
        "about": "ฝากลงรูปได้นะ  ขอแต่งช่าง แอดมินใจดี  \u003c3  :3",
        "id": "160656857444638",
        "name": "สมาคมหนุ่มสาวนิยมช่าง  แต่งช่างเถื่อนคลาสสิค"
    },
    {
        "id": "1674439742792195",
        "name": "ธุรกิจส่วนตัว สปา\u0026เสริมสวย .ช่างแต่งหน้ามืออาชีพ"
    },
    {
        "id": "1591345531102574",
        "name": "ทีมงานเด็กช่างแต่งใบ"
    },
    {
        "id": "1705518036349915",
        "name": "Freelance Hair \u0026 Make-up Artist - ช่างแต่งหน้าทำผม"
    },
    {
        "about": "นิยมแต่งช่าง",
        "id": "361921623971525",
        "name": "สมาคมนิยมช่างแต่งเซอร์"
    },
    {
        "id": "1610865349143108",
        "name": "เด็กช่างแต่งแรงทีมงานชักสูง"
    },
    {
        "id": "1061872123842262",
        "location": {
            "city": "Bangkok",
            "country": "Thailand",
            "latitude": 13.6627735,
            "longitude": 100.502721
        },
        "name": "พิพัฒน์พงษ์การช่าง แต่งรถตู้"
    },
    {
        "id": "1057065967652018",
        "location": {
            "city": "Bangkok",
            "country": "Thailand",
            "latitude": 13.8030796,
            "longitude": 100.8133087,
            "street": "กรุงเทพ",
            "zip": "10310"
        },
        "name": "ช่างแต่งหน้าณเกศ ชุดไทยกินรี",
        "phone": "0815655464"
    },
    {
        "id": "1054981691184564",
        "location": {
            "city": "Bangkok",
            "country": "Thailand",
            "latitude": 13.77195,
            "longitude": 100.59684,
            "street": "อุดมสุข",
            "zip": "10310"
        },
        "name": "ช่างแต่งหน้าณเกศ Lady GAGA",
        "phone": "0815655464"
    },
    {
        "id": "968241963220825",
        "location": {
            "city": "Bangkok",
            "country": "Thailand",
            "latitude": 13.7340814,
            "longitude": 100.24242853
        },
        "name": "สถานที่จัดงานแต่งเรือนไทย ที่มีช่างภาพหน้าตาเหมือนณเดช และเจมส์จิ มาถ่ายงาน"
    },
    {
        "id": "941378495887152",
        "location": {
            "city": "Bangkok",
            "country": "Thailand",
            "latitude": 13.81913,
            "longitude": 100.67546,
            "street": "อุดมสุข",
            "zip": "10230"
        },
        "name": "ช่างแต่งหน้าณเกศ นิตยสารoptimize ผู้บริหารuniriver",
        "phone": "0815655464"
    },
    {
        "id": "925943344101595",
        "location": {
            "city": "Bangkok",
            "country": "Thailand",
            "latitude": 13.91220355,
            "longitude": 100.5539005
        },
        "name": "บ้านช่างแต่งหน้าหมูน้อย"
    },
    {
        "id": "910439855679490",
        "location": {
            "city": "Maha Sarakham",
            "country": "Thailand",
            "latitude": 16.1833,
            "longitude": 103.3
        },
        "name": "คณะศิลปกรรมศาสตร์ที่มีนักศึกษาหน้าตาดิบเถื่อนและแต่งตัวเหมือนเด็กเลี้ยงช้าง"
    },
    {
        "about": "รับแต่งหน้าเจ้าสาว รับปริญญาทั่วประเทศ\nติดต่อ line id beautoo\nโทร 0612353279",
        "id": "1441925342788836",
        "location": {
            "city": "Bangkok",
            "country": "Thailand",
            "latitude": 13.7522,
            "longitude": 100.494,
            "street": "freelance ทั่วประเทศ",
            "zip": "86000"
        },
        "name": "แต่งหน้าเจ้าสาว รับปริญญา ช่างแต่งหน้าบิวตี้",
        "phone": "0612353279"
    },
    {
        "id": "866636833356212",
        "location": {
            "city": "Bangkok",
            "country": "Thailand",
            "latitude": 13.7175036,
            "longitude": 100.536322
        },
        "name": "มหาวิทยาลัยชื่อดังย่านนางลิ้นจี่ที่มีแต่เด็กช่างแต่งตัวเฟี้ยวเงาะมาเรียน"
    },
    {
        "about": "รับแต่งหน้าทำผมนอกสถานที่ งบน้อยก็สวยหล่อได้ โดย ช่างมืออาชีพ ",
        "description": "รับแต่งหน้าทำผมนอกสถานที่ เจ้าสาว รับปริญญา ออกงานกลางวัน กลางคืน สวยถูกแบบมืออาชีพ งบน้อยก็สวยหล่อได้ โดย ช่างมืออาชีพ ",
        "id": "858166247574620",
        "location": {
            "city": "Bangkok",
            "country": "Thailand",
            "latitude": 13.800221488379,
            "longitude": 100.62695645043,
            "street": "Ladprao101",
            "zip": "10240"
        },
        "name": "รับแต่งหน้าทำผมนอกสถานที่ ราคาถูกมากๆโดย ช่างมืออาชีพ",
        "phone": "0948645500"
    },
    {
        "id": "788667834573538",
        "location": {
            "city": "Bangkok",
            "country": "Thailand",
            "latitude": 13.81913,
            "longitude": 100.67546,
            "street": "Bangkok",
            "zip": "10230"
        },
        "name": "ช่างแต่งหน้าณเกศ พี่ตูน bodyslam",
        "phone": "0815655464"
    },
    {
        "id": "788231397958716",
        "location": {
            "city": "Bangkok",
            "country": "Thailand",
            "latitude": 13.662742,
            "longitude": 100.5026989
        },
        "name": "หจก.พิพัฒนพงษ์ การช่างแต่งรถตู้ ถ.ประชาอุทิศ"
    },
    {
        "id": "744286218948731",
        "location": {
            "city": "Kalai",
            "latitude": 8.309309,
            "longitude": 98.392753
        },
        "name": "บ้านช่างแต่งหน้า - จี้เอ๋"
    },
    {
        "id": "1587536611507757",
        "location": {
            "city": "Bangkok",
            "country": "Thailand",
            "latitude": 13.717664961408,
            "longitude": 100.43138980865
        },
        "name": "ร้านล้างรถในซอย 58 ที่มีแต่รถแรงๆ ช่างแต่งตัวหล่อๆ"
    },
    {
        "id": "1651909361701989",
        "location": {
            "city": "Chiang Saen",
            "country": "Thailand",
            "latitude": 20.2703563,
            "longitude": 100.0849563
        },
        "name": "บ้านของช่างแต่งหน้าประจำตระกูล"
    },
    {
        "id": "1644280979121185",
        "location": {
            "city": "Bangkok",
            "country": "Thailand",
            "latitude": 13.8030796,
            "longitude": 100.8133087,
            "street": "กรุงเทพ",
            "zip": "10310"
        },
        "name": "ช่างแต่งหน้าณเกศ Miss J Mobile By J Mart",
        "phone": "0815655464"
    },
    {
        "id": "1624994977773494",
        "location": {
            "city": "Bangkok",
            "country": "Thailand",
            "latitude": 13.7246237,
            "longitude": 100.5647125,
            "street": "สุขุมวิท",
            "zip": "10230"
        },
        "name": "ช่างแต่งหน้าณเกศ Audition นักแสดง KBS",
        "phone": "0815655464"
    }
]