[
    {
        "about": "รับแต่งหน้าทำผมนอกสถานที่ในตัวเมืองเชียงใหม่ ราคากันเอง",
        "id": "480399585383681",
        "location": {
            "city": "Chiang Mai",
            "country": "Thailand",
            "latitude": 18.83117,
            "longitude": 98.95191,
            "street": "เมือง",
            "zip": "50300"
        },
        "name": "ช่างแต่งหน้าทำผมเชียงใหม่ราคากันเอง",
        "phone": "0903197254"
    },
    {
        "about": "รับบริการแต่งหน้า-ทำผม ในทุกๆโอกาส\n086-5772666",
        "emails": [
            "chomcare@gmail.com"
        ],
        "id": "1520697011475153",
        "location": {
            "city": "Bangkok",
            "country": "Thailand",
            "latitude": 13.77654,
            "longitude": 100.51799,
            "street": "ราชวัตร เขตดุสิต กรุงเทพ",
            "zip": "10300"
        },
        "name": "ช่างแต่งหน้าทำผมอาชีพTop\u0026Ople",
        "phone": "0865772666"
    },
    {
        "about": "รับแต่งหน้าทำผม แต่งหน้าเจ้าสาว แต่งหน้ารับปริญญา\nติดต่อ : Line/Tel 083-922-1141,082-888-1990",
        "description": "ยินดีต้อนรับ สู่ Charmy Make Up By Meple (ช่างแต่งหน้าทำผมมืออาชีพ)\n\nบริการแต่งหน้า-ทำผมทุกโอกาสพิเศษของคุณ แต่งหน้ารับปริญญา แต่งหน้าเจ้าสาว ด้วย Make Up Artist มืออาชีพ ในราคาที่คุณไม่สามารถปฏิเสธได้เลยค่ะ\n\nในวันสำคัญของคุณให้โอกาสเราดูแลคุณนะคะ\n\nมั่นใจได้ในผลงานและสวยติดทนยาวนานเช้าจนดึก สวยแป๊ะตามความต้องการของลูกค้าเลยคะ\n\nด้วยเครื่องสำอางค์คุณภาพ จากเคาน์เตอร์แบรนเนมทุกชิ้น\n\nฝีมือละเอียดปราณีต เราเน้นที่ความเพอร์เฟ็คใส่ใจในทุกรายละเอียด ไม่ว่าจะเป็นการแก้ไขจุดบกพร่องบนใบหน้า เสริมจุดเด่น ลบจุดด้อย ระดับความเข้มของสีสันบนใบหน้าทุกจุดจะต้องลงตัว และดูละมุนสบายตาแต่ว่าถ่ายรูปแล้วขึ้นกล้อง ไม่จืดจนเกินไป หรือเข้มจนเกินไป\n\nเพื่อให้คุณสวยและสง่าที่สุด\n  \nเราบริการคุณด้วยรอยยิ้มและมิตรภาพที่ดีค่ะ\n\nติดต่อเปิ้ล   Tel : 083-922-1141,082-888-1990\n                  Line ID : supaporn_ple\n\nทางเรามีบริการให้เช่าชุดแต่งงานเช่า ราคาถูก\n",
        "emails": [
            "charmymakeupbymeple@gmail.com"
        ],
        "id": "386416928130314",
        "location": {
            "city": "Bangkok",
            "country": "Thailand",
            "zip": "10900"
        },
        "name": "ช่างแต่งหน้า ช่างทำผม By Meple Make up",
        "phone": "083-922-1141"
    },
    {
        "about": "บริการ แต่งหน้า-ทำผม ",
        "description": "บริการ แต่งหน้า-ทำผม เจ้าสาว รับปริญญา เชียร์ลีดเดอร์ การแสดง และงานเลี้ยงในโอกาสพิเศษต่างๆ \nสนใจติดต่อ 091-883-7828 ไลน์ไอดี pigkijuppy",
        "emails": [
            "juppy_makeup@hotmail.com"
        ],
        "id": "586479141413699",
        "location": {
            "city": "นนทบุรี",
            "street": "บางบัวทอง",
            "zip": "11110"
        },
        "name": "ช่างแต่งหน้า_ทำผม JUPPY Makeup",
        "phone": "0918837828"
    },
    {
        "about": "บริการแต่งหน้าและถ่ายภาพทุกประเภท",
        "description": "Hello everyone! Welcome you all to K\u0026K Make Up Artist! My name is “Kung” and I have worked as a Make Up Artist for Shu Uemura for five years. Presently, I decided to start my own freelance job which is this K\u0026K Make Up Artist. Our style of make up will be the same style as Shu Uemura’s and we only use the cosmetics from Shu Uemura. More than make up, K\u0026K Make Up also provides hair styling for weddings, pre-weddings, graduations/commencements and every opportunity as you wish. Please don’t hesitate to contact us. It is our pleasure to serve you. Thank you.\n\nสวัสดีค่ะ ยินดีต้อนรับทุกท่านเข้าสู่K\u0026K Make Up Artistค่ะ ก่อนอื่นแนะนำตัวเองก่อน ชื่อ กุ้ง ค่ะ เคยเป็น Make Up Shu Uemura เป็นเวลาเกือบ 5 ปี แต่ตอนนี้ได้ออกมารับงานนอกสถานที่แทนแล้ว สไตล์การแต่งและเครื่องสำอางค์จะเป็นของ Shu Uemura ทั้งหมด K\u0026K Make Up บริการแต่งหน้าทำผม งานแต่งงาน พรีเวดดิ้ง งานรับปริญญา และทุกโอกาสที่คุณต้องการ เรียกเราเนรมิตรความสวยให้แก่คุณ ^^",
        "emails": [
            "tanawatchualaowanich@gmail.com"
        ],
        "id": "262035130597052",
        "location": {
            "city": "Phuket",
            "country": "Thailand",
            "street": "ถลาง",
            "zip": "83000"
        },
        "name": "ช่างแต่งหน้าทำผมภูเก็ต K\u0026K Make up artist Phuket",
        "phone": "083 6333288 088 4506179"
    },
    {
        "about": "ช่างแต่งหน้า-ทำผม  Make-up Artist  087-0443797 (แคร์)",
        "emails": [
            "caremakeup@hotmail.com"
        ],
        "id": "445534428800802",
        "location": {
            "street": "กรุงเทพ"
        },
        "name": "ช่างแต่งหน้า-ทำผม  Make-up Artist  (แคร์) 087-0443797",
        "phone": "087-0443797 แคร์ค่ะ"
    },
    {
        "about": "Freelance Makeup Artist\nแต่งหน้า-ทำผม เริ่มต้น 1,500 บาท \nig : gubgiftmakeup\nLine : ggub_gift\nโทร: 0922831298 ติดต่อได้ 24 ชม.",
        "description": "Gub Gift Makeup Artist\u0026Hairstylist\nBeautiful just the way you want\nThank you.\n",
        "id": "360782784046407",
        "location": {
            "city": "Lat Krabang",
            "country": "Thailand",
            "latitude": 13.7223549,
            "longitude": 100.7468567,
            "street": "188/186",
            "zip": "10520"
        },
        "name": "ช่างแต่งหน้า+ทำผม Gub Gift Makeup",
        "phone": "+66922831298"
    },
    {
        "about": "ช่างแต่งหน้า ทำผมอิสระ ราคากันเอง สอบถามได้ครับ :)) tel ; 099-3151665 line id ; 121531",
        "id": "889665434424922",
        "location": {
            "city": "line id ; 121531",
            "street": "Tel ; 099-3151665"
        },
        "name": "ช่างแต่งหน้า ทำผม ภาคใต้ฟรีแลนซ์ Augustmakeup"
    },
    {
        "about": "ช่างแต่งหน้า (เชียงใหม่) \n0805068760\nรับแต่งหน้าทำผมรับปริญญา\nเจ้าสาว ..งานแต่ง\nงานประกวด\n ",
        "description": "บริการแต่งหน้าทำผม ทุกโอกาสสำคัญต่าง\n*แต่งหน้าเจ้าสาว\n*แต่งหน้ารับปริญญา\n*แต่งหน้าบายเนียร์ ออกงาน\n*งานประกวดต่างๆ\nราคาเหมาะสมกับเครื่องสำอางค์ที่ใช้ เป็นเครื่องสำอางค์เคารืเตอรืแบรนเนม",
        "emails": [
            "ken_no_pom_pam_@windowslive.com"
        ],
        "id": "1557053147866562",
        "location": {
            "city": "อ.เมือง จ.เชียงใหม่",
            "street": "30 อาคารภูสยามเพลส ซอยสุขเกษม ถ.นิมมานเหมินตร์ ต.สุเทพ",
            "zip": "50200"
        },
        "name": "ช่างแต่งหน้าเชียงใหม่ - Champ ' Make up artist",
        "phone": "0805068760"
    },
    {
        "about": "บริการทั้งในและนอกสถานที่ ทั่วไทย จองนัดคิวล่วงหน้าหรือสอบถาม0940582471 line id0918592362 Kimmy",
        "id": "1603289979910416",
        "location": {
            "city": "Chiang Mai",
            "country": "Thailand",
            "latitude": 18.8160992,
            "longitude": 98.9685287,
            "street": "หมู่บ้านอรสิริน6 เชียงใหม่",
            "zip": "50220"
        },
        "name": "ช่างแต่งหน้ามืออาชีพ Kimmy",
        "phone": "0940582471"
    },
    {
        "about": "บริการแต่งหน้าทำผมทั่วประเทศโดยช่างมืออาชีพ",
        "description": "เคนโด้เมคอัพ 087-871935 เครื่องสำอางค์แบรนดัง ช่างประสบการณ์สูง รับรองความพอใจของลูกค้า ด้วยประสบการณ์มากกว่า 25 ปี\nหรือดูข้อมูลการเปิดกรุ๊ปแต่งหน้ารับปริญญาได้ที่ www.weddingnonsung.com",
        "emails": [
            "jullaphat@windowslive.com"
        ],
        "id": "383626205079648",
        "location": {
            "latitude": 13.7522,
            "longitude": 100.494,
            "street": "โรงแรมสวัสดีข้าวสารอินน์ ถ.ข้าวสาร",
            "zip": "30160"
        },
        "name": "ช่างแต่งหน้า By Kendo Make up",
        "phone": "0878719315"
    },
    {
        "about": "ให้คุณสวยได้ ด้วยมืออาชีพ\nแต่งหน้าทำผม สักคิ้ว3มิติ",
        "description": "ทุกเรื่องความสวยความงาม แต่งหน้า ทำผม สักปากชมพู สักคิ้วลายเส้น3มิติ\nยิ่งคุณสวย คุณยิ่งมั่นใจ ",
        "emails": [
            "change_sansan@hotmail.com"
        ],
        "id": "171112216402400",
        "location": {
            "city": "Bangkok",
            "country": "Thailand",
            "latitude": 13.860934670333,
            "longitude": 100.71370840073,
            "street": "แขวงบางชัน เขตคลองสามวา",
            "zip": "10510"
        },
        "name": "ช่างแต่งหน้า ทำผม มืออาชีพ",
        "phone": "090-5615624"
    },
    {
        "about": "รับแต่งหน้า ทำผม เจ้าสาว  pre wedding รับปริญญา  งานต่างๆ Tel: 087 713 9559",
        "description": "Make up \u0026 Hair by siri บริการแต่งหน้า-ทำผม   โทร 087 713 9559 \n\nรายละเอียด\nบริการแต่งหน้าทำผม ทั้งในและนอกสถานที่   โดยเครื่องสำอางเคาเตอร์แบรนด์\n-แต่งหน้าทำผมคู่บ่าวสาว   งานพิธีเช้า  และงานพิธีเย็น   pre wedding\n-แต่งหน้าทำผมงานรับปริญญา\nและแต่งหน้าไปงานต่างๆ  \n\nติดต่อสอบถามรายละเอียดได้ที่  087 713 9559  \nE-mail :  siri_makeup15@hotmail.com \n",
        "emails": [
            "siri_makeup15@hotmail.com"
        ],
        "id": "305780072874206",
        "location": {
            "street": "Pathum Thani"
        },
        "name": "ช่างแต่งหน้า-ทำผม Make up \u0026 Hair by Siri",
        "phone": "087 713 9559 "
    },
    {
        "id": "910752682291829",
        "location": {
            "city": "Bangkok",
            "country": "Thailand",
            "latitude": 13.776165,
            "longitude": 100.491127,
            "street": "163 บีอาร์อพาทเมนท์ ห้อง210 จรัญสนืทวงศ์44 บางยี่ขัน บางพลัด",
            "zip": "10120"
        },
        "name": "ช่างแต่งหน้าทำผม rutty_cute_make-up",
        "phone": "0909546929"
    },
    {
        "about": "#ช่างแต่งหน้าระยอง #ช่างอั๋นระยอง #ช่างแต่งหน้านิตยสารระยอง",
        "id": "242799089251946",
        "name": "ช่างแต่งหน้าระยอง-by Aun Make up"
    },
    {
        "about": "ช่างแต่งหน้าพัทยา ชลบุรี อมตะนคร พนัสนิคม\nwww.ช่างแต่งหน้าชลบุรีมืออาชีพ.com",
        "description": "รับแต่งหน้าเจ้าสาว รับปริญญา งานเทศกาลต่างๆทั่วไทย\nเครื่องสำอางค์ติดทนทาน ไม่วอกไม่เวอร์ เน้นสวยธรรมชาติ\nคุณภาพเป๊ะเวอร์ ราคาไม่แพงมีทีมงานพร้อมบริการความสวยถึงบ้านคุณ\nสนใจสอบถามได้ที่เบอร์ 090-0837738 ช่างนิด\n",
        "emails": [
            "nidto_nidto@hotmail.com"
        ],
        "id": "623846491022458",
        "location": {
            "city": "ชลบุรี",
            "street": "ชลบุรี",
            "zip": "20000"
        },
        "name": "ช่างแต่งหน้าชลบุรีมืออาชีพ",
        "phone": "0900837738"
    },
    {
        "about": "บริการรับแต่งหน้านอกสถานที่ โดยช่างแต่งหน้ามืออาชีพ 0865658745",
        "description": "บริการแต่งหน้านอกสถานที่ แต่งหน้ารับปริญญา แต่งหน้าเจ้าสาว แต่งหน้าไปงาน แต่หน้าสมัครแอร์โฮสเตส แต่งหน้าแฟชั่น แฟนซี แต่งหน้าเอฟเฟค ฯลฯ แต่งเกิดทุกแนว สวยเว่อร์ทุกลุค เครื่องสำอางค์แบรนด์เนม สวยเด้งกว่าชาวบ้าน เป๊ะเว่อร์ตลอดวัน",
        "id": "363049630422287",
        "name": "ช่างแต่งหน้า รับแต่งหน้านอกสถานที่",
        "phone": "0865658745"
    },
    {
        "about": "บริการแต่งหน้าทำผมนอกสถานที่\nสนใจติดต่อจองคิวแต่งได้ทาง:\nIn box ของ page\nLine id: wan_kaa\n081-789-6446 พี่วรรณค่ะ",
        "description": "รับแต่งหน้า-ทำผมเจ้าสาว, รับปริญญา, ถ่ายพรีเวดดิ้งในและนอกสถานที่ , ไปงานเลี้ยงสังสรรค์, สมัครงาน, รับสอนแต่งหน้าเดี่ยว และเป็นกรุ๊ปใหญ่\n\nเครื่องสำอางค์แบรนด์ดีมีคุณภาพที่ใช้:  ESTEE LAUDER, M.A.C, BOBBI BROWN, OCC LIP TAR, COVERMARK , NYX , MTI ,MUA, NAKED, URBANDECAY, LAURA MACIER, BENEFIT, ETUDE HOUSE, LUNASOL, LIP TAR, SEPHORA, NYC, STILA, PRIMAVISTA, REVLON, BSC, KMA, RED EARTH, SLEEK,  ETC., \n \nMakeup Artist : Wan\nContact info : 081-789-6446\nID Line: wan_kaa",
        "emails": [
            "wan_nadi@hotmail.com"
        ],
        "id": "301503963266570",
        "name": "ช่างแต่งหน้าทำผม เจ้าสาว รับปริญญา By Wan make up",
        "phone": "66817896446"
    },
    {
        "about": "รับแต่งหน้านอกสถานที่ \nกรุงเทพและต่างจังหวัด\nBeauty of magic.blogspot.com\n",
        "emails": [
            "keaiza.makeup@gmail.com"
        ],
        "id": "711891105504187",
        "location": {
            "city": "Bangkok",
            "country": "Thailand",
            "street": "Bangkapi",
            "zip": "10240"
        },
        "name": "ช่างแต่งหน้า ทำผม By Kulisara make up artist.",
        "phone": "0815622758"
    },
    {
        "about": "บริการภาพนิ่ง-วีดีโอ/ตัด-เช่าชุด/แต่งหน้า-ทำผม\nOB switching /Planner\u0026Organizer / รับจัดเซอร์ไพรส์\n\n\n",
        "description": "( FotoAmp Wedding Udonthani )\nช่างภาพ ,ช่างวีดีโอ ,แต่งหน้า,เช่าชุด,จัดงาน \n- - - - - - - - - - - - - - - - - - - - - - - -\nLine ร้าน - @fotoamp\nTel. ร้าน - 088 563 9594\n- - - - - - - - - - - - - - - - - - - - - - - - \nwww.facebook.com/FotoAmpWedding\n087- 7903034 นัท Line - nunutlovelove\n081-7501766 แอม Line - fotoamp77",
        "emails": [
            "fotoamp77@gmail.com"
        ],
        "id": "295320273935943",
        "location": {
            "city": "Udon Thani",
            "country": "Thailand",
            "latitude": 17.406953284204,
            "longitude": 102.79422283173,
            "street": "223/2  Prajaksinlapacom Road , Makkaeng",
            "zip": "41000"
        },
        "name": "FotoAmp Wedding ช่างภาพ วีดีโอ แต่งงานอุดรธานี แต่งหน้า เช่าชุด จัดงาน",
        "phone": "0885639594"
    },
    {
        "about": "รับถ่ายภาพงาน Wedding Pre-Wedding งานรับปริญญา ช่างแต่งหน้า",
        "description": "รับงานถ่ายภาพVDO Presentation MusicVideo Pre-Wedding Profile Cinematography Ceremony Television Advertising Organize และงานตัดต่อทุกชนิด \nถ่ายภาพงาน wedding ถ่าย Pre-Wedding ถ่ายแฟชั่น งานรับปริญญา งานบวช งานวันเกิด ขึ้นบ้านใหม่ เกษียณฯ เลี้ยงรุ่น etc.\n\nราคาเป็นกันเอง สนใจติดต่อสอบถามได้ที่ 083-4154376 k.โน๊ต(โปรดิวเซอร์) @Facebook : นู๋โน๊ต กันยุง",
        "id": "449605781836629",
        "name": "ช่างภาพมหาสารคาม ช่างแต่งหน้า"
    },
    {
        "about": "รับแต่งหน้า ทั่วราชอาณาจักร สวยเสกได้ในราคาย่อมเยา ด้วยรักและไมตรีจิต\n085-6538846",
        "emails": [
            "lamai.th8@gmail.com"
        ],
        "id": "463858167040327",
        "location": {
            "city": "Chiang Mai",
            "country": "Thailand"
        },
        "name": "Makeup by Lamai ช่างแต่งหน้าเชียงใหม่",
        "phone": "0880188781"
    },
    {
        "about": "ช่างแต่งหน้า รับแต่งหน้าเจ้าสาว โดยพี่บี 0851463446",
        "emails": [
            "bebemakeup@hotmail.com"
        ],
        "id": "379102962229086",
        "location": {
            "city": "Bangkok",
            "country": "Thailand",
            "street": "หัวหมาก บางกะปิ",
            "zip": "10240"
        },
        "name": "ช่างแต่งหน้า รับแต่งหน้าเจ้าสาว ทั่วไทย",
        "phone": "0851463446"
    },
    {
        "about": "        Surat Thani, ติดต่อ 0805335633 -0881682010. https://m.facebook.com/RanSmileHair.  Line ID.  Tony_176",
        "description": "ร้านเสริมความงามครบวงจร",
        "id": "296706923762342",
        "location": {
            "city": "Surat",
            "country": "Thailand",
            "street": "12/37 หมู่ 1 ต.ขุนทะเล อ.เมือง จ.สุราษฎร์ธานี",
            "zip": "84100"
        },
        "name": "ช่างแต่งหน้าSmile hair - Make Up",
        "phone": "0805335633"
    },
    {
        "about": "ช่างแต่งหน้า ทำผม ราคาถูก แต่งหน้ารับปริญญา แต่งหน้าเจ้าสาว แต่งหน้างานพรีเวดดิ้ง",
        "description": "ช่างแต่งหน้า ทำผม ราคาถูก งานแต่งหน้ารับปริญญา งานแต่งหน้าเจ้าสาว \nสวยใส จัดเต็ม ในราคาถูก บริการด้วยผลงานการแต่งหน้า ทำผม ที่มีคุณภาพค่ะ \n   บริการแต่งหน้า ทำผม ราคาถูก โดย ช่างแต่งหน้า อาร์ต \n- แต่งหน้ารับปริญญา \n- แต่งหน้าเจ้าสาว \n- แต่งหน้างานพรีเวดดิ้ง\n- งานบายเนียร์ \n- แต่งหน้าพริ๊ตตี้ \n- แต่งหน้าสมัครแอร์ เชียร์ลีดเดอร์  อีเว้นท์ \n- แต่งหน้าออกงานหรือโอกาสพิเศษต่างๆ \n= = = = = = = = = = = = = = = = = = = = = = \nใช้เครื่องสำอางค์ แบรนด์เนม ที่ดีมีคุณภาพ ระดับ เคานเตอร์แบรนด์\nและใช้ของแท้เท่านั้น ซึ่งได้รับความนิยมจากช่างแต่งหน้าชั้นนำ \nเพื่อให้เหมาะสมกับสภาพผิวของลูกค้าแต่ละท่านค่ะ \n= = = = = = = = = = = = = = = = = = = = = = \n+ + + การจองคิว แต่งหน้า + + + \nติดต่อสอบถาม ช่างแต่งหน้า อาร์ต เพื่อเช็คคิวว่าง\nได้ที่เบอร์ 098-980-6499  \nLine ID : art_makeup\n= = = = = = = = = = = = = = = = = = = = = = \n  ชมผลงานและรายละเอียดต่างๆของเราได้ที่\nแฟนเพจ : http://www.facebook.com/artmakeupp \nเวบไซต์ : http://artpromakeup.blogspot.com/\n= = = = = = = = = = = = = = = = = = = = = = ",
        "emails": [
            "art.make.up@hotmail.com"
        ],
        "id": "727756403952914",
        "location": {
            "city": "Bangkok",
            "country": "Thailand",
            "latitude": 13.8138504,
            "longitude": 100.7268524,
            "street": "สีหบุรานุกิจ13 มีนบุรี",
            "zip": "10510"
        },
        "name": "ช่างแต่งหน้า รับแต่งหน้าทำผม ทั้งในและนอกสถานที่",
        "phone": "098-980-6499"
    }
]