[
    {
        "about": "ช่างแต่งหน้า แต่งหน้าเจ้าสาว แต่งหน้ารับปริญญา แต่งหน้าไปงาน แต่งหน้าอื่นๆ 0843381554 ชีเน่",
        "description": "ช่างแต่งหน้า รับแต่งหน้าทำผม แต่งหน้าเจ้าสาว แต่งหน้ารับปริญญา แต่งหน้าไปงาน แต่งหน้าอื่นๆ การันตีผลงาน เครื่องสำอางแบรนด์เนม ในราคามิตรภาพ โดยช่างมืออาชีพเพศสร้างสรรค์ หน้าสวย ผมเลิศ คอนเฟิร์ม! เป๊ะเว่อร์!! รับงานทั้งในและนอกสถานที่ กรุงเทพและต่างจังหวัด\n\nอ่านรายละเอียดและชมผลงานเพิ่มเติม\nwww.thailandmakeup.com\n\nรับแจ้งข่าวสาร ติดตามการทำงาน ชมผลงานอัพเดท ติดต่อสอบถาม กด\"ถูกใจ\"ก่อนจ๊ะ\nwww.facebook.com/ThailandMakeup\n\nติดต่อสอบถามบริการโดยตรง\nLine: thailandmakeup\nMobile: 0843381554",
        "emails": [
            "thailandmakeup.mail@gmail.com"
        ],
        "id": "261334283917972",
        "location": {
            "city": "Bangkok",
            "country": "Thailand",
            "street": "30/56 ซอยรามคำแหง60/1 ถนนรามคำแหง แขวงหัวหมาก เขตบางกะปิ",
            "zip": "10240"
        },
        "name": "ช่างแต่งหน้า-ทำผม มืออาชีพ",
        "phone": "0843381554"
    },
    {
        "about": "ช่างแต่งหน้า รับแต่งหน้านอกสถานที่\nใช้เครื่ิองสำอาง MAC\nNew Tel 095 753 6624\nLine : OilyMakeupArtist\n\n",
        "description": "รับแต่งหน้า เจ้าสาว รับปริญญา งานเลี้ยง\nสนใจติดต่อ 10.00 - 22.00 น.\nIG  : OilyMakeupArtist\nSocialcam  : Oil_Makeup Pro Artist \nYoutube    : สวยปราบเซียน\nWebblog   : ช่างแต่งหน้ามืออาชีพ.com\nTel \u0026 WhatsApp : 086 979 2122\nเวลางาน ไม่สะดวกรับโทรศัพท์ครับ\nแจ้งรายละเอียดงานแล้วจะตอบกลับเร็วที่สุดครับ\nเครื่องสำอางที่ใช้ระดับ MAKEUP ARTIST :\nMAC SHU UEMURA REVLON\n\n\n\n\n\n",
        "emails": [
            "aoi3mac@gmail.com"
        ],
        "id": "109708332465673",
        "location": {
            "city": "Nonthaburi",
            "country": "Thailand",
            "street": "งามวงศ์วาน",
            "zip": "11000"
        },
        "name": "ช่างแต่งหน้า (ออย) 086-979-2122",
        "phone": "0957536624"
    },
    {
        "about": "ช่างแต่งหน้า Mam Makeup บริการแต่งหน้าทำผม เจ้าสาว รับปริญญา ออกงาน ไปงาน พิธีกร การแสดง\n",
        "description": "mam_makeup รับแต่งหน้าทำผมนอกสถานที่ โดยช่างมืออาชีพ \n\nด้วยการเสริมสร้างจุดเด่น อำพรางจุดด้อย เพราะทุกคนมีจุดด้อยบนใบหน้า เราเน้นการแก้ไขรูปหน้า โดยใช้หลักการให้แสง-เงา เพื่อให้ได้ใบหน้าสวยงามอย่างมีมิติ ให้คุณดูสวยโดดเด่นในแบบฉบับของตัวคุณเอง.... \n\nเราใช้เครื่องสำอางค์ และอุปกรณ์คุณดีมีแบรนด์!!! เรามีความรับผิดชอบ ตรงต่อเวลา \nขอให้มืออาชีพดูแลคุณ ในโอกาสพิเศษที่ควรค่าแห่งการจดจำ \n\nเจ้าสาว, รับปริญญา, แฟนซี, พริตตี้, งานพิธีการต่างๆ \nการแต่งหน้าเพื่อถ่ายรูปในสตูดิโอ, ผู้เข้าประกวด, พิธีกร และ แฟนซี \n\nBridal \u0026 Wedding Parties, Special Events, and More \n\nรีบจองคิวกันนะคะโดยเฉพาะแต่งหน้าเจ้าสาว เพราะว่า mam_makeup รับคิวงานวิวาห์วัน/เวลาละ 1 งานเท่านั้น ไม่รับซ้อนกันเป็นอันขาด เพื่อให้ทุกๆท่านวางใจว่าจะต้องสวยตลอดเวลางาน mam_makeup ยินดีอยู่ดูแลด้วยตัวเอง ตั้งแต่เริ่มม้วนผม แต่งหน้า ลงตัว ดูแลชุดที่ใส่ จนกระทั่งบ่าวสาวพร้อมเดินเข้างานเลยค่ะ \n\n=\u003eโทรสอบถามได้ที่ 098-942-9296\n=\u003e Line : mam_makeup\n=\u003eโพสจองเวลาหรือสอบถามข้อมูลทาง inbox ได้เลยค่ะ \n=\u003eติดต่อทางเมลล์ perapa_w@hotmail.com",
        "emails": [
            "perapa_w@hotmail.com"
        ],
        "id": "133479556719712",
        "location": {
            "city": "Nonthaburi",
            "country": "Thailand",
            "latitude": 13.878079452673,
            "longitude": 100.41864395142,
            "street": "Rattanathibet Road",
            "zip": "11110"
        },
        "name": "ช่างแต่งหน้า-mammakeup",
        "phone": "0989429296"
    },
    {
        "about": "ช่างแต่งหน้าทำผม สนใจติดต่อ WhatApp/Line/Tel. 088-782-0043\nhttp://www.ช่างแต่งหน้ารับปริญญา.com",
        "description": "www.ช่างแต่งหน้ารับปริญญา.com\nรับแต่งหน้าทำผมรับปริญญา รับแต่งหน้าทำผมเจ้าสาว-เจ้าบ่าว พรีเวดดิ้ง แต่งหน้าสมัครงาน แต่งหน้าทำผมไปงานเลี้ยง อีเว้นต่างๆ รับแต่งหน้าทำผมทุกแบบ แต่งได้ทุกสไตล์ เน้นปรับแก้ไขจุดบกพร่องบนใบหน้า ด้วยเครื่องสำอางเคาน์เตอร์แบรนด์ เครื่องสำอางคุณภาพทุกชิ้น หรือช่างถ่ายภาพงานรับปริญญา ถ่ายภาพงานแต่ง ถ่ายภาพงานเลี้ยงต่างๆ",
        "id": "631407290222435",
        "location": {
            "city": "Bangkok",
            "country": "Thailand"
        },
        "name": "ช่างแต่งหน้ารับปริญญา.com",
        "phone": "0923894575"
    },
    {
        "about": "ช่างแต่งหน้า รับแต่งหน้าเจ้าสาว แต่งหน้ารับปริญญา แต่งหน้าไปงานต่างๆ สนใจติดต่อ 085-067-0055\nLine: pknaja",
        "description": "สวัสดีค่ะ  ชื่อ เงาะนะคะ บริการรับแต่งหน้าสวยงามทุกชนิดนอกสถานที่   แต่งหน้าเจ้าสาว แต่งหน้ารับปริญญา แต่งหน้าสวยงามในโอกาสพิเศษ เชียร์ลีดเดอร์ พริตตี้งานอีเว้นต่างๆ งานแฟชั่น และอื่นๆ \n\nถ้าดูผลงานแล้วชอบก็ติดต่อมาได้เลยนะคะ ที่เบอร์ 085-067-0055\n\nหรือ อีเมล kongsit1@hotmail.com\n\n",
        "emails": [
            "kongsit1@hotmail.com"
        ],
        "id": "185836168187399",
        "name": "Pitchamakeup.com รับแต่งหน้าโดยช่างแต่งหน้ามืออาชีพ",
        "phone": "085-067-0055"
    },
    {
        "about": "Tel: 081-9397945\nLine ID: bird_bb",
        "description": "Freelance",
        "id": "463298180414784",
        "location": {
            "street": "กทม"
        },
        "name": "ช่างแต่งหน้า Bird Thana : Makeup Artist",
        "phone": "081-9397945"
    },
    {
        "about": "\"สวย  ใส  เน้นธรรมชาติ  แต่ถ้าอยาก จี๊ดจ๊าด ก็สวย สั่งได้ ค่ะ\"  www.manualfoto.com/jibmakeup.html โทร 0890110570",
        "id": "172100726175462",
        "location": {
            "street": "nonthaburi"
        },
        "name": "ช่างแต่งหน้า - ทำผม เจ้าสาว รับปริญญา ( jibMakeUp จิ๊บค่ะ )",
        "phone": "0890110570"
    },
    {
        "about": "รับแต่งหน้า+ทำผม รับปริญญา เจ้าสาว พรีเว็ดฯ ไปงาน สัมภาษณ์งาน แต่งงาน ถ่ายแบบ ฯลฯ\nโทร 080060 9191\n\n\n",
        "description": "รับแต่งหน้าทำผม แต่งงาน พรีเว็ดดิ้ง ไปงาน รับปริญญา สัมภาษณ์งาน ถ่ายแบบ ทุกโอกาส",
        "id": "281001512092729",
        "location": {
            "city": "ศุภาลัย",
            "street": "รามอินทรา 23"
        },
        "name": "ช่างแต่งหน้า LadyBunny",
        "phone": "0800609191"
    },
    {
        "about": "รับแต่งหน้าทำผมเชียงใหม่\nติดต่อสอบถาม โทร.082-1849334\nLine : meawziiii\n",
        "description": "รับแต่งหน้าทำผม\nงานรับปริญญา งานแต่งงาน งานพิธีต่างๆ งานเลี้ยงสังสรรค์ งานบายเนียร์... (นอกสถานที่)\nติดต่อสอบถาม โทร. 082-1849334 \nFacebook : เหมียวค๊าา https://www.facebook.com/meawzii.rapeeporn",
        "id": "560124994079563",
        "location": {
            "city": "เชียงใหม่"
        },
        "name": "ช่างแต่งหน้าทำผมเชียงใหม่ Meaw Make-Up",
        "phone": "082-1849334"
    },
    {
        "about": "  จองคิวแต่งหน้า ทำผม\n ติดต่อโยโย่  0817662624 0858227997\nlineID yoyo666666666 (เลขหกเก้าตัว)\nIG yoyomakeup\n",
        "description": "พี่โยโย่เมคอัพ บริการแต่งหน้าทำผมเจ้าสาว แต่งหน้ารับทำผมปริญญา งานพิธีต่างๆนอกสถานที่ โดยทีมช่างมืออาชีพและเครื่องสำอางแบร์นเนมค่ะ",
        "emails": [
            "yo.suvaree@gmail.com"
        ],
        "id": "620383144733926",
        "location": {
            "city": "Phra Nakhon",
            "country": "Thailand",
            "street": "ถนน วิสุทธิกษัตริย์",
            "zip": "10200"
        },
        "name": "ช่างแต่งหน้าโยโย่",
        "phone": "0817662624"
    },
    {
        "about": " รับแต่งหน้าทำผมทุกงานโดยมีทีมงานช่างแต่งหน้ามืออาชีพ\n",
        "emails": [
            "nongnou_@hotmail.com"
        ],
        "id": "126184347471211",
        "location": {
            "street": "รับแต่งหน้า กรุงเทพและ ต่างจังหวัด"
        },
        "name": "ช่างแต่งหน้า By Nongnou",
        "phone": "0816438351"
    },
    {
        "about": "รับแต่งหน้า ทำผมเจ้าสาว prewedding รับปริญญา ไปงานต่างๆ คสอ Chanel,Estee lauder,Bobbi brown,Armani,Ysl,Mac,Nars,Urban,Shu uemura,Decay,Benefit,Tha Balm,etc",
        "description": "รับแต่งหน้า ทำผม เจ้าสาว รับปริญญา งานแต่ง งาน ปาร์ตี้ กาล่าดินเนอร์  สมัครแอร์ ออกเดท ฯลฯ\n\nใช้เครื่องสำอางค์ Counter Brand: \n- Dior \n- Estee Lauder\n- Nars\n- Mac\n- Laura Mercier\n- Benefit\n- Urban Decay\n-The Balm\n- ฯลฯ\n",
        "id": "340103922729788",
        "location": {
            "city": "Bangkok",
            "country": "Thailand",
            "street": "รามคำแหง"
        },
        "name": "ช่างแต่งหน้า ทำผม by Nuploy",
        "phone": "0867717198"
    },
    {
        "about": "ช่างแต่งหน้า-ทำผม มืออาชีพ",
        "description": "รับแต่งหน้าและทำผมโดยช่างมืออาชีพ",
        "emails": [
            "nakorn-lim@hotmail.com"
        ],
        "id": "529067467137040",
        "location": {
            "city": "Bangkok",
            "country": "Thailand",
            "latitude": 13.85238,
            "longitude": 100.4887,
            "street": "63/399 หมู่8ต.บางกระสอ อ.เมือง จ.นนทบุรี",
            "zip": "11000"
        },
        "name": "ช่างแต่งหน้า Lim makeup",
        "phone": "0866032566"
    },
    {
        "about": "บริการแต่งหน้า ทำผมในและนอกสถานที่ สนใจติดต่อใช้บริการได้ที่ เบอร์ 0956940854 , id line :0956940854 ",
        "id": "1504247689894607",
        "location": {
            "city": "อ่อนนุช",
            "street": "กรุงเทพมหานคร",
            "zip": "10250"
        },
        "name": "ช่างแต่งหน้า ทำผมby neung",
        "phone": "0956940854"
    },
    {
        "about": "จัดโปรโมชั่น!! แต่งหน้าทำผม-รับปริญญา เจ้าสาว งานแฟชั่น ราคาพิเศษ สอบถามด่วน 086-5771804 Line id: 44011103",
        "description": "ช่างแต่งหน้า. รับแต่งหน้า แต่งหน้าเจ้าสาว แต่งหน้ารับปริญญา แต่งหน้าไปงาน แต่งหน้าสมัครแอร์ฯ แต่งหน้างานอื่นๆอีกมากมาย. ในโอกาสต่างๆตามความต้องการของลูกค้า ..",
        "id": "1384850358430452",
        "location": {
            "city": "กรุงเทพมหานคร",
            "street": "รามคำแหง บางกะปิ ลาดพร้าว",
            "zip": "10240"
        },
        "name": "ช่างแต่งหน้า-เกล้าผม",
        "phone": "086-5771804"
    },
    {
        "about": "รับแต่งหน้าทำผม\nถ่ายพรีเวดดิ้ง\nถ่ายแบบโปรไฟล์",
        "id": "1439908269574494",
        "location": {
            "city": "Bangkok",
            "country": "Thailand",
            "street": "Muang Rayong",
            "zip": "21000"
        },
        "name": "ช่างแต่งหน้าทำผม ระยอง Nahm Makeup\u0026Hair Design",
        "phone": "0959412000"
    },
    {
        "about": "บริการแต่งหน้า-ทำผม,งานแต่งงาน,รับปริญญา,ออกกงานต่างๆ",
        "description": "แพรบริการแต่งหน้า-ทำผม งานแต่งงาน,งานรับปริญญา,งานแฟชั่นโชว์ งานราตรี,งานแฟนซี และออกงานต่างๆ ทั้งในกรุงเทพฯและต่างจังหวัด\nสนใจติดต๋อ  085 9006119 (แพร)\nLINE : LERICHESSS",
        "emails": [
            "pair_zaza55@hotmail.com"
        ],
        "id": "281123888667349",
        "location": {
            "city": "กทม",
            "street": "บางซื่อ",
            "zip": "10800"
        },
        "name": "ช่างแต่งหน้า-ทำผม งานแต่งงาน รับปริญญา,Paiirzii Makeup แพรคะ",
        "phone": "0859006119"
    },
    {
        "id": "391118174289850",
        "location": {
            "city": "Nakhon Sawan",
            "country": "Thailand",
            "street": "ถ.โกสีย์ใต้",
            "zip": "123456789"
        },
        "name": "ช่างแต่งหน้านครสวรรค์",
        "phone": "084-8139922"
    },
    {
        "about": "บริการแต่งหน้า-ทำผม โดยทีมช่างมืออาชีพ",
        "id": "1420622171485886",
        "location": {
            "city": "Bangkok",
            "country": "Thailand",
            "latitude": 13.70283,
            "longitude": 100.67317,
            "street": "Bangkok",
            "zip": "10250"
        },
        "name": "ช่างแต่งหน้า-ทำผม By SLT",
        "phone": "0877685907"
    },
    {
        "about": "รับแต่งหน้า ทำผม ทุกประเภท ทั่วราชอาณาจักร ",
        "emails": [
            "bobomakeup32@gmail.com"
        ],
        "id": "1413933365490229",
        "location": {
            "city": "Amphoe Muang Phuket",
            "country": "Thailand",
            "latitude": 7.88418,
            "longitude": 98.39429,
            "street": "Muang phuket",
            "zip": "83000"
        },
        "name": "ช่างแต่งหน้าภูเก็ต By Bobo Make up",
        "phone": "0894715069"
    },
    {
        "about": "รับแต่งหน้าทำผมงานแต่ง รับปริญญา แต่งหน้าเด็ก และงานพิธีการต่างๆ ",
        "description": "\"สวยได้อย่างธรรมชาติ\" คุณสร้างได้ โดยช่างแต่งที่ให้ความสวยเนียนเป็นธรรมชาติ ให้ความสำคัญบนผิวหน้าด้วยเครื่องสำอางค์แบร์นทุกตัว รับประกันสวยในราคาย่อมเยาว์  \"เลือกเราเป็นช่างแต่งหน้าของคุณ\" หน่อย",
        "id": "556587201077998",
        "location": {
            "city": "Bangkok",
            "country": "Thailand",
            "latitude": 13.77431,
            "longitude": 100.54686,
            "street": "Ratchada",
            "zip": "10400"
        },
        "name": "ช่างแต่งหน้าทำผม Ninoi Makeup\u0026Hair",
        "phone": "087-822-4408"
    },
    {
        "about": "บริการแต่งหน้าเจ้าสาว รับปริญญา และโอกาศต่างๆ",
        "id": "819904288038089",
        "location": {
            "city": "Hat Yai",
            "country": "Thailand",
            "latitude": 7.0152,
            "longitude": 100.39974,
            "street": "6/8 ถ.ราษฎร์ยินดี ต.หาดใหญ่ อ.หาดใหญ่ จ.สงขลา",
            "zip": "90110"
        },
        "name": "ช่างแต่งหน้าหาดใหญ่ เตคุณ Make up",
        "phone": "0629716362"
    },
    {
        "about": "ช่างแต่งหน้า รับแต่งหน้าปริญญา โดยพี่บี 0851463446",
        "emails": [
            "bebemakeup@hotmail.com"
        ],
        "id": "626578034058317",
        "location": {
            "city": "Bangkok",
            "country": "Thailand",
            "street": "หัวหมาก บางกะปิ",
            "zip": "10240"
        },
        "name": "ช่างแต่งหน้า รับปริญญา ทั่วประเทศ",
        "phone": "0851463446 line 0873324166"
    },
    {
        "about": "ช่างแต่งหน้า makeup แต่งหน้ารับปริญญา แต่งหน้าเจ้าสาว แต่งหน้าไปงาน",
        "emails": [
            "thitari_v@hotmail.com"
        ],
        "id": "315678128604188",
        "location": {
            "city": "Bangkok",
            "country": "Thailand",
            "latitude": 13.82341,
            "longitude": 100.52563,
            "street": "Bangsue",
            "zip": "10800"
        },
        "name": "ช่างแต่งหน้า Vas Makeup",
        "phone": "086-411-9122"
    },
    {
        "about": "ช่างแต่งหน้า บริการส่วนบุคคลและองค์กรณ์ โดยทีมงาน mum22.com",
        "description": "ช่างแต่งหน้าทำผม เนื่องในโอกาสต่างๆ โดย เปรี้ยว 086-086-5151\nบริการ\n- แต่งหน้ารับปริญญา\n- แต่งหน้าเจ้าสาว\n- แต่งหน้าไปงาน\n- แต่งหน้าถ่ายแบบ ถ่าย Ads ถ่ายนิตยสาร Event\n- แต่งหน้าทำผมต่างๆ\n- แต่งหน้าแฟนซี ลีดเดอร์\n- สอนแต่งหน้า สำหรับผู้อยากเรียนแต่งหน้าตัวเอง\n- อื่นๆ",
        "emails": [
            "mum22.com@gmail.com"
        ],
        "id": "117677628242916",
        "location": {
            "city": "Bangkok",
            "country": "Thailand",
            "latitude": 13.816515,
            "longitude": 100.5701599,
            "street": "ลาดพร้าว",
            "zip": "10310"
        },
        "name": "www.mum22.com :: www.ช่างแต่งหน้า.com โดย เปรี้ยว 086-086-5151 จ๊ะ",
        "phone": "086-086-5151"
    }
]