[
    {
        "about": "Line Leemakeup หรือติดต่อ 0815675352",
        "id": "293680754009977",
        "name": "รับแต่งหน้า-ทำผมโดยช่างจากวงการบันเทิง"
    },
    {
        "id": "425089981030770",
        "location": {
            "city": "Samut Prakan",
            "country": "Thailand",
            "latitude": 13.5623665,
            "longitude": 100.8022537,
            "street": "109/195 หมู่บ้านบารเมษฐ์ ((กลางซอย))หมู่17 ถ.เทพารักษ์ อ.บางเสาธง จ.สมุทรปราการ",
            "zip": "10540"
        },
        "name": "ร้านเสริมสวยบัวชมภู รับสักคิ้ว แต่งหน้า ทำผม จากช่างผู้ชำนาญงานกว่า 20 ปี",
        "phone": "0860013873"
    },
    {
        "id": "149260835119112",
        "name": "ช่างแต่งหน้าทำผม"
    },
    {
        "about": "Kitiyar Hair\u0026Makeup\nรับแต่งหน้า-ทำผมทุกโอกาสโดยช่างมืออาชีพ\n\nโทร 081-249-4564\nlineID: fai_kitiyar IG: kitiyarmakeup",
        "id": "1451800315061019",
        "name": "Kitiyar Makeup ช่างแต่งหน้าทำผม แต่งหน้าเจ้าสาว แต่งหน้ารับปริญญา",
        "phone": "0812494564"
    },
    {
        "about": "รับแต่งหน้า-ทำผม .089-8404958",
        "emails": [
            "malee.kkn@gmail.com"
        ],
        "id": "1598464673763728",
        "name": "ตี๋ ช่างแต่งหน้า",
        "phone": "0898404958"
    },
    {
        "about": "ขอบ คุนที่ไว้ใจเรา :ติดต่อโดยตรง 0618412009",
        "id": "930919906921667",
        "location": {
            "city": "ประเทศไทย",
            "street": "249/6 ถ.สุคนธวิท ต.ตลาดกระทุ่มแบน อ.กระทุ่มแบน จ.สมุทรสาคร",
            "zip": "74110"
        },
        "name": "ช่างแต่งน่า นำโดย \"Ball\" ติดต่อ 0618412009",
        "phone": "0618412009"
    },
    {
        "about": "Makeup by ช่างโอ๋ Tel/Line : 0960342553 และ0985081694ยินดีบริการและตอบทุกคำถามคะ ^^",
        "description": "Makeup by ช่างโอ๋ Tel/Line : 0960342553 และ0985081694ยินดีบริการและตอบทุกคำถามคะ ^^",
        "id": "601458486575686",
        "location": {
            "city": "Bangkok",
            "country": "Thailand",
            "latitude": 13.8054895,
            "longitude": 100.8110199,
            "street": "Bangkok",
            "zip": "10210"
        },
        "name": "รับแต่งหน้าทำผม เจ้าสาว รับปริญญา  งานปาร์ตี้ ฯลฯ by ช่างโอ๋",
        "phone": "0985081694"
    },
    {
        "about": "จำหนายอาไหร่",
        "id": "684388454919969",
        "location": {
            "city": "บ้านโป่ง",
            "street": "ราชบุรี",
            "zip": "70190"
        },
        "name": "ช่างหมา จำหน่ายอาไหล่แต่งทุกชนิด",
        "phone": "0884520451"
    },
    {
        "about": "สอบถามเรื่องการแต่งรับแต่งหน้า ทำผม แบบมืออาชีพ ทั้งในและนอกสถานที่",
        "id": "725579730799117",
        "name": "แก้มบุ๋ม ช่างแต่งหน้า ทำผม"
    },
    {
        "about": "รับแต่งหน้า เจ้าสาว รับปริญญา และ งานEVENT",
        "emails": [
            "hiranyam@hotmail.com"
        ],
        "id": "1436079986604684",
        "location": {
            "city": "Phuket",
            "country": "Thailand",
            "street": "ภูเก็ต"
        },
        "name": "ช่างแต่งหน้าภูเก็ต   Make up Artist by LinLin",
        "phone": "085-944-9414   "
    },
    {
        "id": "1131857086955531",
        "location": {
            "city": "Betong",
            "country": "Thailand",
            "latitude": 5.75,
            "longitude": 101.083
        },
        "name": "ชื่อร้านไรไม่รู้ เข้ามาตอนมืดๆ จะถามช่าง ก็เกรงใจ แต่งหน้าอย่างเมามันส์อยู่"
    },
    {
        "id": "1122181474462191",
        "location": {
            "city": "Thanya Buri",
            "country": "Thailand",
            "latitude": 14.0167,
            "longitude": 100.75,
            "street": "Bangkok",
            "zip": "10230"
        },
        "name": "ช่างแต่งหน้าณเกศ เครื่องสำอางค์ L'occitane",
        "phone": "0815655464"
    },
    {
        "id": "1074748185883943",
        "location": {
            "city": "Rayong",
            "country": "Thailand",
            "latitude": 12.694353980138,
            "longitude": 101.22952318813
        },
        "name": "ที่นี้ บ้านน้ำ  ช่างแต่งหน้าคนเก่ง  ที่กอล์ฟชอบแอบมาให้  กันคิ้ว  ให้"
    },
    {
        "about": "inspiration\n“เปลี่ยนสิ่งสวยงามให้เป็นศิลปะอันเลอค่า สร้างความงามในอุดมคติให้เป็นจริง”\n",
        "description": "* แรงบันดาลใจในการให้บริการ\n“เปลี่ยนสิ่งสวยงามให้เป็นศิลปะอันเลอค่า สร้างความงามในอุดมคติให้เป็นจริง”\n\n* คอนเซปร้าน\n“ความสวยสไตล์เซเลปที่คุณสามารถสัมผัสได้”\n\n* ประวัติ Make-up Artist\n-\tปัจจุบันอายุ 32 ปี เริ่มอาชีพการแต่งหน้าตั้งแต่อายุ 14 ปี\n-\tมีประสบการณ์การทำงานในวงการบันเทิงมากกว่า 10 ปี\n\n* จุดเด่น\n-\tแก้ไขจุดด้อย เสริมจุดเด่น ให้โดดเด่นยิ่งขึ้น \n-\tเรามีความชำนาญสูงในการพิจารณาความเหมาะสม สำหรับการแต่งหน้าแต่ละประเภท เช่น งานแต่ง งานรับปริญญา งานประกวด ฯลฯ หรือ การแต่งหน้าสำหรับการถ่ายภาพนิ่ง ถ่ายภาพเคลื่อนไหว ภาพยนตร์ ละคร Fashion การแสดงสด การแสดงบนเวที ถ่ายงานกลางวัน กลางคืน ในสตูดิโอ หรือ กลางแจ้ง ฯลฯ  \n-\tอัพเดทเทรนด์และแฟชั่นให้ทันสมัยอยู่ตลอดเวลา \n-\tใช้เครื่องสำอางที่มาตรฐานปลอดภัย\n-\tเนื่องจาก make up Artist ไม่ได้เรียนจากสถาบันการสอนแต่งหน้า จึงคิดค้นและมีเทคนิคส่วนตัวมากมาย ที่ไม่มีสอนในโรงเรียนหรือสถาบัน\n-\tจากการคิดค้น ฝึกฝน และ รวบรวมเทคนิค มาเป็นเวลานาน ทำให้งานของเราประณีต และ มีเอกลักษณ์\n\n* ข้อเสีย\n-\tใช้เวลาในการแต่งค่อนข้างนาน เป็นเพราะการเก็บรายละเอียดในแต่ละจุดของลูกค้า\n-\tไม่สามารถรับงานที่ต้องแต่งลูกค้าครั้งละจำนวนมากๆได้ เพราะใช้เวลาแต่ละคนค่อนข้างนาน \n",
        "id": "1063397930344042",
        "location": {
            "city": "Phitsanulok",
            "country": "Thailand",
            "latitude": 16.7661304,
            "longitude": 100.1981201,
            "street": "พิษณุโลก",
            "zip": "65000"
        },
        "name": "รับแต่งหน้าโดยช่างระดับมืออาชีพ ประสบการณ์และเทคนิคสูง"
    },
    {
        "id": "1595451447334475",
        "name": "ช่างแต่งผมบุรุษ. ศูนย์พัฒนาฝีมือแรงงานจังหวัดตรัง"
    },
    {
        "about": "บริการแต่งหน้า เมคอัพแฟชั่นโชว์ แต่งหน้ารับปริญญา เจ้าสาว โฆษณา พิธีกร สอนแต่งหน้า",
        "description": "อัตราค่าบริการแต่งหน้าธรรมดาทั่วไป (เช่น รับปริญญา เป็นต้น)\n\n1 ท่าน ท่านละ 1200 บาท (โปรโมชั่นพิเศษ!!! จากราคาปกติ 2000 บาท)\n\n2 ท่านขึ้นไป ท่านละ 1000 บาท\n\n\n***กรณีนัดนอกสถานที่ อาจมีค่าบริการนอกสถานที่เพิ่มเติม (เริ่มต้นที่ 200 บาท)\n",
        "general_info": "นายนรากร พรมมา (เค)\nหมายเลขโทรศัพท์: 088-602-4483\nอีเมล์: Kmakeupthailand@gmail.com",
        "id": "228603877259207",
        "name": "ช่างแต่งหน้า เค Kmakeupthailand"
    },
    {
        "about": "Tmakeupgroup แต่งหน้า รับแต่งหน้าทำผม แต่งหน้ารับปริญญา แต่งหน้าทำผมเจ้าสาว Tel. 081-931-6370 www.tmakeupgroup.com",
        "description": "Tmakeupgroup แต่งหน้า รับแต่งหน้าทำผม แต่งหน้ารับปริญญา แต่งหน้าทำผมเจ้าสาว  แต่งหน้างานสำคัญต่างๆ ทั้งในและนอกสถานที่ โดย  Make up Artist มืออาชีพ",
        "emails": [
            "tmakeupgroup@hotmail.com"
        ],
        "id": "148044931942900",
        "location": {
            "street": "www.Tmakeupgroup.com"
        },
        "name": "Tmakeupgroup รับแต่งหน้า แต่งหน้าเจ้าสาว ช่างแต่งหน้า แต่งหน้ารับปริญญา",
        "phone": "081-931-6370"
    },
    {
        "about": "ช่างแต่งหน้าทำผมมืออาชีพ รับแต่งหน้างานรับปริญญา แต่งหน้าเจ้าสาว เชียงใหม่ \nID : tuckkatan23\nTel : 086-6566023",
        "emails": [
            "tuckkatan-ket@hotmail.com"
        ],
        "id": "407009702796247",
        "location": {
            "city": "Chiang Mai",
            "country": "Thailand",
            "zip": "50000"
        },
        "name": "Tuckkatan Makeup Chiang Mai ช่างแต่งหน้ามืออาชีพ เชียงใหม่",
        "phone": "086-6566023"
    },
    {
        "id": "129026784117591",
        "name": "My vannee Lakthongช่างสักคิ้ว ช่างแต่งหน้าศรีสะเกษใจดี"
    },
    {
        "about": "รับแต่งหน้า, ทำผม, ถ่ายภาพ, จัดหาชุดประกอบงาน, รับจัด event ต่างๆ  ราคาเป็นกันเอง",
        "id": "1400431890215343",
        "name": "รับแต่งหน้าโดยช่างระดับเทพ by Jo",
        "phone": "081-665-2961, 081-455-1645"
    },
    {
        "about": "ช่างแต่งหน้า ทำผมภูเก็ต นอกสถานที่ BY : PETE\nLine : peatkung         T : 0864167326",
        "id": "397482947073426",
        "location": {
            "city": "Phuket",
            "country": "Thailand",
            "street": "ภูเก็ต",
            "zip": "83000"
        },
        "name": "ช่างแต่งหน้าภูเก็ต By PETE",
        "phone": "0864167326"
    },
    {
        "about": "บริการแต่งหน้าทำผมทุกรูปแบบ รับงานทั่วประเทศ ทั่วโลก \nติดต่อสอบถาม\nTel : 080-0346669\nLine : Kengaday \nIg : Kengaday",
        "id": "837662162936356",
        "location": {
            "city": "Chiang Mai",
            "country": "Thailand",
            "street": "เชียงใหม่",
            "zip": "50200"
        },
        "name": "Kengaday ช่างแต่งหน้าเชียงใหม่ ช่างทำผมเชียงใหม่",
        "phone": "0800346669"
    },
    {
        "about": "ชักภาพ สตูดิโอ : Tel. 088-333-663-1\nInstagram : @chuckpabstudio\nFan Page © www.facebook.com/ChuckpabStudio",
        "description": "ชักภาพ สตูดิโอ : ช่างภาพ รับถ่ายภาพ รับจ้างถ่ายรูป ตากล้อง งานแต่ง งานหมั้น รับปริญญา งานบวช อีเว้นท์ แต่งหน้า ทำผม ในจังหวัดสกลนคร นครพนม อุดรธานี มุกดาหาร กาฬสินธุ์ ร้อยเอ็ด สารคาม ขอนแก่น โคราช นครราชสีมา และจังหวัดอื่นๆ ทั่วประเทศไทย : Pre Wedding/Wedding ,Fastion Portrait งานบุญ งานขึ้นบ้านใหม่ ฯลฯ ถ่ายภาพวีดีโอ/รับทำวีดีโอพรีเซ็นเทชั่น แต่งหน้า ทำผม เช่าชุดวิวาห์\nLine : chuckpabstudio\nInstagram : @chuckpabstudio\nFan Page © www.facebook.com/ChuckpabStudio\nTel. 088-333-663-1 ,083-339-330-1",
        "id": "321123961367830",
        "name": "ช่างภาพนครราชสีมา โคราช รับถ่ายภาพ ตากล้อง งานแต่ง รับปริญญา แต่งหน้า ทำผม"
    },
    {
        "about": "Make-up Artist \nช่างแต่งหน้า-ทำผม อิสระ\nจ.นครราชสีมา กรุงเทพฯ และ จังหวัดใกล้เคียง",
        "emails": [
            "thiridar62@hotmail.com"
        ],
        "id": "237028466453797",
        "name": "กิ๊ฟช่างแต่งหน้าทำผม  Makeup \u0026 Hair by Gift  Tel 083-9909245",
        "phone": "083-9909245"
    },
    {
        "about": "ชักภาพ สตูดิโอ (ย่อย นครพนม)\nTel. 088-333-663-1 ,083-339-330-1 \nFan Page หลัก : http://www.facebook.com/chuckpabStudio",
        "description": "ชักภาพ สตูดิโอ : ช่างภาพ รับถ่ายภาพ รับจ้างถ่ายรูป ตากล้อง งานแต่ง งานหมั้น รับปริญญา งานบวช อีเว้นท์ ในจังหวัดสกลนคร นครพนม อุดรธานี มุกดาหาร กาฬสินธุ์ ร้อยเอ็ด สารคาม ขอนแก่น และจังหวัดอื่นๆ ทั่วประเทศไทย : Pre Wedding/Wedding ,Fastion Portrait งานบุญ งานขึ้นบ้านใหม่ ฯลฯ ถ่ายภาพวีดีโอ/รับทำวีดีโอพรีเซ็นเทชั่น \nแต่งหน้า ทำผม เช่าชุดวิวาห์ \nEmail : ChuckpabStudio@hotmail.com \nTel. 088-333-663-1 ,083-339-330-1 \nFan Page : http://www.facebook.com/chuckpabStudio",
        "id": "426119190790654",
        "name": "ช่างภาพนครพนม รับถ่ายภาพ ตากล้อง งานแต่ง รับปริญญา เช่าชุด แต่งหน้า ทำผม"
    }
]