[
    {
        "id": "298995353623420",
        "location": {
            "city": "Muang Phimai",
            "country": "Thailand",
            "latitude": 15.209609465688,
            "longitude": 102.48303461829
        },
        "name": "บ้านครูเอ็ม ช่างแต่งน่สเอื้ออาทร"
    },
    {
        "id": "291870251015597",
        "location": {
            "city": "Lampang",
            "country": "Thailand",
            "latitude": 18.2849469,
            "longitude": 99.5043651
        },
        "name": "ร้าน La Bonita ร้านเช่าชุดราตรี รับแต่งหน้า ทำผม จากช่างมืออาชีพ",
        "phone": "0861964970"
    },
    {
        "id": "249037008558180",
        "location": {
            "city": "Bangkok",
            "country": "Thailand",
            "latitude": 13.7958687,
            "longitude": 100.5944795,
            "street": "Soi Setthabut"
        },
        "name": "ช่างแต่งหน้าราคา สองหมื่น"
    },
    {
        "id": "243679645817431",
        "location": {
            "city": "Bangkok",
            "country": "Thailand",
            "latitude": 13.694766722917,
            "longitude": 100.49992268227
        },
        "name": "บ้านช่างแต่งหน้า กับ ตากล้อง"
    },
    {
        "id": "217364901775601",
        "location": {
            "city": "Chiang Dao",
            "country": "Thailand",
            "latitude": 19.376205,
            "longitude": 98.967174,
            "zip": "50170"
        },
        "name": "บ้านช่างแต่ง ซอย 20 หมู่ 13 ต.เชียงดาว"
    },
    {
        "id": "146005122158424",
        "location": {
            "city": "Photharam",
            "country": "Thailand",
            "latitude": 13.738396405255,
            "longitude": 99.912908747885,
            "zip": "70120"
        },
        "name": "บ้านช่างแต่ง"
    },
    {
        "id": "100556996765020",
        "location": {
            "city": "Trad",
            "country": "Thailand",
            "latitude": 12.244894635953,
            "longitude": 102.51345104175,
            "zip": "23000"
        },
        "name": "( ( ( สตั๊น! ) ) ) ผู้ชายช่างแต่งตัว"
    },
    {
        "id": "300789396736603",
        "location": {
            "city": "Suphan Buri",
            "country": "Thailand",
            "latitude": 14.435863551635,
            "longitude": 99.999203107639,
            "zip": "72210"
        },
        "name": "ร้านข้าวต้มหน้าวัดโรงช้าง สวนแตง"
    },
    {
        "about": "ช่างแต่งหน้า - ทำผม freelance",
        "emails": [
            "cha_tai@windowslive.com"
        ],
        "id": "124587044279875",
        "location": {
            "city": "Bangkok",
            "country": "Thailand",
            "latitude": 13.70856,
            "longitude": 100.4110489,
            "street": "เพชรเกษม 47/1",
            "zip": "10160"
        },
        "name": "ONEdeedee dressing room",
        "phone": "08-7088-4298   "
    },
    {
        "about": "ช่างแต่งหน้าตรัง #แต่งหน้า #ทำผม #ทุกประเภท",
        "description": "#แต่งหน้า #ทำผม #ทุกประเภท",
        "emails": [
            "rounglovely.jj@gmail.com"
        ],
        "id": "696562660391581",
        "location": {
            "city": "Amphoe Muang Trang",
            "country": "Thailand",
            "latitude": 7.76036,
            "longitude": 99.39506,
            "street": "ช่างแต่งหน้า Trang",
            "zip": "92220"
        },
        "name": "Roung Make up Artist",
        "phone": "080-5341770"
    },
    {
        "id": "570595342994028",
        "location": {
            "city": "Bangkok",
            "country": "Thailand",
            "latitude": 13.704464864315,
            "longitude": 100.3311049069,
            "street": "บ้านหนำคอก",
            "zip": "74130"
        },
        "name": "ร้านชุดไฮโซชื่อดังที่มีช่างแต่งผิวขาวตากลมโตมีแมวน่ารักที่สุดในย่านนี่"
    },
    {
        "id": "733440923442575",
        "location": {
            "city": "Chon Buri",
            "country": "Thailand",
            "latitude": 13.3667,
            "longitude": 100.983
        },
        "name": "ร้านเจ้ขัน ช่างแต่งหน้าประจำตระกูล"
    },
    {
        "id": "732088166907096",
        "location": {
            "city": "Bangkok",
            "country": "Thailand",
            "latitude": 13.70929,
            "longitude": 100.57095,
            "street": "จตุจักร",
            "zip": "10110"
        },
        "name": "ช่างแต่งหน้าณเกศ แต่งคนตาย คนเกิดอุบัติเหตุ",
        "phone": "0809592426"
    },
    {
        "id": "660952280703623",
        "location": {
            "city": "Bangkok",
            "country": "Thailand",
            "latitude": 13.8054895,
            "longitude": 100.8110199,
            "street": "Bangkok",
            "zip": "10230"
        },
        "name": "ช่างแต่งหน้าณเกศ เจ้าสาวสโมสรกรมวิทยาศาสตร์",
        "phone": "0815655464"
    },
    {
        "id": "632252196916100",
        "location": {
            "city": "Bangkok",
            "country": "Thailand",
            "latitude": 13.8030796,
            "longitude": 100.8133087,
            "street": "กรุงเทพ",
            "zip": "10230"
        },
        "name": "ช่างแต่งหน้าณเกศ หลักฐานการโอนเงินคืนลูกค้า",
        "phone": "0815655461"
    },
    {
        "about": "บริการเช่าชุดแต่งงาน แต่งหน้าทำผม ในและนอกสถานณ์ที่ โดยช่างมืออาชีพ",
        "id": "631031453692472",
        "location": {
            "city": "Ban Phai",
            "country": "Thailand",
            "latitude": 16.057707166667,
            "longitude": 102.72835338333,
            "street": "381/8ถ.สุขาภิบาล1ต.ในเมืองอ.บ้านไผ่จ.ขอนแก่น",
            "zip": "40110"
        },
        "name": "ร้าน สวยเลย บริการเช่าชุดแต่งงาน แต่งหน้าทำผม โดยช่างระดับมืออาชีพ",
        "phone": "0828414606"
    },
    {
        "id": "629509597144614",
        "location": {
            "city": "Udon Thani",
            "country": "Thailand",
            "latitude": 17.01794,
            "longitude": 103.49238,
            "street": "อ.วังสามหมอ",
            "zip": "41280"
        },
        "name": "Kimmi Jung.ช่างแต่งหน้า-ทำผมคนภูไท",
        "phone": "0846010166"
    },
    {
        "id": "603233829822726",
        "location": {
            "city": "Amphoe Muang Chiang Mai",
            "country": "Thailand",
            "latitude": 18.802615,
            "longitude": 98.98403614
        },
        "name": "ร้านทำผม แต่งหน้าชื่อดังย่านช้างเผือก โดย ระบบเหวี่ยงทุกกรณี"
    },
    {
        "id": "402747309781666",
        "location": {
            "city": "Bangkok",
            "country": "Thailand",
            "latitude": 13.59845513,
            "longitude": 100.60986236,
            "zip": "10270"
        },
        "name": "@ร้าน คิดถึงการช่าง  แต่งฟิกเกียร์ เอาหั้ยเฟี้ยว หลานอยากเทห์"
    },
    {
        "id": "561159003980835",
        "location": {
            "city": "Bangkok",
            "country": "Thailand",
            "latitude": 13.8530089993,
            "longitude": 100.581639194
        },
        "name": "ช่างแต่งหน้า Bird Thana : Makeup Artist"
    },
    {
        "id": "404069636364197",
        "location": {
            "city": "Bangkok",
            "country": "Thailand",
            "latitude": 13.862390784408,
            "longitude": 100.58549813527,
            "street": "Signature vibhavadee60",
            "zip": "10210"
        },
        "name": "บ้านช่างแต่งหน้าพี่แหม่ม"
    },
    {
        "id": "432726693599865",
        "location": {
            "city": "Pak Tho",
            "country": "Thailand",
            "latitude": 13.388095755255,
            "longitude": 99.836819171906
        },
        "name": "ร้านเสริมสวย ที่มีช่างแต่งหน้าสวยสวย ในตลาดแถวหมอทวีศักดิ์"
    },
    {
        "id": "436569919712807",
        "location": {
            "latitude": 19.757236763853,
            "longitude": 99.694444919098
        },
        "name": "บ้านคุณอันโตะ ช่างแต่งหน้าเชียงใหม่"
    },
    {
        "id": "533379250077959",
        "location": {
            "city": "Bangkok",
            "country": "Thailand",
            "latitude": 13.945898319816,
            "longitude": 100.62313495945,
            "street": "Thanon Phahon Yothin"
        },
        "name": "ร้านส้มตำ น้องเมย์ ช่างแต่งหน้า ช่อง 5 ค่ะ"
    },
    {
        "id": "489064537899074",
        "location": {
            "city": "Bangkok",
            "country": "Thailand",
            "latitude": 13.75395,
            "longitude": 100.50224,
            "street": "http://nuwickymakeup.com/ \nLine ID: nuwickymakeup"
        },
        "name": "Nuwickymakeup ช่างแต่งหน้า บงกช 9",
        "phone": "0863039090"
    }
]