[
    {
        "id": "741378832619562",
        "name": "ช่างแต่งหน้า5บาท"
    },
    {
        "about": "All about makeup",
        "id": "462578763794555",
        "location": {
            "city": "Non Buri",
            "country": "Thailand",
            "latitude": 13.8333,
            "longitude": 100.483,
            "street": "MemoPhotoCorner",
            "zip": "11000"
        },
        "name": "ช่างแต่งหน้า By WiWi Makeup",
        "phone": "08-1775-3208"
    },
    {
        "id": "697933533558951",
        "location": {
            "city": "Bangkok",
            "country": "Thailand",
            "latitude": 13.74641,
            "longitude": 100.50865,
            "street": "bangkok",
            "zip": "10100"
        },
        "name": "ช่างแต่งหน้า",
        "phone": "084 5179852"
    },
    {
        "about": "ช่างภาพและช่างแต่งหน้ามืออาชีพ สำหรับงานพิธีมงคลสมรส พรีเวดดิ้ง งานรับปริญญา",
        "emails": [
            "okstudio1@gmail.com"
        ],
        "id": "130722940410408",
        "name": "ช่างภาพ-ช่างแต่งหน้า-งานแต่งงาน-พรีเวดดิ้ง-งานรับปริญญา",
        "phone": "083-611-3-555"
    },
    {
        "about": "บริการแต่งหน้า + ทำผมเจ้าสาว พรีเว้ดดิ้ง รับปริญญา ไปงาน  088-677-4466,082-341-7033",
        "emails": [
            "kaimakeup@hotmail.co.th"
        ],
        "id": "309693035794119",
        "location": {
            "city": "Bangkok",
            "country": "Thailand",
            "latitude": 13.8046398,
            "longitude": 100.8094025,
            "street": "นนทบุรี",
            "zip": "11000"
        },
        "name": "ช่างแต่งหน้าเจ้าสาวกรุงเทพฯ",
        "phone": "0886774466"
    },
    {
        "about": "ช่างแต่งหน้า-ทำผม มืออาชีพ เบอร 044267311 ไลน์ id oppomini06",
        "id": "404308296382012",
        "name": "ช่างแต่งหน้า-ทำผม มืออาชีพโคราช"
    },
    {
        "about": "รับแต่งหน้าทำผมเจ้าสาว รับปริญญา และงานพิธีต่างๆ",
        "description": "บริการด้วยเครื่องสำอางค์Brandname เช่น nars, laura mercier, bobbi brown, mti, clinique, lancome, etc.\n\nสอบถามเพิ่มเติมโทร 0815708484 \nE-mail : makeupbyjern@gmail.com",
        "emails": [
            "makeupbyjern@gmail.com"
        ],
        "id": "410536065698376",
        "name": "ช่างแต่งหน้า เจ้าสาว",
        "phone": "0815708484"
    },
    {
        "about": "บริการแต่งหน้าทุกโอกาส งานสวย ฉ่ำ เด้ง\nติดต่อแพร:094-4820412\nLine:pairry122",
        "id": "207476879358727",
        "location": {
            "city": "Si Racha",
            "country": "Thailand"
        },
        "name": "ช่างแต่งหน้าชลบุรี Pairry make up 094-482-0412",
        "phone": "094-4820412"
    },
    {
        "about": "สนใจติดต่อ  080-4669944\nID Line.080-4669944\nIG.bank9_makeup\n",
        "id": "240455926160948",
        "location": {
            "city": "Udonthani",
            "street": "Thailand",
            "zip": "41000"
        },
        "name": "ช่างแต่งหน้า  bank  make up"
    },
    {
        "about": "รับแต่งหน้า ทำผม ในทุกวันพิเศษของคุณค่ะ \nMake up artist Thailand (Ayutthaya)\n\nติดต่องาน (Contact and Booking)\nLine ID: bobosps\nCall: 0957797209",
        "id": "1787039871522574",
        "location": {
            "city": "Ayutthaya",
            "country": "Thailand",
            "street": "อุทัย โรจนะ"
        },
        "name": "ช่างแต่งหน้าอยุธยา By Bobo Make Up",
        "phone": "0957797209"
    },
    {
        "about": "ช่างแต่งหน้าทำผม",
        "description": "ติดต่อ 0858845748ช่างใช้เครื่องสำอางแบรนด์เนมจากเค้าเตอร์ทุกอย่างค่ะติดต่อช่างได้ตลอดเวลาค่ะ",
        "id": "279996702145355",
        "location": {
            "city": "Bang Khen",
            "country": "Thailand",
            "latitude": 13.90811,
            "longitude": 100.58717,
            "street": "bangkok",
            "zip": "10210"
        },
        "name": "ช่างแต่งหน้า รับปริญญา เจ้าสาว TUKTA",
        "phone": "085-8845748"
    },
    {
        "about": "ช่างแต่งหน้าเจ้าสาว แต่งหน้ารับปริญญา แต่งหน้าออกงาน แต่งหน้าทุกประเภท ช่างทำผม",
        "id": "347231462126661",
        "location": {
            "city": "Bangkok",
            "country": "Thailand",
            "latitude": 13.72139,
            "longitude": 100.48717,
            "street": "ซอยสมเด็จพระเจ้าตากสิน19",
            "zip": "10600"
        },
        "name": "ช่างแต่งหน้าเจ้าสาว แต่งหน้ารับปริญญา",
        "phone": "0853431587"
    },
    {
        "about": "^^ แต่งหน้าเจ้าสาว พรีเวดดิ้ง รับปริญญา ออกงาน เดินพาเรท ฯลฯ ค่ะ ^^ #นครศรีธรรมราช\nTel : 0945856419 \nLine : jiaoyji",
        "id": "201495760034392",
        "location": {
            "city": "Nakhon Si Thammarat",
            "country": "Thailand",
            "latitude": 8.42106,
            "longitude": 99.96756,
            "street": "หน้ามหาวิทยาลัยวลัยลักษณ์ ร้าน Number 9",
            "zip": "80161"
        },
        "name": "ช่างแต่งหน้านครศรีธรรมราช By-Aoy #line : jiaoyji",
        "phone": " line : jiaoyji โทร ... 0945856419 , 0815975450"
    },
    {
        "about": "บริการแต่งหน้าเจ้าสาว,แต่งหน้ารับปริญญาและโอกาสสำคัญต่างๆ\nสนใจติดต่อได้ที่ \nTel. 094-2497670\nLine : nuchykwang",
        "emails": [
            "nuchykwang@gmail.com"
        ],
        "id": "734934779936872",
        "location": {
            "city": "กรุงเทพมหานคร",
            "street": "ลาดพร้าว 94 ทาวน์ อิน ทาวน์",
            "zip": "10310"
        },
        "name": "ZeDeer Make-up by Kwang ช่างแต่งหน้าเจ้าสาว แต่งหน้ารับปริญญา",
        "phone": "094-2497670"
    },
    {
        "about": "โทสอบถามราคา หรือ ติดต่องานได้ ทุกวันนะคะ\nเวลา 11.00 น.-19.00 น. ค่า",
        "id": "412985518826673",
        "location": {
            "city": "chonburi",
            "street": "sattahip",
            "zip": "20180"
        },
        "name": "ช่างแต่งหน้า ชลบุรี ระยอง พัทยา สัตหีบ Ms.Pang Make-Up",
        "phone": "0925299955"
    },
    {
        "about": "ช่างแต่งหน้า รับแต่งหน้า ปริญญา เจ้าสาว สม้ครแอร์",
        "description": "รับทำผม ออกแบบทรงผม  ทรงผมเจ้าสาว ทรงผมรับปริญญา",
        "emails": [
            "bebemakeup@hotmail.com"
        ],
        "id": "323665407716167",
        "location": {
            "city": "Bangkok",
            "country": "Thailand",
            "zip": "10240"
        },
        "name": "ช่างแต่งหน้า รับแต่งหน้า ทั่วไทย",
        "phone": "0851463446"
    },
    {
        "about": "แต่งเติมใบหน้าเพื่อรับสิ่งดีๆเข้ามาในชีวิต",
        "description": "บริการแต่งหน้า จัดทรงผม ทำเล็บ ทุกงาน ทุกโอกาส บริการจากเราใส่ใจทุกรายละเอียด",
        "id": "228553843967180",
        "location": {
            "city": "Amphoe Muang Chiang Mai",
            "country": "Thailand",
            "latitude": 18.805177097208,
            "longitude": 98.989906311035,
            "street": "ซอย 3 ถนนหมื่นด้ามพร้าคต ตำบลช้างเผือก อำเภอเมือง จังหวัดเชียงใหม่",
            "zip": "50300"
        },
        "name": "ช่างแต่งหน้า ทำผม   สนใจติดต่อDozo 0861556304",
        "phone": "098-7655510, 086-1556304, 086-1917852"
    },
    {
        "about": "รับแต่งหน้าทำผมทุกงานค่ะ ติดต่อ 081-922-4145 line id: yooyumakeup sadako_yu@hotmail.com ",
        "description": "Make up \u0026 Hair styling service\n- Bridal make up\n- Pre-wedding\n- Personal make up (party,event,MC)\n- Fashion shooting\n- Lookbook shooting\n-----------------------------------------\nบริการแต่งหน้าและทำผมโดยทีมงานมืออาชีพ\n- แต่งหน้าเจ้าสาว\n- ถ่ายพรีเวดดิ้ง\n- แต่งหน้าไปงาน\n- แต่งหน้าถ่ายแบบ Fashion, lookbook, โฆษณา\n- แต่งหน้าสมัครแอร์\n- แต่งหน้างาน Event ต่างๆ\nสนใจติดต่อ 0819224145 line id :yooyumakeup",
        "emails": [
            "sadako_yu@hotmail.com"
        ],
        "id": "175054955891982",
        "location": {
            "city": "Klong Toey",
            "country": "Thailand",
            "latitude": 13.719686977318,
            "longitude": 100.56202411652,
            "street": "212",
            "zip": "10110"
        },
        "name": "Yooyu Makeup ช่างแต่งหน้าเจ้าสาว แต่งหน้ารับปริญญา",
        "phone": "0819224145"
    },
    {
        "about": "Makeup Artist by Yodyukhon\nLine Id yodyod555 Tel.0891366603",
        "id": "266733730140289",
        "location": {
            "city": "สมุทรปราการ"
        },
        "name": "ช่างแต่งหน้ามืออาชีพ  Pro Makeup Aritist by yodyukhon",
        "phone": " Line Id yodyod555 tel.0891366603"
    },
    {
        "about": "ติดต่องาน 0823547120",
        "description": "รับแต่งหน้าทัั่วไป รับถ่ายพรีเวดดิ้ง มีชุดไห้เช่า รับจัดดอกไม้ในพิธีต่างๆ ติดต่อ 0823547120",
        "id": "613421662056732",
        "name": "ช่างแต่งหน้าภูเก็ต by crescendo",
        "phone": "0823547120"
    },
    {
        "about": "★ TEL. 0877685907★ LINE: HANIE-Bรับแต่งหน้า-ทำผม ทุกโอกาสสำคัญของคุณ",
        "id": "1386880901537861",
        "location": {
            "city": "Bangkok",
            "country": "Thailand",
            "latitude": 13.70283,
            "longitude": 100.67317,
            "street": "NAKKILAM LAEM THONG",
            "zip": "10250"
        },
        "name": "ช่างแต่งหน้า ทำผม by HANIE",
        "phone": "0877685907"
    },
    {
        "about": "Freelance \nรับแต่งหน้าทำผม งานรับปริญญา งานแต่งงาน ถ่ายพรีเวดดิ้ง ฯลฯ\nติดต่องาน Line : chotika_makeup36 ✨\n",
        "id": "1485033708417031",
        "location": {
            "city": "Rayong",
            "country": "Thailand"
        },
        "name": "Chotikamakeup ช่างแต่งหน้าทำผม ระยอง",
        "phone": "0957156016"
    },
    {
        "about": "ช่างแต่งหน้่า รับปริญญา ช่างแต่งหน้างานแต่งงาน 089-6915-888",
        "description": "089-6915-888\n\n** รับแต่งหน้า ทำผมรับปริญญา มาคนเดียวคิดราคาคนละ 1000 บาท แต่ถ้ามาตั้งแต่ 3 คนขึ้นไปคิดราคาท่านละ 900 บาทค่ะ\n** ส่วนแต่งหน้า-ทำผมเจ้าสาว คิดรอบละ 2000 บาทค่ะ \nแต่ถ้าเหมาเช้าเย็นสามารถคุยราคาพิเศษได้นะค๊ะ\n",
        "emails": [
            "pueng4478@gmail.com"
        ],
        "id": "366743516699496",
        "location": {
            "city": "Bangkok",
            "country": "Thailand",
            "latitude": 13.684645137569,
            "longitude": 100.61056320446,
            "street": "sukhumvit",
            "zip": "10260"
        },
        "name": "ช่างแต่งหน้า ช่างทำผม",
        "phone": "0896915888"
    },
    {
        "about": "DLAZ Make-up artist\nContact : 092-978-8047\nfubawsmazz@gmail.com\nID line : fubawsmazz\nยินดีต้อนรับค่ะ  ทักมาสอบถามรายละเอียดได้นะคะ :D  \u003c3",
        "id": "1599910030258379",
        "location": {
            "city": "Thailand",
            "street": "Bangkok",
            "zip": "12000"
        },
        "name": "DLAZ ช่างแต่งหน้า-ทำผม"
    },
    {
        "about": "แต่งหน้ารับปริญญา,แต่งหน้าเจ้าสาว, สมัครแอร์โฮสเตส โดยช่างแต่งหน้ามืออาชีพ T. 0873435222 Line id: cheekcolors ",
        "description": "แต่งหน้ารับปริญญา แต่งหน้าทำผมเจ้าสาว แต่งหน้าสมัครแอร์โฮสเตส โดย ช่างแต่งหน้า มืออาชีพ \nพร้อมจะให้บริการ กับคุณ ให้คุณสวยที่สุดในวันสำคัญ",
        "emails": [
            "cheekcolors@hotmail.com"
        ],
        "general_info": "แต่งหน้ารับปริญญา แต่งหน้าทำผมเจ้าสาว แต่งหน้าสมัครแอร์โฮสเตส โดย ช่างแต่งหน้า มืออาชีพ \nพร้อมจะให้บริการ กับคุณ ให้คุณสวยที่สุดในวันสำคัญ",
        "id": "105308046190519",
        "location": {
            "city": "Bangkok",
            "country": "Thailand"
        },
        "name": "Cheekcolors.com โดย พี่ตั้มช่างแต่งหน้า 0873435222",
        "phone": "0873435222"
    }
]