[
    {
        "id": "881187568643452",
        "name": "นาเวีย ช่างแต่งหน้า  รับแต่งหน้า-ทำผม ราคาเบาๆ คุณภาพคับแน่น ช่างกันเอง"
    },
    {
        "about": "ช่างแต่งหน้า รับแต่งหน้า ทำผม เจ้าสาว รับปริญญา อีเว้นท์ต่างๆ นอกสถานที่ โดยช่างมืออาชีพ",
        "description": "รับ แต่งหน้า ทำผม เจ้าสาว เพื่อนเจ้าสาว รับปริญญา ถ่ายแบบ และงานอีเว้นท์ต่างๆ นอกสถานที่ ทั้งในและต่างประเทศ\n\nด้วย เครื่องสำอางแบรนด์เนมชั้นนำ+++\n\nChanel, Dior, Laura mercier, Naked, Shu uemura, Etude, Covermark,  Mac, Revlon\n\n** แป้ง รองพื้น แน่นนาน กันน้ำ\n\n** Lip ลิปสติก สีสวยหวาน \n\n/// คิ้วสวยแน่น ไม่ด่าง ใช้ ขนตาปลอม คุณภาพดี ดินสอเขียนขอบตา อายไลเนอร์ เนียนแน่น ทั้งวัน ไม่ไหลเฟิมเลย///\n\n\u003e\u003eงานผม \u003e\u003eเกล้าผม \u003e\u003eงานเปียผม \n\nโดยช่างมืออาชีพ...ราคากันเองนะจ้ะ\n☆•.¸¸.•´¯`•.¸¸.¤☆•.¸¸.•´¯`•.¸¸.¤\n\nสนใจติดต่อ...แอ้\n////// Line ID: Lady_aaa\n+++ Mobile: 086-880-4355\n@@ http://Facebook.com/messages/MakeupDelivery.co.th\n",
        "emails": [
            "makeupbyaaa@gmail.com"
        ],
        "id": "603055426478826",
        "location": {
            "city": "Bangkok",
            "country": "Thailand",
            "street": "Chatuchak",
            "zip": "10900"
        },
        "name": "ช่างแต่งหน้า ทำผม เจ้าสาว รับปริญญา นอกสถานที่ Makeup Delivery",
        "phone": "0868804355"
    },
    {
        "about": "ช่างแต่งหน้าทำผม เจ้าสาว รับปริญญา ออกงาน ",
        "description": "ช่างแต่งหน้าสวยงามทุกเภทตามที่ลูกค้าต้องการ บริการนอกสถานที่",
        "emails": [
            "perapa_w@hotmail.com"
        ],
        "general_info": "บริการแต่งหน้าทำผมรับปริญญา ทั้งวันซ้อมและวันจริง\n\nเปิดกรุ๊ปแต่งหน้าทำผมรับปริญญา สถานที่เปิดกรุ๊ปใกล้กับสถานที่จัดงาน เดินทางเพียง 20นาที มาคนเดียวได้ราคากรุ๊ป จองก่อนได้เลือกเวลาก่อน\n\nเปิดกรุ๊ปส่วนตัว น้องๆรวมเพื่อนให้ได้ 6คนขึ้นไป พี่ไปบริการให้ถึงสถานที่พักค่ะ ได้ราคากรุ๊ป โทรจองล่วงหน้าได้เลยค่ะก่อนที่คิวจะเต็ม \n0989429296",
        "id": "153122058112405",
        "location": {
            "city": "Bang Bua Thong",
            "country": "Thailand",
            "latitude": 13.87478,
            "longitude": 100.421665,
            "street": "rattanathibet",
            "zip": "11110"
        },
        "name": "ช่างแต่งหน้าทำผม Mam Makeup 0989429296",
        "phone": "0989429296"
    },
    {
        "about": "รับแต่งหน้าเจ้าสาวและแต่งหน้าทั่วไป\nถูกที่สุดในพัทยา\nLine : jamessurakiat\nTel : 088-8952455 (เจมส์)\nhttps://www.facebook.com/surakiat.promwiset",
        "id": "686832328083574",
        "name": "ช่างแต่งหน้าพัทยา - James Make Up",
        "phone": "0888952455"
    },
    {
        "id": "1672014326379039",
        "name": "น้องเจมส์ ช่างแต่งหน้า มืออาชีพ"
    },
    {
        "id": "905278602897550",
        "location": {
            "city": "Bangkok",
            "country": "Thailand",
            "latitude": 13.8030796,
            "longitude": 100.8133087,
            "street": "กรุงเทพ",
            "zip": "10310"
        },
        "name": "ช่างแต่งหน้าณเกศ งานประกวดดาวเดือนธรรมศาสตร์",
        "phone": "0815655464"
    },
    {
        "id": "1378902929089699",
        "location": {
            "city": "Bangkok",
            "country": "Thailand",
            "latitude": 13.81913,
            "longitude": 100.67546,
            "street": "อุดมสุข",
            "zip": "10230"
        },
        "name": "ช่างแต่งหน้าณเกศ โลกอนาคต",
        "phone": "0815655464"
    },
    {
        "description": "รับแต่งหน้านอกสถานที่ รับแต่งหน้างานรับปริญญา,งานแต่ง(เจ้าสาว),งานกลางคืน",
        "emails": [
            "olive_duen@yahoo.com"
        ],
        "id": "280366972036904",
        "location": {
            "city": "Bangkok",
            "country": "Thailand",
            "latitude": 13.7411499,
            "longitude": 100.5528488,
            "street": "สุขุมวิท 6",
            "zip": "10250"
        },
        "name": "ช่างแต่งหน้า",
        "phone": "0818047762"
    },
    {
        "about": "แต่งหน้า-ทำผมทุกสไตล์ ในราคาที่คุณพึงพอใจ\nและผลงานที่คุณประทับใจ โดยช่างมืออาชีพ",
        "emails": [
            "mee_make_up@hotmail.com"
        ],
        "id": "510277232395248",
        "name": "ช่างแต่งหน้า",
        "phone": "0819112753"
    },
    {
        "about": "ช่างแต่งหน้าเจ้าสาว และจัดแพคเก็ตแต่งงาน 087 268 2372  ",
        "emails": [
            "day.makeup@hotmail.com"
        ],
        "id": "293337480764487",
        "location": {
            "city": "Bangkok",
            "country": "Thailand",
            "street": "รัชดา",
            "zip": "10120"
        },
        "name": "ช่างแต่งหน้า เจ้าสาว",
        "phone": "087 268 2372 "
    },
    {
        "about": "ถ่ายภาพแต่งงาน  เช่าชุดแต่งงาน  แต่งหน้าเกล้าผมเจ้าสาว จัดสถานที่แต่งงาน ",
        "id": "377244945697842",
        "name": "ช่างแต่งหน้า เกล้าผม"
    },
    {
        "about": "รับแต่งหน้า เกล้าผมเจ้าสาว รับปริญญาในและนอกสถานที่",
        "id": "383739228419991",
        "location": {
            "city": "Ban Tapong Nok",
            "country": "Thailand",
            "latitude": 12.644807618542,
            "longitude": 101.34531149864,
            "street": "61/24",
            "zip": "21000"
        },
        "name": "ช่างแต่งหน้าทำผมระยอง Cozy Makeup\u0026Hair Design",
        "phone": "0871347639"
    },
    {
        "about": "รับงานแต่งน่า ในและนอกสถานที่ ติดต่อได้ 0856591121 แจ๊คกี้",
        "id": "1442467839304768",
        "name": "ช่างแต่งหน้า รับแต่งหน้า ทำผม"
    },
    {
        "emails": [
            "dcltkd2@hotmail.com"
        ],
        "id": "361101580758597",
        "location": {
            "city": "เมือง",
            "street": "ถ.เทพารักษ์",
            "zip": "10270"
        },
        "name": "ช่างแต่งหน้ามือใหม่",
        "phone": "085-111-2309"
    },
    {
        "id": "834432323322366",
        "location": {
            "city": "Bangkok",
            "country": "Thailand",
            "latitude": 13.8030796,
            "longitude": 100.8133087,
            "street": "กรุงเทพ",
            "zip": "10230"
        },
        "name": "ช่างแต่งหน้าณเกศ ทองกวาว",
        "phone": "0815655464"
    },
    {
        "about": "บริการแต่งหน้า-ทำผม ทุกโอกาส โดยทีมงานมืออาชีพ ไปทุกที่ทั่วโลก",
        "description": "สนใจสอบถามรายละเอียด จองคิว ได้ตามนี้เลยค่าาา...ไปทุกที่ ยินดีให้บริการค่ะ\n\nTel. 08-6789-7110  , 08-9031-5031(เรย์)\n \nLine ID :raymakeup\n",
        "emails": [
            "rayforwedding@hotmail.com"
        ],
        "id": "559718497383342",
        "location": {
            "city": "Bangkok",
            "country": "Thailand",
            "street": "ม.พฤกษาทาวน์เน็ก  รามอินทรา 109",
            "zip": "10510"
        },
        "name": "ช่างแต่งหน้าทำผม  เรย์ 086-789-7110",
        "phone": "0867897110 ,  0890315031"
    },
    {
        "about": "คอร์สเรียนและรับสอนการแต่งหน้าด้วยตัวเองอย่างมืออาชีพ by อ.แอ๊นท์",
        "emails": [
            "ant2523zzz@hotmail.com"
        ],
        "id": "919548088084265",
        "location": {
            "city": "Bangkok",
            "country": "Thailand",
            "latitude": 13.7419701,
            "longitude": 100.5526505,
            "street": "113 ซ.ปุณณวิถี 50 ถนนสุขุมวิท 101",
            "zip": "10260"
        },
        "name": "ช่างรับแต่งหน้ารับปริญญา และเจ้าสาว นอกสถานที่ราคาถูก",
        "phone": "0899392757"
    },
    {
        "about": "รับแต่งหน้า ทำผมในทุกโอกาสพิเศษของคุณ",
        "description": "แต่งหน้า-ทำผมรับปริญญา แต่งหน้าเจ้าสาว แต่งหน้าไปงานและแต่งหน้าในทุกๆโอกาส ทั้งในและนอกสถานที่ ราคาเป็นกันเอง\n\nติดต่อสอบถามได้ที่ \n\nMobile : 091-010-9008 น้ำวุ้น  095-412-0428,092-421-2351 พี่ภัท\nLine ID : tuffytip        pat.makeup\nEmail : makeup_hut@hotmail.com ",
        "emails": [
            "namwoon.wp@gmail.com"
        ],
        "id": "1450861941853263",
        "location": {
            "city": "Non Buri",
            "country": "Thailand"
        },
        "name": "ช่างแต่งหน้า-ทำผม by Makeup_Hut",
        "phone": "091-010-9008"
    },
    {
        "about": "ช่างแต่งหน้า ช่างทำผม by meple_makeup \nรับทั้งในและนอกสถานที่นะค่ะ",
        "description": "ช่างแต่งหน้า ช่างทำผม by meple_makeup เป็นช่างแต่งหน้ามืออาชีพ มั่นใจได้ในฝีมือ ความสามารถและคุณภาพ การันตีได้ในผลงาน\nซื่อสัตย์และตรงเวลา ใส่ใจทุกรายละเอียด เต็มที่กับทุกบริการ เพื่อมอบสิ่งที่ดีที่สุดให้กับลูกค้าทุกท่าน\n\nแต่งหน้าทำผมเจ้าสาว,\nแต่งหน้าทำผมรับปริญญา,\nแต่งหน้าไปงานทั่วไป,\nแต่งหน้าสมัครแอร์,\nแต่งหน้าทำผมรายการต่างๆ,\nแต่งหน้าแฟชั่น,\nแต่งหน้าไปงานบายเนียร์,\nแต่งหน้าถ่ายแบบ,\nแต่งหน้าพริตตี้,\nแต่งหน้าทำผมเป็นกลุ่มหรือบริษัทหรือองค์กรต่างๆ,\nแต่งหน้าในโอกาสต่างๆ ตามความต้องการของลูกค้า\n\nเราให้บริการอย่างเป็นกันเองในราคามิตรภาพ อยากให้แต่งหน้าในแบบไหนสไตล์ไหน สามารถแจ้งได้เลยนะค่ะ\n\nรับรองไม่ทำให้ท่านผิดหวังแน่นอน หน้าสวย ผมเลิศ คอนเฟิร์ม.... เป๊ะเว่อๆ แน่นอนค๊า....\n\n\"เอาใจใส่ทุกรายละเอียด ดูแลเหมือนญาติสนิท ในราคามิตรภาพจริงๆค่ะ\"\n\nโดยช่างแต่งหน้าทำผมมืออาชีพ ด้วยเครื่องสำอางค์แบรนด์เนมชั้นนำจากเคาน์เตอร์ทุกชิ้นเลยค่ะ\n\n\nเรียนแต่งหน้าตัวเอง เปิ้ลเปิดคอร์สสอนแต่งหน้าตัวเอง สำหรับท่านใดต้องการเรียนแต่งหน้าสวยๆง่ายๆด้วยตัวเอง เราสอนทั้งทฤษฏีและเน้นการปฏิบัติ การแก้ไขรูปหน้า การใช้แสงเงา การเลือกโทนสีให้เหมาะกับตัวเองให้สาวๆสวยดูดีมีความมั่นใจ เน้นการแต่งหน้าในชีวิตประจำวัน ไปทำงาน ไปงานเลี้ยง ไปออกงานต่างๆ\nการเรียนเปิ้ลจะสอน 2 ลุคใน 1 วันค่ะ \n\nรับทั้งในสถานที่และบริการแต่งหน้านอกสถานที่ นะค่ะ จึงทำให้สะดวกสบายสำหรับลูกค้าทุกท่านเลยค่ะ\n\n++กรณีในสถานที่เป็นที่รัชดา19 หรือ วิภาวดี16 หรือ MRT สถานีรัชดาภิเษก",
        "id": "881974311838861",
        "location": {
            "city": "Bangkok",
            "country": "Thailand",
            "latitude": 13.82676,
            "longitude": 100.56398,
            "street": "Regent Home5 Condo",
            "zip": "10900"
        },
        "name": "ช่างแต่งหน้ารับปริญญา แต่งหน้าสมัครแอร์ แต่งหน้าไปงาน by meple_makeup",
        "phone": "083-922-1141"
    },
    {
        "description": "รับแต่งหน้าทำผมเจ้าสาว รับปริญญา แต่งหน้าไปงาน สมัครงาน ทั้งในกรุงเทพและต่างจังกวัด****ต่างจังหวัดอาจคิดค่าเดินทางเพิ่มเล็กน้อย\n\nแต่งหน้าทำผมเจ้าสาว-บ่าว รอบละ4,500\n\nแต่งหน้าทำผมรับปริญา 5คนขึ้นไปรอบละ1500\n\nธ.ทหารไทย เลขทีาบัญชี 142-2-13907-9\n\nช่างตั้ม 0816436047\n",
        "emails": [
            "tum-1232010@hotmail.com"
        ],
        "id": "243733892496230",
        "location": {
            "city": "Bangkok",
            "country": "Thailand",
            "latitude": 13.75395,
            "longitude": 100.50224,
            "street": "Thonburi"
        },
        "name": "ช่างแต่งหน้า-ทำผม by Tum make up.",
        "phone": "0816436047"
    },
    {
        "about": "Wolf Makeup\nTel / Whatsapp : 085-065-6066 [24 hours]\nLine id : pimmy.swnt",
        "id": "732267286792917",
        "name": "ช่างแต่งหน้า แต่งหน้า ทำผม ช่างแต่งหน้ามืออาชีพ แต่งหน้ารับปริญญา",
        "phone": "0850656066"
    },
    {
        "about": "สอนแต่งหน้า รับแต่งหน้า โดย อ.ตุ๊ก          www.ajarntook.pantown.com",
        "description": "สอนแต่งหน้าสำหรับตนเอง เรียนแต่งหน้าเพื่อการประกอบอาชีพ\nรับแต่งหน้า - ทำผม รับปริญญา เจ้าสาว ไปงาน โดย อ.ตุ๊ก ",
        "emails": [
            "ajarntook@gmail.com"
        ],
        "id": "250117815000406",
        "location": {
            "street": "ซ.ลาดพร้าว 64  กรุงเทพ"
        },
        "name": "ช่างแต่งหน้าเจ้าสาว ช่างแต่งหน้ารับปริญญา",
        "phone": "0863212624"
    },
    {
        "about": "สอบถามคิวแต่งหน้าได้ที่ ไอดีไลน์ readyskin ช่างแต่งหน้า อะเกน น่ะคะ ฝากติดตามผลงานด้วยค่ะ.Thank you.",
        "id": "612576898879026",
        "location": {
            "city": "Surin",
            "country": "Thailand",
            "latitude": 14.88013971,
            "longitude": 103.488825275,
            "street": "624-626 ถ.ธนสาร ต.ในเมือง",
            "zip": "32000"
        },
        "name": "ช่างแต่งหน้า ทำผมมืออาชีพ ByAgainz",
        "phone": "0804788890"
    },
    {
        "about": "รับแต่งหน้า ทำผม ในทุกๆโอกาส\nID Line : sutalinee2526\nTel : 0892109190",
        "id": "118152108394772",
        "name": "ช่างแต่งหน้า ทำผม ทุกๆโอกาส ราคาถูก",
        "phone": "0892109190"
    },
    {
        "about": "ช่างแต่งหน้า-ทำผม มืออาชีพขั้นสูง 080-4469944",
        "id": "514088995333886",
        "location": {
            "city": "Bangkok",
            "country": "Thailand",
            "latitude": 13.82676,
            "longitude": 100.56398,
            "street": "กรุงเทพ",
            "zip": "10900"
        },
        "name": "ช่างแต่งหน้า-ทำผมมืออาชีพ",
        "phone": "080-4469944"
    }
]