[
    {
        "about": "บริการแต่งหน้าทำผม เจ้าสาว รับปริญญา และงานโอกาสต่างๆ ราคาไม่แพง เครื่องสำอางคุณภาพค่ะ",
        "id": "1447788882188792",
        "name": "ช่างแต่งหน้าทำผม Mangpor makeup",
        "phone": "0877111466"
    },
    {
        "about": " รับงานแต่งหน้าทำผมเจ้าสาว รับปริญญา แต่งหน้าไปงานต่างๆ☎️084-072-5330,095-769-5296,id line:virginsss,ig:virgins_make_up",
        "id": "350772318441824",
        "name": "Virgins_make_up ช่างแต่งหน้าทำผม"
    },
    {
        "about": "รับแต่งหน้าทำผมทุกโอกาส ด้วยช่างมืออาชีพที่มีประสบการณ์มาอย่างยาวนาน",
        "emails": [
            "ninhong@hotmail.com"
        ],
        "id": "1445071449041819",
        "location": {
            "city": "Chiang Mai",
            "country": "Thailand",
            "street": "18 ถ.ทองกวาว ต.ช้างเผือก อ.เมือง",
            "zip": "50300"
        },
        "name": "คุณนิ้งโหน่ง ช่างแต่งหน้าเชียงใหม่",
        "phone": "0806195549"
    },
    {
        "about": "ช่างแต่งหน้ามืออาชีพ",
        "description": "แต่งหน้ารับปริญญา แต่งหน้าเจ้าสาว แต่งหน้าสมัครแอร์  แต่งหน้าสมัครแอร์",
        "id": "301128383372398",
        "location": {
            "city": "Bangkok",
            "country": "Thailand",
            "latitude": 13.774,
            "longitude": 100.65728,
            "street": "ตำบลหัวหมาก อำเภอบางกะปิ กรุงเทพมฟานคร",
            "zip": "10240"
        },
        "name": "ช่างแต่งหน้า รับแต่งหน้าทั่วประเทศ",
        "phone": "0851463446"
    },
    {
        "id": "1592421917662345",
        "location": {
            "city": "Bangkok",
            "country": "Thailand",
            "latitude": 13.81913,
            "longitude": 100.67546,
            "street": "บางนา",
            "zip": "10230"
        },
        "name": "ช่างแต่งหน้าณเกศ  ดร.สุรินทร์ พิศสุวรรณ นิตยสาร Asian Focus",
        "phone": "0815655464"
    },
    {
        "about": "Id line aom25..",
        "id": "498214506956819",
        "name": "อ้อมช่างแต่งหน้า ทำผม",
        "phone": "0819077554"
    },
    {
        "about": " ช่างแต่งหน้ามืออาชีพให้กับ ศิลปิน ดารา นางแบบ นายแบบ และบุคคลทั่วไป ติดต่องานTel:081-771-0945 somjeed makeup",
        "id": "707997039314710",
        "name": "ช่างแต่งหน้ามืออาชีพ",
        "phone": "0817710945"
    },
    {
        "about": "Freelance Make up artist \u0026 Hairstylist ช่างแต่งหน้าทำผม เชียงราย",
        "description": "Freelance Make Up artist \u0026 Hairstylist ช่างแต่งหน้าทำผม เชียงราย บริการแต่งหน้าทำผมเจ้าสาว ทั้งในและนอกสถานที่ และรับออกแบบดูแลทรงผมโดยช่างมืออาชีพ... ขอฝากผลงานไว้กับทุกท่านด้วย และทางทีมงานยินดีบริการรับงานทั่วประเทศครับ T. 086-1164764 (อั้ม)",
        "emails": [
            "burin_boo8@hotmail.com"
        ],
        "id": "449196641891506",
        "location": {
            "city": "Chiang Saen",
            "country": "Thailand",
            "latitude": 20.276730779523,
            "longitude": 100.08528817253,
            "street": "Tel.0861164764",
            "zip": "57150"
        },
        "name": "Dara de Salon \u0026 Wedding ช่างแต่งหน้าทำผม เชียงราย",
        "phone": "086-1164764 "
    },
    {
        "id": "809588605732085",
        "location": {
            "city": "Bangkok",
            "country": "Thailand",
            "latitude": 13.783495,
            "longitude": 100.71371
        },
        "name": "ช่างแต่งหน้าทำผมกองถ่าย รับแต่งหน้าทำผมเจ้าสาว รับแต่งหน้าทำผมงานรับปริญญา",
        "phone": "0890378399"
    },
    {
        "about": "Hairstylist \u0026 Make-up Artist\nLine: oh.cholticha\nMobile: 0919895245\nFacebook: oh inspire\ne-mail: ohinspirethailand@gmail.com\nhttp://ohinspire.blogspot.com",
        "id": "300543703407891",
        "location": {
            "city": "ระยอง"
        },
        "name": "Oh Inspire ช่างแต่งหน้าทำผม ระยอง",
        "phone": "0919895245"
    },
    {
        "about": "Makeup Artist \u0026 Hair style",
        "description": "Patchy Makeup\n@@บริการแต่งหน้า-ทำผมเจ้าสาว พรีเวดดิ้ง รับปริญญา สัมภาษณ์งาน แอร์โฮสเตส งานเลี้ยงทุกโอกาส งานแสดง งานแฟชั่น ในวันสำคัญของคุณ เราขอเป็นส่วนหนึ่งในความทรงจำที่ได้สร้างความประทับใจให้แก่คุณและคนที่คุณรัก\nและเพื่อเป็นการตอบแทนในความไว้วางใจที่คุณมอบให้ เราสัญญาว่างานที่เราได้รับเกียรติดูแลคุณนั้นเราจะทำให้ดีที่สุด          และสุดความสามารถทุกๆงานคะ ขอบคุณจากใจจริงๆคะ@@",
        "emails": [
            "patchymakeup@gmail.com"
        ],
        "id": "531938853530529",
        "location": {
            "city": "Bangkok",
            "country": "Thailand",
            "latitude": 13.721923022711,
            "longitude": 100.70810013158,
            "street": "Ladkrabang",
            "zip": "10520"
        },
        "name": "Patchy Makeup ช่างแต่งหน้า-ทำผม ทุกโอกาสทุกสไตล์บายพัชชี่",
        "phone": "080-4473338"
    },
    {
        "about": "ชักภาพ สตูดิโอ \nTel. 088-333-663-1 ,083-339-330-1 \nFan Page : http://www.facebook.com/chuckpabStudio",
        "description": "ชักภาพ สตูดิโอ : ช่างภาพ รับถ่ายภาพ รับจ้างถ่ายรูป ตากล้อง งานแต่ง งานหมั้น รับปริญญา งานบวช อีเว้นท์ ในจังหวัดสกลนคร นครพนม อุดรธานี มุกดาหาร กาฬสินธุ์ ร้อยเอ็ด สารคาม ขอนแก่น และจังหวัดอื่นๆ ทั่วประเทศไทย : Pre Wedding/Wedding ,Fastion Portrait งานบุญ งานขึ้นบ้านใหม่ ฯลฯ ถ่ายภาพวีดีโอ/รับทำวีดีโอพรีเซ็นเทชั่น \nแต่งหน้า ทำผม เช่าชุดวิวาห์ \nEmail : ChuckpabStudio@hotmail.com \nTel. 088-333-663-1 ,083-339-330-1 \nFan Page : http://www.facebook.com/chuckpabStudio",
        "id": "496094710415715",
        "name": "ช่างภาพมหาสารคาม รับถ่ายภาพ ตากล้อง งานแต่ง รับปริญญา เช่าชุด แต่งหน้า ทำผม"
    },
    {
        "id": "262876290489066",
        "location": {
            "city": "Sakon Nakhon",
            "country": "Thailand",
            "street": "สกลนคร",
            "zip": "47000"
        },
        "name": "สกลนคร ช่างแต่งหน้า รับแต่งหน้า ทำผม เจ้าสาว แต่งงาน รับปริญญา",
        "phone": "0883336631"
    },
    {
        "about": "รับแต่งหน้า~ทำผม งานสำคัญ ของคุณลูกค้า\nราคากันเอง T:085252-1696",
        "emails": [
            "b.clash_froy@hotmail.com"
        ],
        "id": "291180050924996",
        "location": {
            "city": "Bangkok",
            "country": "Thailand",
            "street": "Ramkhamhaeng",
            "zip": "10240"
        },
        "name": "ช่างแต่งหน้า by Beauty รับแต่งหน้า พรีเวดดิ้ง งานแต่ง รับปริญญา งานเลี้ยง"
    },
    {
        "about": "รับแต่งหน้า-ทำผม ทุกโอกาส  ทุกสถานที่    ติดต่อมือถือ: 088-4441808      line: jujub_jujub",
        "id": "397279427135204",
        "name": "ช่างแต่งหน้า By  Phirayapan Makeup"
    },
    {
        "about": "รับแต่งหน้า-ทำผมรับปริญญา,เจ้าสาว,ออกงานต่างๆ",
        "id": "333531626803377",
        "location": {
            "city": "Bangkok",
            "country": "Thailand",
            "latitude": 13.8133402,
            "longitude": 100.5324326,
            "street": "กรุงเทพ บางนา",
            "zip": "10250"
        },
        "name": "เอส ช่างแต่งหน้าทำผมรับปริญญา- เจ้าสาว",
        "phone": "0894467722"
    },
    {
        "id": "450043118406581",
        "location": {
            "city": "Bangkok",
            "country": "Thailand",
            "latitude": 13.77803,
            "longitude": 100.4854,
            "street": "ออนป้า ทาวเวอร์",
            "zip": "10700"
        },
        "name": "รับแต่งหน้าทำผม โดยช่างที่แต่งหน้าให้กับดาราและสำนักข่าว",
        "phone": "0889064784"
    },
    {
        "id": "908911945808564",
        "name": "ช่างแต่งหน้าณเกศ แต่งหน้าทำผม คุณลูกค้า",
        "phone": "0815655464"
    },
    {
        "about": "ชักภาพ สตูดิโอ \nTel. 088-333-663-1 ,083-339-330-1 \nFan Page : http://www.facebook.com/chuckpabStudio",
        "description": "ชักภาพ สตูดิโอ : ช่างภาพ รับถ่ายภาพ รับจ้างถ่ายรูป ตากล้อง งานแต่ง งานหมั้น รับปริญญา งานบวช อีเว้นท์ ในจังหวัดสกลนคร นครพนม อุดรธานี มุกดาหาร กาฬสินธุ์ ร้อยเอ็ด สารคาม ขอนแก่น และจังหวัดอื่นๆ ทั่วประเทศไทย : Pre Wedding/Wedding ,Fastion Portrait งานบุญ งานขึ้นบ้านใหม่ ฯลฯ ถ่ายภาพวีดีโอ/รับทำวีดีโอพรีเซ็นเทชั่น \nแต่งหน้า ทำผม เช่าชุดวิวาห์ \nEmail : ChuckpabStudio@hotmail.com \nTel. 088-333-663-1 ,083-339-330-1 \nFan Page : http://www.facebook.com/chuckpabStudio",
        "id": "493681024010758",
        "name": "ช่างภาพอุบลราชธานี รับถ่ายภาพ งานแต่ง รับปริญญา เช่าชุด แต่งหน้า ทำผม"
    },
    {
        "id": "444153852404547",
        "location": {
            "city": "Bangkok",
            "country": "Thailand",
            "latitude": 13.77195,
            "longitude": 100.59684,
            "street": "อุดมสุข",
            "zip": "10310"
        },
        "name": "ช่างแต่งหน้าณเกศ China Doll Around the world",
        "phone": "0815655464"
    },
    {
        "about": "รับ แต่งหน้ารับปริญญา แต่งหน้าถ่ายแบบ แต่งหน้าสมัครงาน แต่งหน้าเจ้าสาว",
        "description": "แต่งหน้า-ทำผม รับปริญญา ถ่ายแบบ สมัครงาน พรีเว็ดดิ้ง แต่งงาน โดยทีมงานมืออาชีพ \nLine : 0980453635\nFB : LoveInscriptionLivelyMakeup\nIG : nupitsy",
        "emails": [
            "ple_pitsinee@hotmail.com"
        ],
        "id": "537427516303535",
        "location": {
            "city": "ปทุมธานี"
        },
        "name": "Love Inscription Lively Makeup : ช่างแต่งหน้า รับปริญญา  เจ้าสาว",
        "phone": "0980453635"
    },
    {
        "id": "1017296278298805",
        "name": "ช่างแต่งหน้า เทศบาลเมืองลำพูน",
        "phone": "088 432 4866"
    },
    {
        "about": "บริการแต่งหน้า เกล้าผมเจ้าสาว พิธีเช้า พิธีเย็น ถ่ายพรีเวิดดิ้ง ในเขตกรุงเทพและปริมณฑล",
        "description": "บริการแต่งหน้า เกล้าผมเจ้าสาว พิธีเช้า พิธีเย็น ถ่ายพรีเวิดดิ้ง ในเขตกรุงเทพและปริมณฑล \nสนใจติดต่อ แอนนี่ 098-954-5978 Line : annymakeup",
        "emails": [
            "dm_waranya@hotmail.com"
        ],
        "id": "739152232863461",
        "location": {
            "city": "Thailand"
        },
        "name": "ช่างแต่งหน้าเจ้าสาว อยุธยา อ่างทอง สมุทรสงคราม สมุทรสาคร นครปฐม",
        "phone": "0989545978"
    },
    {
        "about": "\"วันพิเศษของคุณ ให้ Tisttar House ดูแลนะคะ\"\nTel: 085-806-0332\nLineID : tisttarhouse",
        "description": "\"วันพิเศษของคุณ ให้ Tisttar House ดูแลนะคะ\"\nรับแต่งหน้า-ทำผม ในโอกาสพิเศษของคุณ\nTel: 085-806-0332\nLineID : tisttarhouse",
        "emails": [
            "tisttarhouse@gmail.com"
        ],
        "general_info": "รับแต่งหน้าทำผม เจ้าสาว รับปริญญา ไปงาน งานเลี้ยง บายเนียร์ \nแต่งหน้าในโอกาสพิเศษของคุณ\n\n",
        "id": "711456345552997",
        "location": {
            "city": "Bangkok",
            "country": "Thailand",
            "street": "46 Soi Charansanitwong 70/3 Charansanitwong Road, Bangplad",
            "zip": "10700"
        },
        "name": "Makeup By Tisttar House ช่างแต่งหน้า ทำผม เจ้าสาว รับปริญญา",
        "phone": "085 806 0332"
    },
    {
        "about": " รับแต่งหน้ารับปริญญา เจ้าสาว และโอกาศที่สำคัญของคุณผู้หญิง หมอก 087-6599476",
        "description": "รับแต่งหน้า โดยช่างมืออาชีพ ใช้ผลิตภัณฑ์เครื่องสำอางค์ชื่อดัง M.A.C \nสนใจติดต่อ  หมอก 087-659-9476",
        "id": "507111405976231",
        "name": "Mork Make-Up รับแต่งหน้าโดยช่างมืออาชีพ",
        "phone": "087-659-9476"
    }
]