[
    {
        "about": "รับแต่งหน้าทำผม รับปริญญา เจ้าสาว พรีเวดดิ้ง งานเลี้ยงต่างๆ ฯลฯ",
        "description": "รับแต่งหน้า-ทำผม เจ้าสาว พรีเวดดิ้ง รับปริญญา แต่งหน้าสมัครงาน แต่งหน้าไปงานต่างๆ ฯลฯ เราบริการด้วยความจริงใจ ใช้เครื่องสำอางแบรนด์คุณภาพ ราคาเบาๆที่ใครๆก็สามารถสวยได้",
        "emails": [
            "trexidigital@gmail.com"
        ],
        "id": "429029017223938",
        "location": {
            "city": "Bangkok",
            "country": "Thailand",
            "latitude": 13.694130692885,
            "longitude": 100.62541214848,
            "street": "บางจาก พระโขนง",
            "zip": "10260"
        },
        "name": "Nangfa Makeup ช่างแต่งหน้าทำผมเจ้าสาว ช่างแต่งหน้ารับปริญญา",
        "phone": "0946644496"
    },
    {
        "about": "รับแต่งหน้า แต่งหน้าสมัครแอร์ โดยพี่บีช่างแต่งหน้า",
        "id": "1505191733042805",
        "name": "ช่างแต่งหน้า รับแต่งหน้าสมัครแอร์"
    },
    {
        "about": "รับแต่งหน้าสมัครแอร์ ทุกสายการบิน",
        "id": "541487265949596",
        "location": {
            "city": "Bangkok",
            "country": "Thailand",
            "latitude": 13.774,
            "longitude": 100.65728,
            "street": "หัวหมาก บางกะปิ",
            "zip": "10240"
        },
        "name": "ช่างแต่งหน้า สมัครแอร์ มืออาชีพ",
        "phone": "0851463446"
    },
    {
        "id": "687876527998162",
        "location": {
            "city": "Bangkok",
            "country": "Thailand",
            "latitude": 13.81913,
            "longitude": 100.67546,
            "street": "อุดมสุข",
            "zip": "10230"
        },
        "name": "ช่างแต่งหน้าณเกศ เจ้าสาวเช้าชุดไทย สีทอง",
        "phone": "0815655464"
    },
    {
        "id": "220219331482144",
        "location": {
            "city": "Udon Thani",
            "country": "Thailand",
            "latitude": 17.39122,
            "longitude": 102.77796,
            "street": "อุดรธานี",
            "zip": "41000"
        },
        "name": "ช่างแต่งหน้า อุดรธานี Makeup Artist Udonthani",
        "phone": "0883040156"
    },
    {
        "about": "แต่งหน้าทำผมเจ้าสาว\n\nแต่งหน้าทำผมไปงานเลี้ยง\n\nแต่งหน้าทำผมรับปริญญา\n\nแต่งทำผมหน้าแฟชั่น",
        "description": "\u003c3 ให้เราได้เป็นส่วนหนึ่งในวันสำคัญที่สุดของคุณ \u003c3",
        "emails": [
            "penguingwangmakeup@hotmail.com"
        ],
        "id": "1604746916471341",
        "location": {
            "city": "Non Buri",
            "country": "Thailand",
            "latitude": 13.8333,
            "longitude": 100.483,
            "street": "Tiwanon",
            "zip": "11ooo"
        },
        "name": "ช่างแต่งหน้า By Penguin Gwang",
        "phone": "# 081-439-1813 #"
    },
    {
        "id": "890729784274264",
        "name": "ช่างแต่งหน้า เอมมี่ ชัยนาท",
        "phone": "0845755903"
    },
    {
        "about": "รับแต่งหน้า ทำผมเจ้าสาว ฯลฯ สวยหวาน ใสๆ\n",
        "description": "บริการ BG makeup \u0026 hairdo รับแต่งหน้า ทำผม เจ้าสาว งานรับปริญญา แฟชั่น \nออกงาน การแสดงต่างๆ เพื่อนเจ้าสาว ราคาไม่แพง ลองติดต่อเข้ามาก่อนได้ค่ะ\n0853905064 ยินดีให้บริการ",
        "emails": [
            "warisa_b84@hotmail.com"
        ],
        "id": "129874960535921",
        "location": {
            "city": "Bangkok",
            "country": "Thailand",
            "latitude": 13.753867397407,
            "longitude": 100.50532965088,
            "street": "วงเวียนใหญ่"
        },
        "name": "ช่างแต่งหน้า ทำผม รับปริญญา แต่งหน้าเจ้าสาว 0853905064 ราคาไม่แพง",
        "phone": "0835905064"
    },
    {
        "id": "524745114352285",
        "name": "ช่างแต่งหน้า"
    },
    {
        "id": "580775882063760",
        "name": "ช่างชาย จำหน่ายชุดแต่งไฟเบอร์ พลาสติกABS ทำสีพร้อมติดตั้ง รับแก้งานสีด่วน"
    },
    {
        "about": "I love photography.\nI love makeup.\nI love Hairstyle.\nสนใจติดต่องานแต่งหน้า เหมียว โทร:082- 1849334\n",
        "id": "919695571378025",
        "location": {
            "city": "Chiangmai",
            "street": "Thailand"
        },
        "name": "Meaw Photography\u0026Makeup ช่างแต่งหน้ารักการถ่ายภาพ",
        "phone": "082-184-9334"
    },
    {
        "about": "ช่างแต่งหน้าทำผมเจ้าสาว บริการระดับมืออาชีพ ",
        "id": "747964908662997",
        "location": {
            "city": "Bangkok",
            "country": "Thailand",
            "latitude": 13.7783203,
            "longitude": 100.5227203,
            "street": "504 ดุสิตคอนโด ถพระราม5 เขตดุสิต 10300 กทม",
            "zip": "0865772666"
        },
        "name": "ช่างแต่งหน้าทำผมเจ้าสาวโอเปิ้ล",
        "phone": "0865772666"
    },
    {
        "about": "แต่งหน้ารับปริญญา แต่งหน้าเจ้าสาว สอนแต่งหน้าทำผม ทั่วประเทศ by Makeup Artist\nTel 0867476304 / Line ID : JaengMakeUp \n",
        "emails": [
            "jaengbkl@yahoo.co.th"
        ],
        "id": "286758768150970",
        "location": {
            "city": "Bangkok",
            "country": "Thailand",
            "street": "Ratchadapisek 13"
        },
        "name": "ช่างแต่งหน้าทำผม แต่งหน้ารับปริญญา-เจ้าสาว เรียนแต่งหน้าทำผม 0867476304",
        "phone": "0867476304"
    },
    {
        "about": "รับแต่งหน้าเจ้าสาว แต่งหน้าไปงาน ",
        "id": "501413880001051",
        "name": "ช่างแต่งหน้าจินนี่"
    },
    {
        "about": "สอบถามรายละเอียดเพิ่มเติม \nพี่ก๊อบปี้ : 083 - 5566991      \n LINE : phruksapat  ",
        "emails": [
            "phruksapat@gmail.com"
        ],
        "id": "133562576797275",
        "location": {
            "city": "Bangkok",
            "country": "Thailand",
            "street": "Radchada",
            "zip": "10400"
        },
        "name": "Phruksapat: ช่างแต่งหน้าทำผม ช่างแต่งหน้าเจ้าสาว ช่างแต่งหน้ารับปริญญา",
        "phone": "0835566991"
    },
    {
        "about": "ช่างแต่งหน้าเมคอัพ  พร้อมทีมงานพรีเวดดิ้ง",
        "emails": [
            "suwat.zazaa@gmail.com"
        ],
        "id": "1502016603401401",
        "location": {
            "city": "นคราชสีมา",
            "street": "นครราชสีมา",
            "zip": "30000"
        },
        "name": "ช่างแต่งหน้าเมคอัพ พรีเวดดิ้ง",
        "phone": "0807998708"
    },
    {
        "about": "Brush , Bag , Case , Ziplock , Etc.",
        "id": "493694097373255",
        "name": "อุปกรณ์ช่างแต่งหน้า ช่างทำผม"
    },
    {
        "about": "รับแต่งหน้าเจ้าสาว\nงานรับปริญญา\nออกงานทุกโอกาส\nของรับไหว้ ของชำร่วย\nรับสอนแต่งหน้า\n",
        "id": "107760089568984",
        "location": {
            "city": "Rayong",
            "country": "Thailand",
            "latitude": 12.6742,
            "longitude": 101.279,
            "zip": "21000"
        },
        "name": "Makeup artist \u0026 Hair stylist ช่างแต่งหน้าทำผมระดับมืออาชีพ ระยอง By มะนาว",
        "phone": "080-6348096 Line ID: Punrapha28"
    },
    {
        "about": "Mobile    +66873636941\nLine  ID   0817727374\nE-mail    Chaiyanw_anna@hotmail.com",
        "id": "196989033759199",
        "location": {
            "city": "Bangkok",
            "country": "Thailand",
            "zip": "10310"
        },
        "name": "Anna:Theatrical Make up Artist-HD Pro Make Up /ช่างแต่งหน้าดารา 087-3636941",
        "phone": "+66873636941"
    },
    {
        "about": "แต่งหน้าเจ้าสาว ช่างแต่งหน้าเวดดิ้ง แต่งหน้าทำผม แต่งหน้าราม แต่งหน้าลำสาลี",
        "description": "แต่งหน้าเจ้าสาว ช่างแต่งหน้าเวดดิ้ง แต่งหน้าทำผม มืออาชีพ makeup artist tui รับแต่งหน้าเจ้าสาว งานเวดดิ้ง มืออาชีพ แต่งหน้าราม แต่งหน้าลำสาลี แต่งหหน้าเจ้าสาวราม แต่งหน้าเจ้าสาวลำสาลี แต่งหน้าเจ้าสาวลาดพร้าว แต่งหน้าเจ้าสาวบางนา แต่งหน้าเจ้าสาวทองหล่อ แต่งหน้าเจ้าสาวสุขุมวิท แต่งหน้าเจ้าสาวมีนบุรี แต่งหน้าดารา",
        "emails": [
            "alisarar@hotmail.co.th"
        ],
        "id": "1040095602674137",
        "location": {
            "city": "Bangkok",
            "country": "Thailand",
            "latitude": 13.762832061161,
            "longitude": 100.64526049519,
            "street": "3697/3 ถนนรามคำแหง แขวงหัวหมาก เขตบางกะปิ",
            "zip": "10240"
        },
        "name": "ช่างแต่งหน้าเจ้าสาว  แต่งหน้าทำผมเวดดิ้ง มืออาชีพ makeup artist tui กรุงเทพ",
        "phone": "0832749990"
    },
    {
        "id": "153073701408995",
        "name": "ช่างแต่งหน้า"
    },
    {
        "about": "ช่างแต่งหน้า รับแต่งหน้าทำผม",
        "id": "262457697264724",
        "location": {
            "city": "Bangkok",
            "country": "Thailand",
            "latitude": 13.774,
            "longitude": 100.65728,
            "street": "หัวหมาก บางกะปิ",
            "zip": "10240"
        },
        "name": "ช่างแต่งหน้า เจ้าสาว มืออาชีพ",
        "phone": "0851463446"
    },
    {
        "about": "บริการให้เช่าชุดแต่งงาน แต่งหน้าทำผม",
        "description": "ร้านโอเค เมคอัพ บริการให้เช่าชุดแต่งงาน ทั้งชุดไทยและชุดสากล ในราคาไม่แพง เริ่มต้นที่ 2,000 บาท และชุดตัดใหม่ สั่งตัดเช่าราคาถูก รวมทั้งงานถ่ายพรีเวดดิ้ง ( Pre-Wedding ) ในราคาที่สามารถเลือกได้ ให้ไฟล์ภาพทั้งหมด บริการวางแผนการจัดงานแต่งงาน ตั้งแต่เริ่มต้นการจัดการวางแผนจนถึงวันแต่งงานจริง พร้อมงานตกแต่งสถานที่แต่งงานตามคอนเซป และรับแต่งหน้า-ทำผม เจ้าสาวโดยช่างที่มีประสบการณ์ เครื่องสำอางค์คุณภาพ ร้านตั้งอยู่ที่ อ.ดอยสะเก็ด จังหวัดเชียงใหม่ และทางร้านยังรับแต่งหน้างานทั่วไป เจ้าสาว รับปริญญา งานเลี้ยง งานบายเนียร์ ทั้งในและนอกสถานที่และต่างจังหวัดติดต่องาน\nโอ่ง 091-6359161\nนัท 095-6904425\n- แต่งหน้าไปงานเลี้ยง Party ,แต่งหน้าเจ้าสาว , แต่งหน้าแฟชั่น - Fancy , Cheerleader\n- รับจัดงาน event + งานแต่ง\n+ เปิดตัวสินค้า\n+ งานเลี้ยงต่างและงานอื่นๆ",
        "emails": [
            "ok.makeup.cnx@gmail.com"
        ],
        "id": "592929280844713",
        "location": {
            "city": "Chiang Mai",
            "country": "Thailand",
            "latitude": 18.833644620318,
            "longitude": 99.12872796936,
            "street": "107 หมู่ 4 ตำบลป่าป้อง อ.ดอยสะเก็ด จ.เชียงใหม่",
            "zip": "50220"
        },
        "name": "OK-Makeup บริการชุดแต่งงาน ไทย ราตรี เช่าราคาถูก ช่างแต่งหน้า เชียงใหม่",
        "phone": "095-6904425 , 091-6359161"
    },
    {
        "about": "ช่างแต่งหน้าณเกศ",
        "id": "782801605141278",
        "location": {
            "city": "Bangkok",
            "country": "Thailand",
            "latitude": 13.77195,
            "longitude": 100.59684,
            "street": "บางนา",
            "zip": "10310"
        },
        "name": "ช่างแต่งหน้าณเกศ Girl Next Door",
        "phone": "0815655464"
    },
    {
        "id": "1402768826698139",
        "location": {
            "city": "Amphoe U-Thong",
            "country": "Thailand",
            "latitude": 14.461193325252,
            "longitude": 99.847148670127
        },
        "name": "ณ งานแต่งแห่งหนึ่ง ที่มีช่างแต่งหน้า หน้าตาดี 5555"
    }
]