[
    {
        "about": "ขายหมวกกและเครื่องแต่งกายด้วยน่ะครับบ",
        "id": "527052497316716",
        "location": {
            "city": "Ubon, Thailand",
            "street": "188/6",
            "zip": "34130"
        },
        "name": "สมาคมนิยมเด็กช่างแต่งเฟี้ยว"
    },
    {
        "id": "707855006011366",
        "name": "ช่างเสริมสวย ช่างแต่งหน้า ทำผม"
    },
    {
        "id": "1646945972228646",
        "location": {
            "city": "Muang Buriram",
            "country": "Thailand",
            "latitude": 14.9885099,
            "longitude": 103.1217122
        },
        "name": "บ้านลูกกาช่างแต่งหน้าที่แต่งตาสวยที่สุดในสามโลก"
    },
    {
        "about": "Monthira make up\u0026hair design",
        "id": "191823494328730",
        "location": {
            "city": "Bangkok",
            "country": "Thailand",
            "latitude": 13.82676,
            "longitude": 100.56398,
            "street": "10 ซ.เทษบาลรังสฤษใต้ ต.ลาดยาว เขต จตุจักร",
            "zip": "10900"
        },
        "name": "ช่างแต่งหน้า ทำผมมืออาชืพ Monthira make up\u0026hair design",
        "phone": "0945134851"
    },
    {
        "about": "ต้นรักเวดดิ้งสตูดิโอ",
        "description": "สนใจที่จะใช้บริการเวดดิ้งครบวงจร ติดต่อ Tel 075 - 441154\n/ 089 - 6506656 ",
        "id": "154559237911223",
        "location": {
            "street": "393  ม.12 ต.ร่อนพิลย์ อ.ร่อนพิบูลย์ จ.นครศรีธรรมราช"
        },
        "name": "ช่างแต่งหน้า ทำผม นครศรีธรรมราช ออย ต้นรัก",
        "phone": "075 - 441154     ,  089 - 6506656"
    },
    {
        "id": "1534332643515941",
        "location": {
            "city": "Bangkok",
            "country": "Thailand",
            "latitude": 13.81913,
            "longitude": 100.67546,
            "street": "อุดมสุข",
            "zip": "10230"
        },
        "name": "ช่างแต่งหน้าณเกศ นายกรัฐมนตรี ประยุทธ์ จั่นโอชา",
        "phone": "0815655464"
    },
    {
        "id": "238585046155709",
        "name": "ช่างแต่งตัวเรือน"
    },
    {
        "id": "390979291070154",
        "location": {
            "city": "Samut Prakan",
            "country": "Thailand",
            "latitude": 13.593845,
            "longitude": 100.59813,
            "street": "สมุทรปราการ",
            "zip": "10270"
        },
        "name": "Pimmy Make up and Hairstylist  ช่างแต่งหน้าทำผม ช่างสักคิ้ว3มิติ6มิติ",
        "phone": "0965236656"
    },
    {
        "about": "ร้านแต่งหน้าทำผมเจ้าสาวสวยที่สุดในบึงกาฬ  \ntell:0896238544",
        "id": "920709827948509",
        "location": {
            "city": "Amphoe Bung Kan",
            "country": "Thailand",
            "latitude": 18.368010714286,
            "longitude": 103.65126005714,
            "street": "บึงกาฬ",
            "zip": "38000"
        },
        "name": "ช่างแต่งหน้าทำผมเจ้าสาวบึงกาฬ สวยเว่อ by แอนนี่",
        "phone": "0896238544"
    },
    {
        "about": "#บริการแต่งหน้า #ทำผม #ทุกโอกาส #งานอีเว้น #ชุดเช่า 0984249563 ร้านเตวง เชียงราย",
        "id": "238529053015104",
        "name": "ช่างแต่งหน้า เชียงราย เชียงใหม่ กรุงเทพ Make Up Artist \u0026 Event By Tor"
    },
    {
        "id": "428508213943713",
        "name": "Noon Makeup ช่างแต่งหน้าเจ้าสาว รับปริญญา ไปงาน แฟชั่น"
    },
    {
        "id": "1473737872932684",
        "name": "ช่างตัดผมเสริมสวยครบวงจรและช่างแต่งหน้า@by ท็อปบิด เช่าชุดแต่งหน้า"
    },
    {
        "about": "Beauty's make up for bridal, gloom  and special occasions,  graduation day, good bye senior. Wedding ceremony equipment rental.",
        "id": "703602389690691",
        "location": {
            "city": "Chiang Mai",
            "country": "Thailand",
            "latitude": 18.87994,
            "longitude": 99.06539,
            "street": "425/6 moo 9 San sai luang A. San sai",
            "zip": "50210"
        },
        "name": "Miu Miu Make up Artist Chiang Mai ช่างแต่งหน้าเชียงใหม่",
        "phone": "0817839639"
    },
    {
        "id": "801177946603869",
        "location": {
            "city": "ปทุมธานี",
            "street": "S.p คอนโดต.คลอง6 อ.คลองหลวง",
            "zip": "12120"
        },
        "name": "นาเดียร์  ช่างแต่งหน้ามืออาชีพ"
    },
    {
        "about": "http://www.facebook.com/profile.php?id=100002554657048#!/profile.php?id=100002554657048\u0026sk=wall",
        "description": "กด like เพื่อรับส่วนลด และของแถม",
        "id": "220441691335715",
        "location": {
            "city": "Pathum Thani",
            "country": "Thailand",
            "street": "Phatum-Latlumkaeo",
            "zip": "12140"
        },
        "name": "สินค้าสำหรับคนช่างแต่งตัว",
        "phone": "0851521326"
    },
    {
        "id": "949997785017219",
        "name": "ช่างแต่งหน้า-ทำผมมืออาชีพ By ณคราเวดดิ้งสตูดิโอ"
    },
    {
        "about": "สักคิ้ว3มิติ ตา ปากชมพู โดยช่างแต่งหน้าไลน์ aey_makeup Instragram aey_makeup 0815844799 ",
        "id": "106925506311058",
        "name": "คิ้วสามมิติ By เอ๋เมคอัพช่างแต่งหน้า"
    },
    {
        "about": "ห้องเสื้อการ์นิช รับออกแบบ ตัดเย็บ ให้เช่าและจำหน่าย เสื้อผ้าสตรีประเภทสวยงาม",
        "id": "296792717186335",
        "location": {
            "city": "Bangkok",
            "country": "Thailand",
            "latitude": 13.8186197,
            "longitude": 100.5924606,
            "street": "ซอย ลาดพร้าววังหิน 48",
            "zip": "10230"
        },
        "name": "Garnish dress\u0026makeupร้านการ์นิช ขาย-เช่าชุดสตรีและช่างแต่งหน้า",
        "phone": "081-4506556"
    },
    {
        "about": "รับจ้างแต่งหน้า ทำผมโดยช่างผมมืออาชีพ",
        "description": "รับบริการแต่งหน้า ทำผม รับปริญญา แต่งงาน งานเดินแบบ ถ่ายแฟชั่น ถ่ายโฆษณา รีวิว นิตยาสาร ทีวี ละคร แฟนซี ราคาเป็นกันเอง ติดต่อได้ทุกเวลา หากไม่รับสาย แสดงว่าติดงาน ติดต่อทาง LINE ได้เลยจ้า  0850228061",
        "id": "263303333794705",
        "location": {
            "city": "Bangkok",
            "country": "Thailand",
            "latitude": 13.74641,
            "longitude": 100.50865,
            "street": "MBK",
            "zip": "10100"
        },
        "name": "AAmakeup แต่งหน้าทำผมโดยช่างมืออาชีพ",
        "phone": "0850228061"
    },
    {
        "about": "Makeup Artist หาช่างแต่งหน้าทำผม ช่างแต่งหน้าทำผม ",
        "id": "239551019579578",
        "location": {
            "city": "Bangkok",
            "country": "Thailand",
            "latitude": 13.75395,
            "longitude": 100.50224,
            "street": "Bangkapi",
            "zip": "12120"
        },
        "name": "Makeup ช่างแต่งหน้า-ทำผมมืออาชีพ"
    },
    {
        "id": "1376669792565275",
        "name": "รับปริญญา กําหนดการรับปริญญา ทรงผมรับปริญญา ช่างแต่งหน้า"
    },
    {
        "id": "1708465472715463",
        "name": "วิศวกรเต็มเวลา ช่างแต่งหน้าพาร์ทไทม์"
    },
    {
        "id": "416997328503863",
        "name": "เจ้าของกิจการ และช่างแต่งหน้า-ทำผม"
    },
    {
        "id": "364179850358172",
        "location": {
            "city": "Bangkok",
            "country": "Thailand",
            "latitude": 17.91245,
            "longitude": 103.53472,
            "street": "154/4",
            "zip": "47140"
        },
        "name": "ส.การช่าง แต่งรถ",
        "phone": "0908874913"
    },
    {
        "id": "394903824029773",
        "name": "P.o.speedwoksสมาคม  ช่างแต่งรถนครราชสีมา"
    }
]