[
    {
        "id": "506417366172075",
        "location": {
            "city": "Bangkok",
            "country": "Thailand",
            "latitude": 13.8030796,
            "longitude": 100.8133087,
            "street": "Thailand",
            "zip": "10230"
        },
        "name": "ช่างแต่งหน้าณเกศ ญาติเจ้าสาว Theme สีทอง",
        "phone": "0815655464"
    },
    {
        "id": "514337838637035",
        "location": {
            "city": "Bangkok",
            "country": "Thailand",
            "latitude": 13.674393809513,
            "longitude": 100.65511002983,
            "zip": "10250"
        },
        "name": "ห้องนอนช่างแต่งหน้าที่สวยที่สุดในประเทศไทย"
    },
    {
        "id": "516065531758338",
        "location": {
            "city": "Bangkok",
            "country": "Thailand",
            "latitude": 13.680681930379,
            "longitude": 100.62296390533
        },
        "name": "ห้องแต่งตัว,แต่งหน้า โดยฝีมือช่างระดับโลก"
    },
    {
        "id": "523297564469314",
        "location": {
            "city": "Nakhon Ratchasima",
            "country": "Thailand",
            "latitude": 14.989354754219,
            "longitude": 102.10796967164,
            "street": "459/25",
            "zip": "30000"
        },
        "name": "ช่างแต่งหน้า-ทำผม คนโคราช",
        "phone": "0985864146"
    },
    {
        "id": "527349254061773",
        "location": {
            "city": "Krabi",
            "country": "Thailand",
            "latitude": 8.0671883,
            "longitude": 98.912187
        },
        "name": "ที่ทำการชั่วคราวชมรมช่างแต่งผมเสริมสวยเทศบาลเมืองกระบี่"
    },
    {
        "about": "รับแต่งหน้า เจ้าสาว แต่งหน้า รับปริญญา Prewedding สนใจติดต่อ 0813762766 Line : anniekaa",
        "id": "759257064134548",
        "location": {
            "city": "Bangkok",
            "country": "Thailand",
            "latitude": 13.69877,
            "longitude": 100.52258,
            "street": "573",
            "zip": "10120"
        },
        "name": "ช่างแต่งหน้า เจ้าสาว Thanik Make up",
        "phone": "0813762766"
    },
    {
        "id": "421118391300779",
        "location": {
            "city": "Bangkok",
            "country": "Thailand",
            "latitude": 13.625294956667,
            "longitude": 100.75058505333,
            "zip": "10540"
        },
        "name": "นิพนธ์การช่างแต่งรถตู้วีไอพี"
    },
    {
        "about": "-รับแต่งหน้าเจ้าสาว\n-ขบวนพาเรด\n-รับปริญญา\n-แต่งหน้างานเลี้ยง\n**รับประกันผลงาน**\n",
        "id": "675604305881635",
        "location": {
            "city": "Surat Thani",
            "country": "Thailand",
            "latitude": 9.1397,
            "longitude": 99.3306,
            "street": "ดอนนก",
            "zip": "84000"
        },
        "name": "ช่างเก๋-รับแต่งหน้า",
        "phone": "0950919995"
    },
    {
        "id": "157546414424942",
        "location": {
            "city": "Puket",
            "country": "Thailand",
            "latitude": 7.882915,
            "longitude": 98.39087,
            "street": "phuket",
            "zip": "93000"
        },
        "name": "ช่างแต่งหน้า",
        "phone": "0894715069"
    },
    {
        "about": "ลิซ่า ซาลอน รับแต่งหน้าทำผม เนื่องงานพิธีต่างๆ รับรองไม่ผิดหวัง...โดยช่างมืออาชีพ ",
        "id": "714817838641095",
        "location": {
            "city": "Pattaya",
            "country": "Thailand",
            "latitude": 12.937339946667,
            "longitude": 100.91102671833,
            "street": "225/94 ม.6 ต.หนองปรือ อ.บางละมุง จ.ชลบุรี"
        },
        "name": "ลิซ่า ซาลอน รับแต่งหน้าทำผม โดยช่างมืออาชีพ",
        "phone": "0901287780"
    },
    {
        "about": "บริการแต่งหน้า-ทำผม •เจ้าบ่าว-เจ้าสาว •เพื่อนเจ้าสาว •ออกงาน •รับปริญญา •Byenior •MC • \nPretty •Model",
        "id": "1105535899462101",
        "location": {
            "city": "Hat Yai",
            "country": "Thailand",
            "latitude": 7.00149161,
            "longitude": 100.47525273,
            "street": "หาดใหญ่",
            "zip": "90110"
        },
        "name": "ช่างแต่งหน้าหาดใหญ่ Makeup hatyai แต่งหน้าเจ้าสาว แต่งหน้ารับปริญญา",
        "phone": "0843004100"
    },
    {
        "about": "รับแต่งหน้า ทำผม ตามสไตส์คุณ สนใจติดต่อ 0804995757  line: jorch_phrae",
        "id": "1568542263415404",
        "location": {
            "city": "Chiang Mai",
            "country": "Thailand",
            "latitude": 18.78988,
            "longitude": 98.93018,
            "street": "อ.เมือง",
            "zip": "50200"
        },
        "name": "Jorch make up  ช่างแต่งหน้า ทำผม เชียงใหม่",
        "phone": "0804995757"
    },
    {
        "id": "982449351816030",
        "location": {
            "city": "Bangkok",
            "country": "Thailand",
            "latitude": 13.7377996,
            "longitude": 100.5565186,
            "street": "สุขุมวิท",
            "zip": "10310"
        },
        "name": "ช่างแต่งหน้าณเกศ ฮูหยิน",
        "phone": "0815655464"
    },
    {
        "id": "476347519173185",
        "location": {
            "city": "Bangkok",
            "country": "Thailand",
            "latitude": 13.81913,
            "longitude": 100.67546,
            "street": "Thailand",
            "zip": "10230"
        },
        "name": "ช่างแต่งหน้าณเกศ ชุดไทย",
        "phone": "0815655464"
    },
    {
        "id": "735781876531640",
        "location": {
            "city": "Bangkok",
            "country": "Thailand",
            "latitude": 13.8030796,
            "longitude": 100.8133087,
            "street": "กรุงเทพ",
            "zip": "10230"
        },
        "name": "ช่างแต่งหน้าณเกศ รับปริญา",
        "phone": "0815655464"
    },
    {
        "id": "1433706973591597",
        "location": {
            "city": "Phitsanulok",
            "country": "Thailand",
            "latitude": 16.8158,
            "longitude": 100.264,
            "street": "Phitsanulok",
            "zip": "65000"
        },
        "name": "แต่งหน้ารับปริญญา โดยช่างมืออาชีพทีมงานคุณโอ๋เวดดิ้ง สตูดิโอ พิษณุโลก",
        "phone": "0805165408"
    },
    {
        "id": "1572871096291528",
        "location": {
            "city": "Bangkok",
            "country": "Thailand",
            "latitude": 13.81913,
            "longitude": 100.67546,
            "street": "บางนา",
            "zip": "10230"
        },
        "name": "ช่างแต่งหน้าณเกศ ถ่ายงานdtac",
        "phone": "0815655464"
    }
]