[
    {
        "about": "แอร์บ้าน จานดาวเทียม กล้องวงจรปิด จำหน่าย ล้าง ย้าย ติดตั้ง",
        "id": "1537609889812643",
        "location": {
            "city": "Samut Prakan",
            "country": "Thailand",
            "latitude": 13.6183,
            "longitude": 100.61105,
            "street": "60/520 ต.บางเมืองใหม่ อำเภอเมือง จ.สมุทรปราการ",
            "zip": "10270"
        },
        "name": "แอร์บ้าน  จานดาวเทียมกล้องวงจรปิดโดยช่างวิโรจน์0825402559",
        "phone": "0825402559"
    },
    {
        "id": "1511730632474366",
        "location": {
            "city": "Amphoe Bang Len",
            "country": "Thailand",
            "latitude": 13.9784529,
            "longitude": 100.1617386
        },
        "name": "แอร์รถยนต์ ไดนาโม ช่างเซ็นส์"
    },
    {
        "id": "1671529716394077",
        "location": {
            "city": "Saraburi",
            "country": "Thailand"
        },
        "name": "สระบุรีช้างแอร์"
    },
    {
        "about": "ติดต่อได้ที่เบอร์ 087-5021696 และ 082-7255499",
        "description": "รับติดตั้งแอร์ จารดาวเทียม\nและระบบกล้องวงจรปิด",
        "emails": [
            "\u003c\u003cnot-applicable\u003e\u003e"
        ],
        "id": "575938645788849",
        "location": {
            "city": "Ratchaburi",
            "country": "Thailand",
            "latitude": 13.547752677004,
            "longitude": 99.829439801216,
            "street": "15/6 ม.9ต.พงสวาย อ.เมือง",
            "zip": "70000"
        },
        "name": "ธนกรแอร์ - ช่างอิ๊ว",
        "phone": "0875021696"
    },
    {
        "id": "851181971608367",
        "location": {
            "city": "Phuket",
            "country": "Thailand",
            "latitude": 7.900253965,
            "longitude": 98.3408263,
            "street": "26/7ม.7ถ.วิชิตสงคราม ต.กะทู้ จ.ภูเก็ต",
            "zip": "83120"
        },
        "name": "ภูเก็ตรวมช่าง งาน เหล็กทุกชนิด ประตูม้วน เหล็กดัด แอร์ ฝ่าเพดาน",
        "phone": "0907080563 "
    },
    {
        "about": "ช่างแอร์ในตำนาน ผมไม่เล็กนะครับ",
        "id": "598749986813155",
        "name": "ช่างแอร์ในตำนาน"
    },
    {
        "id": "127067260967914",
        "location": {
            "city": "Nakhon Si Thammarat",
            "country": "Thailand",
            "latitude": 8.4364,
            "longitude": 99.9631,
            "street": "อำเภอลานสกา",
            "zip": "80230"
        },
        "name": "ร้านช่างหนูใดนาโม แอร์รถยนต์ ลานสกา",
        "phone": "0899081095"
    },
    {
        "about": "งานแอร์-จานดาวเทียมให้เราดูแลแทนคุณ ",
        "id": "524766117577462",
        "name": "ธนกิจการช่าง บริการติดตั้งแอร์-จานดาวเทียม"
    },
    {
        "id": "195023590518695",
        "name": "หัวหน้าช่างแอร์"
    },
    {
        "id": "1071152889561709",
        "location": {
            "city": "Krabi",
            "country": "Thailand"
        },
        "name": "ช่างแอร์ ออนไลน์ By อภิวัฒน์ แอร์ เซอร์วิต"
    },
    {
        "about": "จำหน่ายแอร์\u0026อะไหล่  -บริการซ่อม/ติดตั้ง/ล้างทำความสะอาด แอร์บ้านและโรงงานอุตสาหกรรม",
        "description": "จำหน่ายแอร์\u0026อะไหล่  - บริการซ่อม/ติดตั้ง/ล้างทำความสะอาด แอร์บ้านและโรงงาน",
        "id": "1588329641427284",
        "location": {
            "city": "ประเทศไทย",
            "street": "39/16 ม.1 หมู่บ้านพรธิสาร4 ตำบลคลองเจ็ด อำเภอคลองหลวง จังหวัดปทุมธานี",
            "zip": "12120"
        },
        "name": "ร้านโตการช่าง แอร์\u0026อะไหล่ ซ่อม/ติดตั้ง/ล้าง # 0939734899",
        "phone": "02-904-3738# 098-926-6639"
    },
    {
        "id": "717751585033475",
        "name": "ช่างแอร์ สุรินทร์โดย VTA"
    },
    {
        "about": "แอร์ กล้องวงจรปิด ดาวเทียม ระบบไฟฟ้า เครื่องใช้ไฟฟ้าทุกชนิด",
        "emails": [
            "ideal9.eng@gmail.com"
        ],
        "id": "866984866664397",
        "location": {
            "city": "Kamphaeng Phet",
            "country": "Thailand",
            "latitude": 16.44207,
            "longitude": 99.49592,
            "street": "100/7 ถใประชาหรรษา ต.ในเมือง อ.เมือง จ.กำแพงเพชร",
            "zip": "62000"
        },
        "name": "แอร์บ้าน กล้องวงจรปิด จานดาวเทียม ระบบไฟฟ้า โดย ช่างเอกวิศวกรรม",
        "phone": "0805041288"
    },
    {
        "id": "1614245472169011",
        "name": "ช่างแอร์ ไฟฟ้า จานดาวเทีน"
    },
    {
        "id": "785792148199657",
        "location": {
            "city": "Pathum Thani",
            "country": "Thailand"
        },
        "name": "ทำธุกิจส่วนตัว - ช่างแอร์"
    },
    {
        "about": "ช่างซ่อมแอร์, รับวางระบบ, ฯลฯ",
        "id": "631450996997799",
        "location": {
            "city": "Phitsanulok",
            "country": "Thailand",
            "street": "เมืองพิษณุโลก",
            "zip": "65000"
        },
        "name": "ช่างแอร์ StepSil \"ชอบหิ้วถุงผ้า\"",
        "phone": "0951269111"
    },
    {
        "about": "ซ่อมแอร์รถทุกชนิด\n",
        "description": "อู่จะอยู่ตรงข้ามกับบ่อพรานล้างเนื้อ อยู่ติดกับบ้านเช่าบ่อพรานล้างเนื้อ",
        "emails": [
            "tomaircar@gmail.com"
        ],
        "general_info": "114/6 หมู่8\nตำบล:ขุนโขลน\nอำเภอ:พระพุทธบาท\nจังหวัด:สระบุรี\nรหัสไปรษณีย์:18120\nประเทศ:ไทย",
        "id": "460807440734949",
        "location": {
            "city": "Amphoe Phra Phutthabat",
            "country": "Thailand",
            "latitude": 14.7166649,
            "longitude": 100.79448216,
            "street": "114/6 หมู่8",
            "zip": "18120"
        },
        "name": "อู่ช่างต้อม แอร์รถยนต์",
        "phone": "0841619431"
    },
    {
        "about": "จำหน่ายแอร์บ้านแอร์โรงงานพร้อมติดตั้งราคาถูกๆ  \nรับเหมาติดตั้งแอร์ ล้าง ซ่อม  ย้าย 087-2499856\n",
        "description": "**จำหน่ายแอร์บ้านแอร์โรงงานทุกรุ่นทุกยี่ห้อพร้อมติดตั้งราคาถูกๆๆ\n**รับเหมาติดตั้งและรับเหมาล้างแอร์บ้าน แอร์โรงงาน หอพัก สถานที่ราชการฯลฯ\n**ซ่อม ย้าย ล้าง เติมน้ำยาแอร์",
        "id": "242310899250076",
        "location": {
            "city": "Nakhon Ratchasima",
            "country": "Thailand",
            "latitude": 14.959615474096,
            "longitude": 102.06066066906,
            "street": "745/1 ถ.พายัพทิศ ต.ในเมือง อ.เมือง จ.นครราชสีมา",
            "zip": "30000"
        },
        "name": "พี่น้องแอร์ จำหน่ายแอร์บ้าน  \"ช่างจก\"",
        "phone": "0872499856"
    },
    {
        "id": "843644488991934",
        "name": "FC มาต ช่างแอร์"
    },
    {
        "about": "รับซ่อมติดตั้งแอร์ ล้างแอร์ตู้เย็น เครื่องซักผ้า",
        "id": "506413042853777",
        "name": "ช่างแอร์ ฝั่งธน คนมีจรรยาบรรณ 081-3032704"
    },
    {
        "about": "ปรึกษาเรื่องช่าง โทรได้ทุกเรื่อง ที่เดียวจบ คิดถึงช่าง คิดถึงเรา ลองโทรหาเราสิครับ 086-40-567-40",
        "id": "1511982592356185",
        "location": {
            "city": "Ayuthya",
            "country": "Thailand",
            "latitude": 14.34342,
            "longitude": 100.56622,
            "street": "ayutthaya",
            "zip": "13000"
        },
        "name": "รวมช่างซ่อม เครื่องใช้ไฟฟ้า แอร์ ประปา ไฟฟ้า ในอยุธยา",
        "phone": "0864056740"
    },
    {
        "about": "ลำปาง ช่างแอร์ ติดตั้งแอร์ ล้างแอร์ เติมน้ำยาแอร์ ",
        "description": "ส. รวมช่าง ซ่อมและติดตั้งแอร์ รับเหมาก่อสร้าง งานปูน งานเหล็ก งานกระจก มุ้งลวด รางน้ำ บริการทั่วเมืองลำปาง โทร. 0862533217",
        "emails": [
            "sor.2524@hotmail.com"
        ],
        "id": "167464626651600",
        "location": {
            "city": "้ห้างฉัตร จ.ลำปาง",
            "street": "165/10",
            "zip": "52190"
        },
        "name": "รวมช่าง ลำปาง ซ่อมและติดตั้งแอร์ กระจก มุ้งลวด เหล็กดัด รางน้ำ งานโครงสร้าง",
        "phone": "0862533217"
    },
    {
        "about": "รับ ติดตั้ง ซ่อม ล้างแอร์ ทุกชนิด \n\n0853304582 ช่างโอม ",
        "id": "622759164502772",
        "location": {
            "city": "ชลบุรี",
            "street": "29/3 หมู่2 ต.หนองไม้ อ.เมือง จ.ชลบุรี",
            "zip": "20000"
        },
        "name": "ช่างโอม บรรเทาแอร์",
        "phone": "0853304582"
    },
    {
        "id": "528211427326901",
        "name": "ช่างแอร์ ฝั่งธน คนมีจรรยาบรรณ 081-3032704 ปรีชา อ่อนศรี แอร์บางแค"
    },
    {
        "id": "142315855960593",
        "location": {
            "city": "Bangkok",
            "country": "Thailand",
            "latitude": 13.713012683294,
            "longitude": 100.33408828361,
            "street": "เพชรเกษม116"
        },
        "name": "ช่างทำ แอร์",
        "phone": "0806568921"
    }
]