[
    {
        "id": "383928895008686",
        "name": "ไม่โฉบนะครับ//ทำหน้าช้างแอร์"
    },
    {
        "id": "134997150186612",
        "location": {
            "city": "Ban Nong Pru",
            "country": "Thailand",
            "latitude": 12.918836363839,
            "longitude": 100.94357436259
        },
        "name": "ธนาแอร์บ้านช่างต้อม"
    },
    {
        "about": "ร้านแอร์บ้าน",
        "description": "รับติดตั้งแอร์ใหม่-เก่า ทุกยี่ห้อ ย้ายแอร์ ล้างแอร์ ซ่อมแอร์ บริการทุกอย่างเกี่ยวกับแอร์ ในราคายุติธรรม",
        "emails": [
            "gownaair@hotmail.com"
        ],
        "id": "276576422524579",
        "location": {
            "city": "Muang Lopburi",
            "country": "Thailand",
            "latitude": 15.03869,
            "longitude": 100.77381,
            "street": "79 ม.12 ต.ห้วยโปร่ง อ.โคกสำโรง จ.ลพบุรี",
            "zip": "15120"
        },
        "name": "ก้าวหน้า แอร์เซอร์วิส พร้อมบริการ ดำเนินงานโดยช่างก้าวและทีมงานคุณภาพ",
        "phone": "0991549635"
    },
    {
        "id": "171369703204256",
        "name": "เปิดร้านแอร์\u0026เจ้าของร้านแอร์\u0026ช่างแอร์"
    },
    {
        "about": "จำหน่ายแอร์ ติดตั้ง ซ่อม ล้างแอร์ทุกยี่ห้อ ราคากันเองสามารถคุยได้ครับ",
        "id": "448642791936170",
        "name": "จำหน่ายแอร์ ติดตั้ง ซ่อม ล้างแอร์บ้านทุกยี่ห้อ ตู้แช่ ติดต่อช่างโก้"
    },
    {
        "id": "911238972285765",
        "location": {
            "city": "Amphoe Pranburi",
            "country": "Thailand"
        },
        "name": "โก้ดาวเทียม ล้างแอร์ ติดตั้งแอร์ ช่างซ่อมแอร์"
    },
    {
        "about": "บริการล้างทำความสะอาด ซ่อม ติดตั้ง เครื่องปรับอากาศ ทุกยี่ห้อ ทุกรุ่น รับงานซับติดตั้ง",
        "id": "913965632015548",
        "location": {
            "city": "Bangkok Noi",
            "country": "Thailand",
            "latitude": 13.8054895,
            "longitude": 100.8110199,
            "street": "กรุงเทพฯ",
            "zip": "10700"
        },
        "name": "ล้างแอร์ ซ่อม ย้ายและติดตั้ง  082-4456839 092-4638129 ช่างชายโฉด"
    },
    {
        "about": "ร้านทำเครื่องเสียงที่ดีที่ในประเทศไทยต้องช่างโบ้แอร์\u0026ซาวด์เท่านั้น",
        "id": "468838423292797",
        "name": "ร้านทำเครื่องเสียงติดรถยนต์ ช่างโบ้แอร์\u0026ซาว นครราชสีมา"
    },
    {
        "id": "1017707354916279",
        "name": "จำหน่ายแอร์+จานดาวเทียม+ช่างซ่อมและติดตั้ง.ไฟฟ้า.แอร์.น้ำอุ่น.และจานดาวเทียม"
    },
    {
        "about": "บริการติดตั้งแอร์ ล้าง ซ่อม บริการหลังการติดตั้ง รับงานทั่วไปในประเทศ ",
        "id": "717648005046091",
        "location": {
            "city": "หทัยราษฏร์ มีนบุรี",
            "street": "หทัยราษฎร์ 17 มีนบุรี กทม",
            "zip": "10510"
        },
        "name": "รับติดตั้งแอร์ ซ่อม ล้าง งานแอร์ทุกประเภท ราคาที่คุณพอใจ - ช่างมืออาชีพ"
    },
    {
        "id": "172760233065108",
        "location": {
            "city": "Bangkok",
            "country": "Thailand",
            "latitude": 13.7108432,
            "longitude": 100.5877265
        },
        "name": "ร้านแอร์รถยนต์ชื่อดังแถวกล้วยน้ำไทย ช่างหน้าตาดีมีอยู่2คน"
    },
    {
        "id": "208128412638331",
        "location": {
            "city": "Bangkok",
            "country": "Thailand",
            "latitude": 13.84407941387,
            "longitude": 100.51030957369
        },
        "name": "ช่างเจี๊ยบรับทำแอร์และเดินไฟ"
    }
]