[
    {
        "about": "หาช่างไฟฟ้า  หาช่างแอร์  ช่างประปา เชียงใหม่   ติดต่อผมได้คับผม  Tel.093-1421890   Tel.089-6911760  ช่างตั้ม",
        "id": "1088204081209366",
        "name": "หาช่างไฟฟ้าเชียงใหม่  หาช่างแอร์เชียงใหม่"
    },
    {
        "id": "1520298014849768",
        "location": {
            "city": "Bangkok",
            "country": "Thailand",
            "street": "34/74 ม.2 หมู่บ้าน ไทสมบูณร์2 ต.คลองสาม อ.คลองหลวง จ.ปทุมธานี 12120",
            "zip": "12120"
        },
        "name": "อภิชิต แอร์ \u0026 เซอร์วิส - ช่างโต้ง",
        "phone": "0878713505"
    },
    {
        "id": "228931730575681",
        "name": "ช่างแอร์ยิ่งใหญ่โว้ย 23"
    },
    {
        "about": "จานดาวเทียม กล้องวงจรปิด แอร์  มอเตอร์ปั้มน้ำ เครื่องซักผ้า ทีวีโทร.0833911469",
        "emails": [
            "changkoa@hotmail.com"
        ],
        "id": "173080386184328",
        "location": {
            "city": "นครศรีธรรมราช",
            "street": "สะพานลอยโคกยาง154/4ม.10ต.ร่อนพิบูลย์",
            "zip": "80130"
        },
        "name": "ร้านช่างขาวดาวเทียม กล้องวงจรปิดแอร์ โคกยาง",
        "phone": "0833911469"
    },
    {
        "id": "397247213768029",
        "location": {
            "city": "Ubon Ratchathani",
            "country": "Thailand",
            "latitude": 14.90175,
            "longitude": 105.0396,
            "street": "964 ม.24 ต.เมืองเดช อ.เดชอุดม",
            "zip": "34160"
        },
        "name": "ช่างกี้ ศูนย์การค้าแอร์เซอร์วิส",
        "phone": "0935545105"
    },
    {
        "id": "1459658407667203",
        "location": {
            "city": "Chon Buri",
            "country": "Thailand",
            "latitude": 13.3667,
            "longitude": 100.983,
            "street": "อมตะนคร",
            "zip": "20000"
        },
        "name": "ช่างตั้ม แอร์เซอวิส",
        "phone": "0982490012"
    },
    {
        "id": "661263043983951",
        "name": "ช่าง แอร์ รถยนต์ ซ่อมหม้อน้ำ ทุกรุ่นทุกยี่ห่อ"
    },
    {
        "about": "บริการซ่อม ติดตั้งแอร์ เครื่องใช้ไฟฟ้าทุกชนิด",
        "description": "[s] การช่าง บริการซ่อม ติดตั้งแอร์ ล้างแอร์ เครื่องใช้ไฟฟ้าทุกชนิด วางระบบไฟ ภายในบ้านและอาคาร\n\n37/1 วัดโพธิวราราม ถ.ประชารังสรรค์ ต.หมากแข้ง อ.เมือง \nจ.อุดรธานี 41000 หลัง ร.พ เอกอุดร\n\nโทร.042-341881,084-7930021 ช่าง สง่า.",
        "emails": [
            "happyengineering@hotmail.com"
        ],
        "id": "420278524703768",
        "location": {
            "city": "Udon Thani",
            "country": "Thailand",
            "latitude": 17.4167,
            "longitude": 102.74998927116,
            "zip": "41000"
        },
        "name": "[s] การช่าง บริการซ่อม ติดตั้งแอร์ เครื่องใช้ไฟฟ้าทุกชนิด",
        "phone": "042-341881 084-7930021"
    },
    {
        "about": "Club-fri-A",
        "id": "1390930017808742",
        "name": "FC Dj.ช่างแอร์"
    },
    {
        "id": "252592581602115",
        "location": {
            "city": "Thai Chang",
            "country": "Thailand",
            "latitude": 16.47889,
            "longitude": 102.82676,
            "street": "อำเภอเมืองขอนแก่น",
            "zip": "40000"
        },
        "name": "กิตติ แอร์ บริการ ล้าง ติดตั้ง ย้ายแอร์ โทร.087 457 8384 ช่างแบงค์",
        "phone": "0874578384"
    },
    {
        "id": "640361412766268",
        "location": {
            "city": "Chanthaburi",
            "country": "Thailand",
            "latitude": 12.6,
            "longitude": 102.15,
            "street": "29/79 ม.3",
            "zip": "22000"
        },
        "name": "ช่างกุ๊กแอร์ Car Service",
        "phone": "0930017661"
    },
    {
        "id": "1383565655266774",
        "location": {
            "city": "Samut Prakan",
            "country": "Thailand",
            "latitude": 13.61248,
            "longitude": 100.74425,
            "street": "บางพลีใหญ่ บางพลี",
            "zip": "10540"
        },
        "name": "จำเนียรการช่าง บริการซ่อมตรวจเช็คแอร์ ไดนาโม ไฟฟ้ารถยนต์ อะไหล่ ฯลฯ",
        "phone": "0897834511"
    },
    {
        "about": "ขายแอร์บ้าน ตู้เย็น เครื่องซักผ้า จานดาวเทียม ทีวี ฯลฯ",
        "description": "ติดต่อสอบถาม ติดต่องาน\n044-461-857\n044-292-273\n081-967-5878\n084-606-0863",
        "id": "518513221570951",
        "location": {
            "city": "อ.บัวใหญ่ จ.นครราชสีมา",
            "street": "313 ถนนเทศบาล 1",
            "zip": "30120"
        },
        "name": "ช.ช่างชำนาญแอร์",
        "phone": "044-292-273"
    },
    {
        "about": "ติดตั้งแก๊สรถยนต์",
        "id": "828036490550545",
        "location": {
            "city": "Lampang",
            "country": "Thailand",
            "latitude": 18.29231733,
            "longitude": 99.48712947,
            "street": "231/2 ถ.วังขวา ต.สบตุ๋ย",
            "zip": "520000"
        },
        "name": "ทิพย์ช้างออโต้แอร์ แอนด์ เซอร์วิส",
        "phone": "054217702"
    },
    {
        "about": "รับทำระบบไฟและติดตั้งแอร์ ย้าย ซ่อม ล้าง ราคาเป็นกันเอง ",
        "id": "730754917054093",
        "location": {
            "city": "Amphoe Lom Sak",
            "country": "Thailand",
            "latitude": 16.7167,
            "longitude": 101.15,
            "street": "บ้านติ้ว",
            "zip": "67110"
        },
        "name": "ช่างเบนซ์ อดิศักดิ์ สร้อยมี รับทำระบบไฟและรับติดตั้งแอร์ ย้าย ซ่อม ล้าง",
        "phone": "0940321590"
    },
    {
        "id": "1545688269043357",
        "location": {
            "city": "Chanthaburi",
            "country": "Thailand",
            "latitude": 12.627722944926,
            "longitude": 102.15551462174,
            "street": "ต.พลับพลา อ.เมือง จ.จันทบุรี",
            "zip": "22000"
        },
        "name": "ร้านปากแซงไดนาโมแอร์ ช่างทิน",
        "phone": "0899888744"
    },
    {
        "about": "ล้างแอร์400 รับประกันคุณภาพ",
        "id": "643033692381437",
        "location": {
            "city": "Bangkok",
            "country": "Thailand",
            "latitude": 13.7719746,
            "longitude": 100.5906677,
            "street": "กรุงเทพมหานคร ทุ่งครุ ประชาอุทิศ",
            "zip": "10140"
        },
        "name": "บริการแอร์บ้าน โดยช่างกานต์",
        "phone": "0890370322"
    },
    {
        "about": "ซ่อมแอร์ ระนอง \nบริการติดตั้งและล้างแอร์ ระบบทำความเย็น ทุกยี่ห้อ \nService and Setup Air Cooling at Home \u0026 Factory\nTel 0858844307",
        "description": "บริการ 24 ชม.",
        "emails": [
            "kaiservices@hotmail.com"
        ],
        "id": "437396349605833",
        "location": {
            "street": "18 หมู่ 2 บ่อน้ำร้อน ตำบลหาดส้มแป้น เมือง ระนอง",
            "zip": "85000"
        },
        "name": "ซ่อมแอร์ระนอง ช่างไก่ บ่อน้ำร้อน 085 8844 307",
        "phone": "0858844307"
    },
    {
        "about": "จำหน่าย-แอร์บ้าน/โรงงานอุตสาหกรรม-บริการซ่อม/ติดตั้ง/ล้าง ราคาถูก",
        "description": "จำหน่าย-บริการซ่อม/ติดตั้ง แอร์บ้านและโรงงานอุตสาหกรรม และอะไหล่แอร์ทุกชนิด(ราคาถูก)\nโทร.093-973-4899,098-9266639\nEmail:to-karnchang@hotmail.com",
        "emails": [
            "to-karnchang@hotmail.com"
        ],
        "id": "909294635800148",
        "location": {
            "city": "อำเภอคลองหลวง",
            "street": "34/28  หมู่ที่2  ตำบลคลองหก",
            "zip": "12120"
        },
        "name": "่ร้านโตการช่างจำหน่าย แอร์/อะไหล่  ซ่อม/ติดตั้ง # 093-973-4899",
        "phone": "093-9734899,098-9266639"
    },
    {
        "id": "1670680303174890",
        "location": {
            "city": "Sungmen",
            "country": "Thailand",
            "latitude": 18.033017,
            "longitude": 100.1112164,
            "street": "135/1",
            "zip": "54130"
        },
        "name": "ร้านช่างแอร์ป่าผึ้ง"
    },
    {
        "about": "แบตเตอรี่(ทุกรุ่นทุกยี่ห่อ) รถยนต์ แอร์ ไดนาโม ระบบไฟ มอเตอร์ไฟฟ้า",
        "description": "บริการซ่อมแอร์รถยนต์ แบตเตอรี่ ทั้งในและนอกสถานที่\nเมื่อคุณมีปัญหารถสตาร์ทไม่ติด เป็นปัญหาของคุณ...เราขอ..อาสาไปแก้ไขให้คุณ\nโปรดโทรหาเราได้ตลอดเวลา และเรายินดีให้คำปรึกษาด้วยความยินดี...",
        "emails": [
            "daohojimin@gmail.com"
        ],
        "id": "303609326331744",
        "location": {
            "city": "Din Daeng",
            "country": "Thailand",
            "street": "47/5 ซ.วิภาวดี16/23 ถ.วิภาวดีรังสิต แขวงดินแดง เขตดินแดง",
            "zip": "10400"
        },
        "name": "แบตเตอรี่รถยนต์ แอร์รถยนต์ ช่างดาว",
        "phone": "083-8850086 "
    },
    {
        "id": "186145905050584",
        "name": "ช่างเทคนิค ช่างแอร์"
    },
    {
        "about": "แพร่",
        "description": "บริการแอร์รถยนต์",
        "id": "554762344558915",
        "location": {
            "city": "Phrea",
            "country": "Thailand",
            "latitude": 18.0112,
            "longitude": 100.12126,
            "street": "1/9 ม.2 ต.ร่องกาศ อ.สูงเม่น",
            "zip": "54130"
        },
        "name": "ช่างพต ร้านธนภรณ์แอร์"
    },
    {
        "id": "870951799651751",
        "location": {
            "city": "Nakhon Sawan",
            "country": "Thailand",
            "latitude": 15.7133,
            "longitude": 100.135,
            "street": "1072/12",
            "zip": "60000"
        },
        "name": "ช่างเล็ก แอร์บ้านแอร์สำนักงาน",
        "phone": "0872071090"
    },
    {
        "id": "1477988045834386",
        "name": "ช่างเริง Auto serviceซ่อม แอร์ ไดนาโม เครื่องยนต์"
    }
]