[
    {
        "id": "671788889589051",
        "name": "ช่างแอร์Fc"
    },
    {
        "id": "370221829853777",
        "location": {
            "city": "อ่างทอง",
            "street": "89หมู่3 ต.ห้วยไผ่ อ.แสวงหา",
            "zip": "14150"
        },
        "name": "ช่างแอร์  ในตำนาน"
    },
    {
        "about": "ปรึกษาแลกเปลี่ยน-หางาน-สอบถาม",
        "emails": [
            "tambaaaaza@hotmail.com"
        ],
        "id": "398986876798294",
        "name": "หางานช่างแอร์และพูดคุย"
    },
    {
        "about": "จำหน่าย  ซ่อมติดตั้ง  ล้าง  ตรวจเช็ค  แอร์บ้าน0810643411",
        "description": "มีปัญหาระบบไฟฟ้า  แอร์บ้าน   โทรปรึกษาฟรี24ชั่วโมง",
        "emails": [
            "airchart2505@gmail.com"
        ],
        "id": "148286375316443",
        "location": {
            "city": "อำเภอเมือง",
            "street": "นครราชสีมา"
        },
        "name": "ช่างแอร์นครราชสีมา",
        "phone": "0810643411"
    },
    {
        "id": "325899720921773",
        "location": {
            "city": "Phitsanulok",
            "country": "Thailand",
            "latitude": 16.69432,
            "longitude": 100.24393,
            "street": "ไชยานุภาพซอย 12",
            "zip": "65230"
        },
        "name": "ช่างแอร์",
        "phone": "0944491484"
    },
    {
        "id": "850960878291007",
        "name": "ช่างแอร์ชลบุรี"
    },
    {
        "about": "ขายส่ง ขายปลีก ติดตั้ง ซ่อม ล้าง",
        "description": "ช่างแอร์ อินเตอร์   Chang Inter  จำหน่าย ซ่อม ติดตั้ง ล้าง แอร์ เครื่องปรับอากาศ\nตู้เย็น  ตู้แช่  ห้องเย็น   ให้แก่ บ้าน ร้านค้า office ร้านอาหาร  หรือ อื่นๆ\nโดยช่างที่มีประสบการณ์ มากกว่า 15 ปีจาก Australia, มาตรฐาน Australia แต่ราคาคนไทย\nการบริการเราเน้น  คุณภาพ มาตรฐาน และความปลอดภัยของลูกค้า\nฝ่ายขาย ติดต่อ:  ณิชนันท์(หน่อย)  088-253-7858\nTechnician ติดต่อ:  Charlie(ชาลี)  082-766-0426",
        "emails": [
            "chang-inter@hotmail.com"
        ],
        "id": "298939473567499",
        "location": {
            "city": "Chiang Mai",
            "country": "Thailand",
            "latitude": 18.769937208871,
            "longitude": 99.075256381276,
            "street": "เชียงใหม่-สันกำแพง",
            "zip": "50130"
        },
        "name": "ช่างแอร์อินเตอร์ เชียงใหม่",
        "phone": "0827660426"
    },
    {
        "about": "รับซ่อมแอร์ครับ ราคาถูก มีบริการพิเศษแถมด้วยนะครับ",
        "description": "แอร์ทุกชนิดครับ บ้านไกลแค่ไหนไปได้หมด มีกล้วยแถมด้วย กับน้ำอ้อยหวาน บริการพิเศษให้คุณลูกค้าผู้หญิงโดยเฉพาะ ",
        "id": "537382229620501",
        "name": "ช่างแอร์ ในตำนาน"
    },
    {
        "id": "910181222338223",
        "location": {
            "city": "Chiang Rai",
            "country": "Thailand",
            "latitude": 19.9,
            "longitude": 99.8333,
            "street": "เชียงราย",
            "zip": "57000"
        },
        "name": "ช่างแอร์ เชียงราย",
        "phone": "053-717317"
    },
    {
        "id": "359218590864349",
        "name": "ช่างแอร์"
    },
    {
        "id": "1532612613684155",
        "location": {
            "city": "Amphoe Ban Pong",
            "country": "Thailand",
            "latitude": 13.82088,
            "longitude": 99.89023,
            "street": "หมู่บ้านหนองรี หนองกบ",
            "zip": "70110"
        },
        "name": "ช่างแอร์บ้านโป่ง",
        "phone": "0822510073"
    },
    {
        "id": "444650619021831",
        "location": {
            "city": "Min Buri",
            "country": "Thailand",
            "latitude": 13.8163805,
            "longitude": 100.725853,
            "street": "สุวินทวงศ์",
            "zip": "10270"
        },
        "name": "ช่างแอร์",
        "phone": "0985822162"
    },
    {
        "about": "ช่างแอร์รถยนต์ ลำพูน ช่าง สาธิต (เอ) 0947100055 -0817844068",
        "id": "799302480094763",
        "location": {
            "city": "Lamphun",
            "country": "Thailand",
            "latitude": 18.5811,
            "longitude": 99.0092,
            "street": "107/2 ม.5 ต. ต้นธง อ. เมือง จ. ลำพูน",
            "zip": "51000"
        },
        "name": "ช่างแอร์รถยนต์ ลำพูน เชียงใหม่"
    },
    {
        "id": "411519815610911",
        "location": {
            "city": "Muang Phayao",
            "country": "Thailand",
            "latitude": 19.16541,
            "longitude": 99.86263,
            "street": "พะเยา",
            "zip": "56000"
        },
        "name": "ช้างแอร์ เซอร์วิส",
        "phone": "0845016397"
    },
    {
        "about": "ติดตั้ง ย้าย ล้าง ซ่อมแอร์ โทร 080 586 8511",
        "description": "ศูนย์รวมช่างซ่อมแอร์บ้าน ทั้งติดตั้ง เคลื่อนย้าย ซ่อมแซม ล้าง และเติมน้ำยาแอร์ทุกชนิด โดยทีมช่างมืออาชีพ ทั้งในกรุงเทพฯ ปริมณฑล และต่างจังหวัดทุกจังหวัด\nช่างแอร์บ้าน เขตดุสิต\nช่างแอร์บ้าน เขตหนองจอก\nช่างแอร์บ้าน เขตบางรัก\nช่างแอร์บ้าน เขตบางเขน\nช่างแอร์บ้าน เขตบางกะปิ\nช่างแอร์บ้าน เขตปทุมวัน\nช่างแอร์บ้าน เขตป้อมปราบศัตรูพ่าย\nช่างแอร์บ้าน เขตพระโขนง\nช่างแอร์บ้าน เขตมีนบุรี\nช่างแอร์บ้าน เขตลาดกระบัง\nช่างแอร์บ้าน เขตยานนาวา\nช่างแอร์บ้าน เขตสัมพันธวงศ์\nช่างแอร์บ้าน เขตพญาไท\nช่างแอร์บ้าน เขตธนบุรี\nช่างแอร์บ้าน เขตบางกอกใหญ่\nช่างแอร์บ้าน เขตห้วยขวาง\nช่างแอร์บ้าน เขตคลองสาน\nช่างแอร์บ้าน เขตตลิ่งชัน\nช่างแอร์บ้าน เขตบางกอกน้อย\nช่างแอร์บ้าน เขตบางขุนเทียน\nช่างแอร์บ้าน เขตภาษีเจริญ\nช่างแอร์บ้าน เขตหนองแขม\nช่างแอร์บ้าน เขตราษฎร์บูรณะ\nช่างแอร์บ้าน เขตบางพลัด\nช่างแอร์บ้าน เขตดินแดง\nช่างแอร์บ้าน เขตบึงกุ่ม\nช่างแอร์บ้าน เขตสาทร\nช่างแอร์บ้าน เขตบางซื่อ\nช่างแอร์บ้าน เขตจตุจักร\nช่างแอร์บ้าน เขตบางคอแหลม\nช่างแอร์บ้าน เขตประเวศ\nช่างแอร์บ้าน เขตคลองเตย\nช่างแอร์บ้าน เขตสวนหลวง\nช่างแอร์บ้าน เขตจอมทอง\nช่างแอร์บ้านเขตพญาไท\nช่างแอร์บ้าน เขตดอนเมือง\nช่างแอร์บ้าน เขตราชเทวี\nช่างแอร์บ้าน เขตลาดพร้าว\nช่างแอร์บ้าน เขตวัฒนา\nช่างแอร์บ้าน เขตบางแค\nช่างแอร์บ้าน เขตหลักสี่\nช่างแอร์บ้าน เขตสายไหม\nช่างแอร์บ้าน เขตคันนายาว\nช่างแอร์บ้าน เขตสะพานสูง\nช่างแอร์บ้าน เขตวังทองหลาง\nช่างแอร์บ้าน เขตคลองสามวา\nช่างแอร์บ้าน เขตบางนา\nช่างแอร์บ้าน เขตทวีวัฒนา\nช่างแอร์บ้าน เขตทุ่งครุ\nช่างแอร์บ้าน เขตบางบอน\nช่างแอร์บ้าน เขตเขตไทรน้อย\nช่างแอร์บ้าน เขตบางกรวย\nช่างแอร์บ้าน เขตบางบัวทอง\nช่างแอร์บ้าน เขตปากเกร็ด\nช่างแอร์บ้าน เขตบางใหญ่\nช่างแอร์บ้าน เขตคลองหลวง\nช่างแอร์บ้าน เขตธัญบุรี\nช่างแอร์บ้าน เขตลาดหลุมแก้ว\nช่างแอร์บ้าน เขตลำลูกกา\nช่างแอร์บ้าน เขตสามโคก\nช่างแอร์บ้าน เขตหนองเสือ\nช่างแอร์บ้าน เขตกระทุ่มแบน\nช่างแอร์บ้าน เขตบางพลี\nช่างแอร์บ้าน เขตบางบ่อ\nช่างแอร์บ้าน เขตพระประแดง\nช่างแอร์บ้าน เขตพุทธมณฑล\nช่างแอร์บ้าน เขตสามพราน\nช่างแอร์บ้าน เขตเมืองหัวหิน\nช่างแอร์บ้าน เขตเมืองหาดใหญ่\nช่างแอร์บ้าน เขตเกาะสมุย\nช่างแอร์บ้าน เขตเกาะช้าง\nช่างแอร์บ้าน เขตเมืองพัทยา\nช่างแอร์บ้าน เขตเมืองมาบตาพุด\nช่างแอร์บ้าน เขตเมืองพล \nช่างแอร์บ้าน เขตเมืองชุมแพ \nช่างแอร์บ้าน พระสมุทรเจดีย์\nช่างแอร์บ้าน บางเสาธง\nรวมช่างแอร์บ้าน ภาคอีสาน\nช่างแอร์บ้านจังหวัดนครพนม \nช่างแอร์บ้านจังหวัดบึงกาฬ\nช่างแอร์บ้านจังหวัดสกลนคร \nช่างแอร์บ้านจังหวัดมุกดาหาร \nช่างแอร์บ้านจังหวัดอุบลราชธานี \nช่างแอร์บ้านจังหวัดหนองคาย \nช่างแอร์บ้านจังหวัดอำนาจเจริญ \nช่างแอร์บ้านจังหวัดหนองบัวลำภู \nช่างแอร์บ้านจังหวัดศรีสะเกษ \nช่างแอร์บ้านจังหวัดอุดรธานี \nช่างแอร์บ้านจังหวัดยโสธร \nช่างแอร์บ้านจังหวัดเลย \nช่างแอร์บ้านจังหวัดกาฬสินธุ์ \nช่างแอร์บ้านจังหวัดร้อยเอ็ด \nช่างแอร์บ้านจังหวัดมหาสารคาม \nช่างแอร์บ้านจังหวัดสุรินทร์ \nช่างแอร์บ้านขอนแก่น\nช่างแอร์บ้านจังหวัดอำนาจเจริญ \nช่างแอร์บ้านจังหวัดบุรีรัมย์ \nช่างแอร์บ้านจังหวัดชัยภูมิ \nช่างแอร์บ้านจังหวัดนครราชสีมา\nรวมช่างแอร์บ้าน ภาคเหนือ\nช่างแอร์บ้านจังหวัดเชียงใหม่ \nช่างแอร์บ้านจังหวัดเพชรบูรณ์ \nช่างแอร์บ้านจังหวัด-เชียงราย \nช่างแอร์บ้านจังหวัดแม่ฮ่องสอน \nช่างแอร์บ้านจังหวัดพะเยา \nช่างแอร์บ้านจังหวัดลำพูน \nช่างแอร์บ้านจังหวัดน่าน \nช่างแอร์บ้านจังหวัดลำปาง \nช่างแอร์บ้านพิษณุโลก\nช่างแอร์บ้านจังหวัดแพร่ \nช่างแอร์บ้านจังหวัดอุตรดิตถ์ \nช่างแอร์บ้านจังหวัดตาก \nช่างแอร์บ้านจังหวัดกำแพงเพชร \nช่างแอร์บ้านจังหวัดพิจิตร \nช่างแอร์บ้านจังหวัดนครสวรรค์ \nรวมช่างแอร์บ้าน ภาคกลาง\nช่างแอร์บ้านจังหวัดอุทัยธานี \nช่างแอร์บ้านจังหวัดชัยนาท \nช่างแอร์บ้านจังหวัดลพบุรี \nช่างแอร์บ้านจังหวัดสิงห์บุรี \nช่างแอร์บ้านสุโขทัย\nช่างแอร์บ้านจังหวัดปราจีนบุรี \nช่างแอร์บ้านจังหวัดสระบุรี \nช่างแอร์บ้านจังหวัดนครนายก \nช่างแอร์บ้านจังหวัดอ่างทอง \nช่างแอร์บ้านจังหวัดราชบุรี \nช่างแอร์บ้านจังหวัดสุพรรณบุรี \nช่างแอร์บ้านจังหวัดอยุธยา \nช่างแอร์บ้านจังหวัดสมุทรสงคราม \nช่างแอร์บ้านจังหวัดสมุทรสาคร \nช่างแอร์บ้านจังหวัดสระแก้ว \nช่างแอร์บ้านจังหวัดตราด \nช่างแอร์บ้านจังหวัดจันทบุรี \nช่างแอร์บ้านจังหวัดระยอง \nช่างแอร์บ้านจังหวัดชลบุรี \nช่างแอร์บ้านจังหวัดฉะเชิงเทรา \nรวมช่างแอร์บ้าน ภาคใต้\nช่างแอร์บ้านจังหวัดเพชรบุรี \nช่างแอร์บ้านจังหวัดชุมพร \nช่างแอร์บ้านจังหวัดระนอง \nช่างแอร์บ้านจังหวัดสุราษฎร์ธานี \nช่างแอร์บ้านจังหวัดนครศรีธรรมราช \nช่างแอร์บ้านจังหวัดพังงา \nช่างแอร์บ้านจังหวัดกระบี่",
        "emails": [
            "chaiyan.dla49@hotmail.com"
        ],
        "id": "772798486065817",
        "location": {
            "city": "Bangkok",
            "country": "Thailand",
            "latitude": 13.70929,
            "longitude": 100.57095,
            "street": "ถ.พระราม 4 เขตคลองเตย",
            "zip": "10110"
        },
        "name": "ช่างแอร์บ้านออนไลน์",
        "phone": "080 586 8511"
    },
    {
        "about": "จำหน่ายเครื่องปรับอากาศ พร้อมบริการติดตั้ง ย้าย ซ่อม ล้าง ราคาพิเศษ",
        "description": "ร้านตั้งอยู่ที่ ซ.มหาชัย ใกล้ทางเข้าอนุบาลทิพย์ปัญญา (โคราช)\nติดต่อ ช่างนัย 091-6695595 หรือ 044-296565\n\nจำหน่ายเครื่องปรับอากาศ / บริการ ซ่อม - ล้าง - ติดตั้ง,ย้าย\nราคาพิเศษ บริการเป็นกันเอง รับรองไม่ผิดหวัง\n\n**รับเหมาติดตั้ง-ล้าง-ซ่อม ครบวงจร ไม่ว่าจะเป็นงานหอพัก, โรงงาน, รีสอร์ท,สำนักงาน ฯลฯ สนใจคุยรายละเอียดงาน ต่อรองราคากันก่อน เพื่อความพอใจของท่าน เรายินดีบริการด้วยใจ เต็มที่ครับ**",
        "emails": [
            "archanaiair@msn.com"
        ],
        "id": "148399428670428",
        "location": {
            "city": "Nakhon Ratchasima",
            "country": "Thailand",
            "street": "ซ. มหาชัย ใกล้ทางเข้าร.ร อนุบาทิพย์ปัญญา",
            "zip": "30000"
        },
        "name": "ช่างนัย แอร์บ้าน",
        "phone": "091-669 5595 , 044-29 6565"
    },
    {
        "about": "ช่างแอร์ ร้อยเอ็ด",
        "id": "285933974919547",
        "location": {
            "city": "Bangkok",
            "country": "Thailand",
            "latitude": 16.0446,
            "longitude": 103.63,
            "street": "ร้อยเอ็ด",
            "zip": "45000"
        },
        "name": "ช่างแอร์ ร้อยเอ็ด",
        "phone": "091-3523345"
    },
    {
        "id": "351309801548611",
        "name": "ช่างแอร์สมุทรปราการ"
    },
    {
        "about": "ติดตั้ง ซ่อมบำรุง ล้าง และบริการอื่นๆ",
        "id": "386847731343776",
        "name": "ช่างแอร์ สมุทรสาคร"
    },
    {
        "about": "ร่วมแบ่งปันประสบการณ์งานแอร์บ้าน  \n",
        "id": "142521669237636",
        "name": "แอร์บ้าน งานช่าง"
    },
    {
        "id": "619106728231193",
        "location": {
            "city": "Chiang Rai",
            "country": "Thailand",
            "latitude": 20.0384102,
            "longitude": 99.8312607,
            "street": "410\\68",
            "zip": "57000"
        },
        "name": "ช่างแอร์เชียงราย",
        "phone": "0858633316"
    },
    {
        "about": "ผมไม่เล็กนะครับ ผมเลียเป็น ผมเย่อเก่งด้วยนะครับ",
        "id": "193441114136738",
        "name": "ช่างแอร์"
    },
    {
        "about": "รับงานแอร์ทุกประเภท  ราคาเป็นกันเอง    ",
        "id": "385828031606373",
        "location": {
            "city": "Nakhon Ratchasima",
            "country": "Thailand",
            "latitude": 14.9596004,
            "longitude": 102.0606308,
            "street": "มหาชัย",
            "zip": "30000"
        },
        "name": "ช่างเอ็ม แอร์โคราช",
        "phone": "0856077983"
    },
    {
        "about": "Tae Service บริการ ล้างแอร์ ซ่อมแอร์ ทุกชนิด และติดตั้งอุปกรณ์ไฟฟ้า ทุกชนิด ในจังหวัดภูเก็ต 082-8207861 ",
        "id": "807880759297390",
        "location": {
            "city": "Phuket",
            "country": "Thailand",
            "street": "ภูเก็ต",
            "zip": "83150"
        },
        "name": "ช่างแอร์ภูเก็ต บริการจำหน่าย ติดตั้ง ซ่อม ล้างแอร์ ปั๊มน้ำและอุปกรณ์ไฟฟ้า",
        "phone": "0828207861"
    },
    {
        "about": "\\m/",
        "description": "งานล่าสุด สงกรานต์บ้านนาคอนเสริต",
        "id": "512934935420206",
        "name": "วง ช่างแอร์"
    }
]