[
    {
        "about": "บริการซ่อมแอร์ เครื่องซักผ้า เครื่องใช้ไฟฟ้า โทร 081 2548689",
        "id": "451595594983413",
        "name": "ร้านช้างแอร์เซอร์วิสบริการซ่อมแอร์"
    },
    {
        "about": "ล้าง ซ่อม ย้าย ติดตั้ง",
        "description": "จำหน่ายแอร์บ้านใหม่-เก่า ล้าง ซ่อม ย้าย ติดตั้ง ",
        "id": "898714346810378",
        "location": {
            "city": "Chachoengsao",
            "country": "Thailand",
            "latitude": 13.4773,
            "longitude": 101.68952,
            "street": "สนามชัยเขต",
            "zip": "24160"
        },
        "name": "T.p. แอร์ \u0026 เซอร์วิส By ช่างแป๊ะ",
        "phone": "0805622499*0831159685"
    },
    {
        "id": "871967996155304",
        "name": "สมาคมช่างแอร์ เมืองไทย"
    },
    {
        "id": "107215576125508",
        "name": "แก็งช่างแอร์ - ผมไม่เล็กนะฮ่ะ"
    },
    {
        "id": "835587526528262",
        "location": {
            "city": "Amphoe Lat Lum Kaeo",
            "country": "Thailand",
            "latitude": 14.0333,
            "longitude": 100.417,
            "street": "2/11ม.1ต.ระแหง",
            "zip": "12140"
        },
        "name": "ช่างเดชช่างแอร์มืออาชีพ",
        "phone": "0870834391"
    },
    {
        "about": "จรัญสนิทวงศ์ 35 ตลิ่งชัน\nเบอร์ติดต่อ 081-310-3655",
        "id": "336614286498846",
        "name": "ร้านช่างป้อกแอร์ ไดร์นาโม และไฟฟ้ารถยนต์ทุกชนิด"
    },
    {
        "about": "รับซ่อมแอร์รถยนต์ราคาเป็นกันเอง",
        "id": "701826436563365",
        "name": "ร้านช่างป้อกแอร์ ไดร์นาโม และไฟฟ้ารถยนต์ทุกชนิด"
    },
    {
        "id": "402733493256257",
        "name": "ช่างท่อดักลมแอร์"
    },
    {
        "id": "529604590536150",
        "name": "ช่างติดตั้ง แอร์ดัก"
    },
    {
        "id": "901507233259389",
        "location": {
            "city": "Muang Surin",
            "country": "Thailand",
            "latitude": 14.897644,
            "longitude": 103.482404
        },
        "name": "ช้างแอนด์แชมป์แอร์สุรินทร์"
    },
    {
        "id": "1070765152934702",
        "name": "ช่างยนต์และแอร์และช่างตั้งศูยน์"
    },
    {
        "id": "117985215206071",
        "location": {
            "city": "Nakhon Ratchasima",
            "country": "Thailand",
            "latitude": 14.9574003,
            "longitude": 102.0384979,
            "street": "อ.เมื่อง จ.นคราชสีมา",
            "zip": "30000"
        },
        "name": "ช่างพีแอร์โคราช ซ้อม-ย้าย-จำหน่ายแอร์ราคาส่งทุกรุ่น",
        "phone": "0963030686"
    },
    {
        "id": "806187032782088",
        "location": {
            "city": "ขอนแก่น",
            "street": "23ม.3",
            "zip": "40000"
        },
        "name": "ทีมงาน ช่างอั้น - ชัยรัตน แอร",
        "phone": "0894191346"
    },
    {
        "id": "1682762425290162",
        "name": "ช่างเชื่อม ช่างไฟฟ้า ช่างแอร์"
    },
    {
        "about": "ยังแรงได้อีก....!!กับเรา โอ๋ อะไหล่ซิ่ง บายอู่ช่างแอร์",
        "id": "711981295506278",
        "name": "อู่ช่างแอร์ บายโอ๋ อะไหล่ซิ่ง",
        "phone": "0904591061"
    },
    {
        "description": "ขอบอกว่าไม่เล็กนะครับ !!!",
        "id": "716882208418266",
        "location": {
            "city": "Chiang Mai",
            "country": "Thailand",
            "latitude": 18.833757815883,
            "longitude": 99.042711295187
        },
        "name": "บ้านพักช่างแอร์ สันทรายน้อย ซอย1"
    },
    {
        "id": "798626080225954",
        "location": {
            "city": "Nonthaburi",
            "country": "Thailand",
            "latitude": 13.8577099,
            "longitude": 100.5335922,
            "street": "บางเขน งามวงศ์วาน"
        },
        "name": "ร้านช่างแอร์ ดอทคอม งามวงศ์วาน",
        "phone": "0924034956"
    },
    {
        "id": "1613812548836823",
        "location": {
            "city": "Nonthaburi",
            "country": "Thailand",
            "street": "เมืองนนท์",
            "zip": "11000"
        },
        "name": "ร้านช่างแอร์ ดอทคอม นนทบุรี",
        "phone": "+66957435386"
    },
    {
        "id": "1391437411177498",
        "location": {
            "city": "Samut Prakan",
            "country": "Thailand",
            "latitude": 13.6003199,
            "longitude": 100.5977936,
            "street": "ถนนสุขุมวิท (สายเก่า)",
            "zip": "10280"
        },
        "name": "ร้านช่างแอร์ ดอทคอม บางปู",
        "phone": "+66954657073"
    },
    {
        "id": "1557449671193423",
        "location": {
            "city": "Bangkok",
            "country": "Thailand",
            "latitude": 13.7000504,
            "longitude": 100.4934464,
            "street": "บางกอกน้อย"
        },
        "name": "ร้านช่างแอร์ ดอทคอม ท่าพระ",
        "phone": "0840335318"
    },
    {
        "about": "ล้าง ซ่อม ย้าย ติดตั้งแอร์บ้านทุกรุ่นทุกยี่ห้อ",
        "id": "665732586865677",
        "name": "Specht Air And Service ช่างนัทแอร์",
        "phone": "0837252485"
    },
    {
        "about": "dddddd",
        "id": "459834340761340",
        "name": "เป็นช่างแอร์ในตำนาน"
    },
    {
        "id": "1275994329082899",
        "location": {
            "city": "Amphoe Pak Kret",
            "country": "Thailand",
            "latitude": 13.929438434263,
            "longitude": 100.52944753275
        },
        "name": "ห้องเรียนวิชาช่างแอร์ในตำนาน"
    },
    {
        "id": "1283488681677388",
        "location": {
            "city": "Bangkok",
            "country": "Thailand",
            "latitude": 13.880069732666,
            "longitude": 100.52899169922
        },
        "name": "ซ.สามัคคี บ้านช่างแอร์แห่งนาราย"
    },
    {
        "id": "318491868275248",
        "location": {
            "city": "Samut Prakan",
            "country": "Thailand",
            "latitude": 13.594550384599,
            "longitude": 100.59807064648,
            "street": "พระสมุทรเจดีย์",
            "zip": "10290"
        },
        "name": "ร้านช่างแอร์ ดอทคอม พระสมุทรเจดีย์",
        "phone": "0812487380"
    }
]