[
    {
        "id": "561520384011379",
        "name": "ช่างแอร์"
    },
    {
        "about": "รับ ล้างแอร์ ซ่อมบำรุง ติดตั้งปั้มน้ำ ซ่อมปะปา เดินระบบไฟฟ้าบ้าน ฯลฯ",
        "id": "799554033499248",
        "location": {
            "city": "Samut Prakan",
            "country": "Thailand",
            "latitude": 13.6417799,
            "longitude": 100.6123734,
            "street": "319/1 ซ. ด่านสำโรง 50",
            "zip": "10270"
        },
        "name": "ช่างแอร์เซอร์วิส - ช่างบอย",
        "phone": "0897991731.  0813459650"
    },
    {
        "about": "รับติดตั้งระบบไฟฟ้าภายในอาคาร และนอกอาคาร ทุกรูปแบบ",
        "id": "592240077564086",
        "location": {
            "city": "Surin",
            "country": "Thailand",
            "street": "บ.โนนสาย ต. หนองบัวบาน อ. รัตนบุรี",
            "zip": "32130"
        },
        "name": "ช่างแอร์",
        "phone": "0965799438"
    },
    {
        "about": "บริการล้าง-ซ่อม-ถอด ย้าย ติดตั้งแอร์ใหม่และเก่า    \nรับประกันผลงาน ราคายุติธรรม",
        "emails": [
            "tmairkorat@gmail.com"
        ],
        "id": "338080636317392",
        "location": {
            "city": "Nakhon Ratchasima",
            "country": "Thailand",
            "latitude": 14.973507511053,
            "longitude": 102.10587940216,
            "street": "324/1 ซ.สืบศิริ12 ถ.สืบศิริ  ต.ในเมือง อ.เมือง",
            "zip": "30000"
        },
        "name": "ช่างแอร์โคราช",
        "phone": "0898488215"
    },
    {
        "about": "# ช่างแอร์ 'นะน้องนะ.",
        "description": "เพจนี้มีไว้ เพื่อความสนุกนะครับ .\n\n#ขอขอบคุณผู้ที่กดถูกใจเพจเรานะครับ.",
        "id": "824140771017744",
        "name": "ทีมช่างแอร์  K.P 'AIR"
    },
    {
        "about": "รับติดตั้งแอร์VRVและเครื่องทำน้ำร้อนจากแอร์รับซ่อมและService",
        "id": "368182393312138",
        "name": "ช่างแอร์"
    },
    {
        "about": "รับจ้างติดตั้งแอร์ ซ่อมแอร์ ทำให้แอร์เย็นขึ้น \n\nผมไม่เล็กน่ะครับ :)",
        "id": "320963838035106",
        "name": "ช่างแอร์ในตำนาน"
    },
    {
        "id": "457113387827828",
        "name": "ช่างไฟ-ช่างแอร์  Tong  Electical \u0026 Air Service"
    },
    {
        "id": "234310896722723",
        "name": "ช่างแอร์ติดโลงศพในตำนาน"
    },
    {
        "id": "1498562500458431",
        "name": "ช่างติดตั้ง.ซ้อมล้างแอร์ทุกชนิด"
    },
    {
        "about": "รับ ล้าง ซ่อม ติดตั้ง ย้าย แอร์ (เครื่องปรับอากาศ) และงานระบบไฟฟ้าทั่วไป",
        "emails": [
            "tanakit.lsb@gmail.com"
        ],
        "id": "1668974953339953",
        "location": {
            "city": "Bangkok",
            "country": "Thailand",
            "latitude": 13.68081,
            "longitude": 100.5415878,
            "street": "อาคาร รัถยาเพลส 446/1 ซ.โชคชัยจงจำเริญ ถ.พระราม3 บางโพงพาง ยานนาวา",
            "zip": "10120"
        },
        "name": "ช่างเก่ง แอร์ แอนด์ เซอร์วิส",
        "phone": "087 901 5938"
    },
    {
        "id": "809475375837209",
        "name": "ช่าง แอ๊ร"
    },
    {
        "id": "425454337545580",
        "name": "ช่างแอร์ในตำนาน"
    },
    {
        "id": "802746343170040",
        "name": "ช่างแอร์!!แล้วไงล่ะ เชี่ย'ยยย"
    },
    {
        "id": "438475956338611",
        "name": "ช่างแอร์"
    },
    {
        "id": "705068436265320",
        "name": "ช่างแอร์ขั้นเทพ"
    },
    {
        "id": "874902759219134",
        "name": "ช่างแอร์"
    },
    {
        "about": "บริการงานแอร์ ซ่อม ล้าง ติดตั้ง เซอร์วิส (มีบริการเกี่ยวกับตู้เย็นด้วย)",
        "emails": [
            "thongchaicooler@gmail.com"
        ],
        "id": "739380002774273",
        "location": {
            "city": "Chonburi",
            "country": "Thailand",
            "latitude": 13.32089,
            "longitude": 101.13177,
            "street": "822/16 บ้านบึง",
            "zip": "20170"
        },
        "name": "ช่างธงชัย บริการแอร์",
        "phone": "0814364774"
    },
    {
        "id": "304791379685173",
        "name": "ช่างแอร์"
    },
    {
        "about": "รับซ่อมแอร์บ้าน ขาย ย้าย ล้าง แอร์บ้าน",
        "id": "801892089892254",
        "location": {
            "city": "Bangkok",
            "country": "Thailand",
            "latitude": 13.7522,
            "longitude": 100.494,
            "street": "บางนา",
            "zip": "10540"
        },
        "name": "ช่างแอร์ ให้ความรู้",
        "phone": "0963065615"
    },
    {
        "about": "ผมไม่เล็กนะครับ",
        "id": "459329347477312",
        "name": "ช่างแอร์ในตำนาน รับซ่อมแอร์ทั่วราชอาณาจักรไทย"
    },
    {
        "about": "บริการติดตั้ง - ย้าย  แอร์ จานดาวเทียม ซ่อมอุปกรเครื่องใช้ไฟฟ้าทุกชนิด",
        "id": "699688360046331",
        "location": {
            "city": "Chiang Rai",
            "country": "Thailand",
            "latitude": 19.8887806,
            "longitude": 99.8654175,
            "street": "เชียงราย",
            "zip": "57100"
        },
        "name": "ช่างหนุ่มแอร์เซอร์วิส",
        "phone": "084-9852138"
    },
    {
        "about": "แนะนำการทำการตลาด การปรับปรุง สำหรับช่างแอร์รถยนต์",
        "id": "185084051825206",
        "name": "การตลาดเพื่อช่างแอร์รถยนต์",
        "phone": "087-7197525"
    },
    {
        "id": "789782777808494",
        "name": "ช่างตี๋ แอร์บ้าน",
        "phone": "0928121704"
    },
    {
        "about": "ช่างแอร์ บริการ ล้างแอร์บ้าน ซ่อมแอร์ ติดตั้งแอร์ เติมน้ำยาแอร์ ",
        "description": "ช่างแอร์ ล้างแอร์บ้าน ซ่อมแอร์ ติดตั้งแอร์ เติมน้ำยาแอร์\nhttp://www.xn--72cah6de6cbo4ed3cee5rf7hxag2ch.com/\n \n ",
        "id": "776360115792401",
        "name": "ช่างแอร์ ล้างแอร์บ้าน ซ่อมแอร์ ติดตั้งแอร์ เติมน้ำยาแอร์"
    }
]