[
    {
        "id": "1650187575226872",
        "name": "ช่างซ่อมและติดตั้ง.ไฟฟ้า.แอร์.น้ำอุ่น.และจานดาวเทียม"
    },
    {
        "id": "1622756674642411",
        "location": {
            "city": "Si Racha",
            "country": "Thailand",
            "latitude": 13.171489988466,
            "longitude": 100.94229421588
        },
        "name": "ร้านศิริชัยแอร์ ช่างพจน์"
    },
    {
        "about": "บริการติดตั้งแอร์ ซ่อมแอร์ ล้างแอร์ โดยวิศกรและช่างชำนาญการ บริการประทับใจ ",
        "description": "บริการติดตั้งแอร์ ซ่อมแอร์ ล้างแอร์ ในเขตพื้นที่ ตลาดเขต อู่ทอง เขารักษ์ ดอนแสลบ ห้วยกระเจาสระยายโสม รางหวาย พนมทวน พระแท่นดงรัง บ้านท่าเรือ ท่ามะกา ท่าม่วง\nกาญจนบุรี สุพรรณบุรี และพื้นที่ใกล้เคียง\n",
        "emails": [
            "engineer_ae4902@windowslive.com"
        ],
        "id": "919663751377083",
        "location": {
            "latitude": 14.262724742918,
            "located_in": "1429887360624800",
            "longitude": 99.802028890916
        },
        "name": "แบงค์ แอร์ เซอร์วิส - ช่างตี๋ ตลาดเขต",
        "phone": "0839841477,0819449765"
    },
    {
        "id": "1673355546244125",
        "name": "จำหน่ายแอร์+ช่างซ่อมและติดตั้ง.ไฟฟ้า.แอร์.น้ำอุ่น.และจานดาวเทียม"
    },
    {
        "about": "9 องศา แอร์ \u0026 การช่าง\nรับ ติดตั้ง ซ่อม ล้าง แอร์บ้าน \u0026 แอร์รถยนต์\n091-0203552",
        "id": "696016600455105",
        "location": {
            "city": "เมือง, อุบลราชธานี",
            "zip": "34000"
        },
        "name": "9องศา แอร์\u0026การช่าง",
        "phone": "0910203552"
    },
    {
        "about": "ช่างแอร์.  (ร้าน: ส.พูลทรัพย์  แอร์.)",
        "id": "289349901240007",
        "name": "ก็แค่ช่างแอร์ พระราม9"
    },
    {
        "id": "181908561895103",
        "location": {
            "city": "Prachin",
            "country": "Thailand",
            "latitude": 14.054083647835,
            "longitude": 101.37551326276,
            "street": "ตรงข้ามประปาเก่า คลองถม ปราจีน",
            "zip": "25000"
        },
        "name": "ร้านช่างแอร์",
        "phone": "0812740233"
    },
    {
        "id": "1522922191287509",
        "location": {
            "city": "Amphoe Phanom Sarakham",
            "country": "Thailand",
            "latitude": 13.7891882,
            "longitude": 101.39816353
        },
        "name": "อู่ช่างแอร์ หนองน้ำพุ",
        "phone": "0861122870"
    },
    {
        "about": "รับเหมาไฟฟ้าแอร์ปะปารับต่อเติมบ้านรับสร้างบ้านราคากันเอง",
        "emails": [
            "benchawan.benben@gmail.com"
        ],
        "id": "791525634260613",
        "name": "รับเหมาไฟฟ้าแอร์ปะปารับสร้างบ้านต่อเติมบ้านราคากันเองสมเกียรติการช่าง",
        "phone": "0892180041"
    },
    {
        "id": "702768423161342",
        "location": {
            "city": "Bangkok",
            "country": "Thailand",
            "latitude": 13.7068195,
            "longitude": 100.3742905,
            "street": "8/8 เพชรเกษม 69",
            "zip": "10160"
        },
        "name": "ร้านช่างหมู แอร์ ไดนาโม",
        "phone": "0870899474"
    },
    {
        "id": "698130180304819",
        "location": {
            "city": "Ratchaburi",
            "country": "Thailand",
            "latitude": 13.52865,
            "longitude": 99.81326,
            "street": "หมู่ 1 บ้านขาประทับช้าง ต.ปากช่อง อ. จอมบึง จ. ราชบุรี",
            "zip": "ึ70150"
        },
        "name": "อู่ ช่างนุ๊ก แอร์ \u0026 ไดนาโม",
        "phone": "0907964307"
    },
    {
        "id": "1040762775970013",
        "location": {
            "city": "Amphoe Muang Chiang Mai",
            "country": "Thailand",
            "latitude": 18.769104621235,
            "longitude": 98.967653823252
        },
        "name": "ห้องช่างกานต์แอร์ ที่แอร์หนาวมากกกก"
    },
    {
        "id": "498203466974227",
        "location": {
            "street": "ซอยลีรุ่งเรือง"
        },
        "name": "ซ่อมแอร์รถ   ช่างเลิศ สำโรง",
        "phone": "081-4141-104"
    },
    {
        "id": "518353788327448",
        "location": {
            "city": "Nakhon Ratchasima",
            "country": "Thailand",
            "latitude": 14.9952631,
            "longitude": 102.0802439
        },
        "name": "ร้านช่างจุ๊ปแอร์เชอร์วิส"
    },
    {
        "id": "966379660089788",
        "location": {
            "city": "Bangkok",
            "country": "Thailand",
            "latitude": 13.7522,
            "longitude": 100.494
        },
        "name": "ร้านช่างจุ๊ปแอร์เชอร์วิส"
    },
    {
        "id": "1454486658156465",
        "location": {
            "city": "Surin",
            "country": "Thailand",
            "latitude": 14.48497,
            "longitude": 103.97646,
            "street": "162 ม.2 ต.บัวเชด จ.สุรินทร์",
            "zip": "32230"
        },
        "name": "อู่ ช่างระ แก้วฟ้าออโต้แอร์",
        "phone": "044579326"
    },
    {
        "about": "บริการ ติดตั้งเครื่องปรับอากาศ   แอร์บ้าน แอร์อาคารทั้วไป",
        "id": "451949408317554",
        "name": "วิเชตการช่างเซอร์วิส แอร์"
    },
    {
        "about": "จำหน่าย สั่งซื้อ อะไหล่แต่งทุกชนิด\nรับตกแต่งห้องเครื่อง\nรับทำรถแข่งในสนามคับ",
        "id": "1533698433585054",
        "location": {
            "city": "Song Phi Nong",
            "country": "Thailand",
            "latitude": 14.22997,
            "longitude": 100.01719,
            "street": "Song Phi Nong",
            "zip": "72110"
        },
        "name": "โอ๋ อะไหล่ซิ่ง บายอู่ ช่างแอร์",
        "phone": "0928249117"
    },
    {
        "id": "505960409562490",
        "location": {
            "city": "Bangkok",
            "country": "Thailand"
        },
        "name": "อู่ ช่างช่อมระบบแอร์"
    },
    {
        "id": "1380036708987799",
        "location": {
            "city": "Bangkok",
            "country": "Thailand",
            "latitude": 13.7522,
            "longitude": 100.494,
            "street": "ปากซอยจรัญสนิทวงศ์93/1 ถ.จรัญสนิทวงศ์ แขวงบางอ้อ เขตบางพลัด กทม.",
            "zip": "10700"
        },
        "name": "สมฤดีแอร์  หม้อนำ้  ทุกรุ่นทุกยี่ห้อ รับประกันโดยช่างผูชำนาญการ",
        "phone": "028855150"
    },
    {
        "about": "ชมรมคนรักเครื่องเสียงติดรถยนต์ ต.ห้วยขุนราม",
        "id": "538374896188102",
        "location": {
            "city": "Muang Lopburi",
            "country": "Thailand"
        },
        "name": "ร้านลิตแอร์แอนด์ซาวด์\u0026ทีมงานช่างลิต"
    },
    {
        "about": "แก้ไขปัญหาระบบไฟเครื่องคอมม่อนเรล.   เบนชิล",
        "id": "324408371102073",
        "location": {
            "city": "Buriram",
            "country": "Thailand",
            "latitude": 14.99706,
            "longitude": 103.12157,
            "street": "215 ม. 8  ต. อิสาน",
            "zip": "31000"
        },
        "name": "อู่ช่างโน่ ซ่อมเครื่องยนต์ ช่วงล่าง แอร์ ระบบไฟเครื่องคอมมอ่นเรล.  เบนซิล",
        "phone": "0857715658"
    },
    {
        "id": "1654668478081371",
        "name": "หทัยการณ์ธรรมแอร์ ช่างเจมส์"
    },
    {
        "about": "ติดตั้งและซ่อมแอร์รถยนต์ทุกรุ่น ทุกชนิด\n",
        "id": "486343828195464",
        "location": {
            "city": "Amphoe Muang Chanthaburi",
            "country": "Thailand",
            "street": "104/24 Tachang",
            "zip": "22000"
        },
        "name": "ร้านช่างหวินติดต้ังซ่อมแอร์รถยนต์ทุกชนิด",
        "phone": "0822718831"
    },
    {
        "id": "1620896038163135",
        "location": {
            "city": "Nakhon Ratchasima",
            "country": "Thailand",
            "latitude": 14.9596004,
            "longitude": 102.0606308,
            "street": "296/3/4 หมู่1 ต.ปรุใหญ์",
            "zip": "30000"
        },
        "name": "ร้านช่างทน โคราช รับจูนระบบแก๊สรถยนต์ ใดนาโม แอร์ช่วงล่างระบบไฟ",
        "phone": "0831520515"
    }
]