[
    {
        "about": "รับ ซ่อม แอร์ ตู้แช่ ตู้เย็น และ ติด ดาวเทียม ติดต่อ 0904377391",
        "id": "447921041960124",
        "location": {
            "city": "Kanchanaburi",
            "country": "Thailand",
            "latitude": 13.93725,
            "longitude": 99.30342,
            "street": "134/1 ม.12 ซอยบ้านลุ่มดงกระเบา ต.ปากแพรก อ.เมือง จ.กาญจนบุรี",
            "zip": "71000"
        },
        "name": "ช่างแอร์ สาขากาญจนบุรี",
        "phone": "0904377391"
    },
    {
        "description": "รับติดตั้งแอร์ ขาย ซ่อมแอร์ ล้างแอร์ ถอด-ย้ายแอร์ ทั่วจังหวัดเชียงใหม่และอำเภอใกล้เคียง",
        "emails": [
            "act_2549@hotmail.com"
        ],
        "id": "320704751307430",
        "location": {
            "street": "71/4 Moo.5 T.Mae Hia A.Muang Chiangmai",
            "zip": "50100"
        },
        "name": "บริษัท บ้านช่างแอร์ จำกัด",
        "phone": "053-804585,086-5635112"
    },
    {
        "id": "713940812050288",
        "name": "กบ ช่างแอร์"
    },
    {
        "emails": [
            "kedsook3223@gmail.com"
        ],
        "id": "741064829356472",
        "location": {
            "city": "Chiang Mai",
            "country": "Thailand",
            "street": "345/2",
            "zip": "50290"
        },
        "name": "ช่างแอร์",
        "phone": "0801406503"
    },
    {
        "about": "รับซ้อมเครื่องใช้ไฟฟ้า ",
        "id": "489628431166792",
        "name": "ช่างแอร์  ช่างเย็น"
    },
    {
        "about": "ร้านช่างแอร์บัวปูนปั้น เชียงใหม่ คิ้วบัวปูนปั้นกระถาง น้ำพุ เสาและหัวเสาสไตล์โรมัน",
        "description": "เพิ่มช่องทางอีก1ช่องทางกับ Facebook จำหน่ายสินค้า บัวปูนปั้นสำเร็จ เสาโรมัน หัวเสา กระถางดอกไม้ ตุ๊กตาปูนปั้น น้ำพุสไตล์โรมัน   จังหวัดเชียงใหม่ ราคาปลีก-ส่ง ",
        "id": "524299420972527",
        "name": "ช่างแอร์ปูนปั้นเชียงใหม่ คิ้วบัวสำเร็จ หัวเสา กระถาง น้ำพุ สไตล์โรมัน",
        "phone": "089-9527275 "
    },
    {
        "about": "มีแอร์ใหม่พร้อมติดตั้งทุกยี่ห้อและกล้องวงจรปิดออนไลน์",
        "id": "1439456803048066",
        "location": {
            "city": "ราชบุรี",
            "street": "1/4 ถ.บ้านดอนตูม อ.บ้านโป่ง จ.ราชบุรี",
            "zip": "70110"
        },
        "name": "ช่างแอร์นครปฐม",
        "phone": "0817578910"
    },
    {
        "about": "บริการ ซ่อม ติดตั้ง เติมน้ำยาแอร์รถยนต์ แอร์บ้าน",
        "description": "ถ้าหากรถของคุณมีปัญหาเรื่องความเย็น อย่าลืมฝากให้เราดูแล บริการเป็นกันเอง",
        "emails": [
            "lo.soman@hotmail.com"
        ],
        "id": "157175344426466",
        "location": {
            "city": "Bang Bua Thong",
            "country": "Thailand",
            "latitude": 13.953570093056,
            "longitude": 100.36792255377,
            "street": "84/59 หมู่6 หมู่บ้านมิตรประชา ถ.บางกรวย-ไทรน้อย ต.บางบัวทอง อ.บางบัวทอง จ.นนทบุรี 11110",
            "zip": "11110"
        },
        "name": "ช่างสมมงคลแอร์ บ้านสีม่วง 0818966904,029037729 บางบัวทอง ไทรน้อย นนทบุรี",
        "phone": "0818966904"
    },
    {
        "about": "บริการงานแอร์ ไฟฟ้า. ประปา ปั๊มน้ำ ตู้เย็น เครื่องซักผ้า ตู้แช่ งานเชื่อม",
        "id": "1640111509552194",
        "location": {
            "city": "Surat Thani",
            "country": "Thailand",
            "latitude": 9.1077633,
            "longitude": 99.3726501,
            "street": "ต.บางกุ้ง อ.เมือง จ.สุราษฎร์ธานี",
            "zip": "84000"
        },
        "name": "ช่างแอร์สุราษฏร์ธานี",
        "phone": "0955788108"
    },
    {
        "about": "ขายสินค้าอะไหล่และบริการงานแอร์ อมตะนคร ชลบุรีครบวงจร\nรวบงานฝีมือช่างไฟฟ้า  ช่างแอร์   ",
        "emails": [
            "sinsomboonservice@gmail.com"
        ],
        "id": "974096489271664",
        "location": {
            "city": "Chon Buri",
            "country": "Thailand",
            "latitude": 13.36899,
            "longitude": 100.9957,
            "street": "อำเภอเมืองชลบุรี",
            "zip": "20000"
        },
        "name": "หางานช่างแอร์ ช่างแอร์ชลบุรี",
        "phone": "0863170844"
    },
    {
        "about": "ช่างแอร์ ล้างแอร์ ซ่อมแอร์ ติดตั้งแอร์ ลำพูน",
        "description": "ช่างแอร์ ล้างแอร์ ซ่อมแอร์ ติดตั้งแอร์ ลำพูน",
        "id": "1498042653745664",
        "location": {
            "city": "Lamphun",
            "country": "Thailand",
            "latitude": 18.53688,
            "longitude": 99.07746,
            "street": "อ.เมือง จ.ลำพูน",
            "zip": "51000"
        },
        "name": "ช่างแอร์ ล้างแอร์ ซ่อมแอร์ ติดตั้งแอร์ ลำพูน",
        "phone": "086-9131780"
    },
    {
        "id": "269664803175290",
        "name": "ช่างแอร์"
    },
    {
        "about": "รับบริการ ล้างแอร์ บ้าน รถยนต์ เติมน้ำยาแอร์ ซ่อม ตู้เย็น ตู้แช่ เครื่องซักผ้า งานไฟฟ้า",
        "id": "402579159938751",
        "name": "สมภพการช่างแอร์."
    },
    {
        "id": "349859985210733",
        "location": {
            "city": "Chanthaburi",
            "country": "Thailand",
            "latitude": 12.6,
            "longitude": 102.15,
            "street": "333/7หมู่2 ต.ท่าช้าง อ.เมือง จ.จันทบุรี",
            "zip": "22000"
        },
        "name": "ช่างแอร์",
        "phone": "0988852622"
    },
    {
        "about": "ช่างแอร์ ล้าง ติดตั้ง ย้าย ขาย ราคาประหยัด",
        "id": "270093689782067",
        "location": {
            "city": "Bangkok",
            "country": "Thailand",
            "latitude": 13.8551941,
            "longitude": 100.6759644,
            "street": "43 คู้บอน6",
            "zip": "10230"
        },
        "name": "ช่างแอร์ ล้าง ติดตั้ง ย้าย ขาย",
        "phone": "0900406304"
    },
    {
        "about": "ขายส่งแอร์ ช่างแอร์ ล้างแอร์ ติดตั้งแอร์ ช่างซ่อมแอร์ ขายแอร์",
        "description": "ขายส่งแอร์ ช่างแอร์ ล้างแอร์ ติดตั้งแอร์ ช่างซ่อมแอร์ ขายแอร์",
        "emails": [
            "dqconstruction@hotmail.com"
        ],
        "id": "345307602151469",
        "name": "ช่างแอร์ ล้างแอร์ ติดตั้งแอร์ ช่างซ่อมแอร์",
        "phone": "080 818 6085"
    },
    {
        "id": "149310565244601",
        "location": {
            "city": "Chachoengsao",
            "country": "Thailand",
            "latitude": 13.54662,
            "longitude": 101.02016,
            "street": "บางปะกง",
            "zip": "24130"
        },
        "name": "ศูนย์ฝึกอาชีพ ช่างแอร์",
        "phone": "0840213724"
    },
    {
        "about": "บริการ ล้าง ซ่อม ติดตั้งแอร์บ้าน",
        "description": "ล้าง ติดตั้ง ย้าย ซ่อม แอร์บ้าน ราคาเป็นกันเอง บริการแบบมิตร ตรงไปตรงมาไม่เลี้ยงไข้ นะคะ",
        "emails": [
            "chomphu2728@hotmail.com"
        ],
        "id": "241302236030889",
        "name": "ช่างเล็ก แอร์บ้าน"
    },
    {
        "about": "รับติดตั้งแอร์ ซ่อม ระบบปรับอากาศทุกชนิด และงานระบบไฟฟ้าอาคาร\n",
        "id": "387981581378453",
        "name": "วิโรจน์ ช่างแอร์ไทย"
    },
    {
        "about": "กับคำถามต้องห้ามหรือคำถามที่ต้องการคำตอบ ",
        "id": "129382843908762",
        "location": {
            "city": "ไทย"
        },
        "name": "ดีเจช่างแอร์"
    },
    {
        "about": "รับงานแอร์ติดตั้ง ล้าง  ย้าย แอร์บ้านโรงงานทุกชนิด",
        "id": "453638401462344",
        "name": "ช่างมอสงานแอร์"
    },
    {
        "about": "บริการติดตั้งซ่อม เครื่องปรับอากาศ ระบบไฟฟ้าต่างๆ",
        "description": "บริการติดตั้งซ่อม เครื่องปรับอากาศ ระบบไฟฟ้าต่างๆ ติดต่อ คุณมงคล   086-17828784   083-0706414",
        "id": "699562886732936",
        "name": "ช่างแอร์ เชียงใหม่"
    },
    {
        "id": "1617450438468761",
        "location": {
            "city": "Chon Buri",
            "country": "Thailand",
            "latitude": 13.3667,
            "longitude": 100.983,
            "street": "ศรีราชา",
            "zip": "21110"
        },
        "name": "ช่างแอร์ชลบุรี ศรีราชา อ่าวอุดม แหลมฉบัง บางละมุง พัทยาโทร.084-9285285",
        "phone": "0849285285"
    },
    {
        "about": "บริการติดตั้ง ซ่อม ล้าง ย้ายแอร์บ้านทุกชนิด",
        "id": "1538289419784760",
        "location": {
            "city": "Amphoe Lam Luk Ka",
            "country": "Thailand",
            "latitude": 13.9548893,
            "longitude": 100.6183624,
            "street": "600/585 ซ.b/2 ถ.พหลโยธิน",
            "zip": "12130"
        },
        "name": "แบงค์ ช่างแอร์",
        "phone": "080-9775388"
    },
    {
        "emails": [
            "pn-autogas@hotmail.com"
        ],
        "id": "353130488100502",
        "location": {
            "city": "Muang Chiang Mai",
            "country": "Thailand",
            "zip": "50100"
        },
        "name": "PNautogas        พี่น้องแอร์ช่างยนต์",
        "phone": "053-204249"
    }
]