[
    {
        "id": "617964841671259",
        "location": {
            "city": "Chiang Mai",
            "country": "Thailand",
            "latitude": 18.74287,
            "longitude": 98.88195,
            "street": "หางดง",
            "zip": "50230"
        },
        "name": "นายช่างแอร์",
        "phone": "0914835217"
    },
    {
        "id": "1497262077234506",
        "name": "F.c อู่ช่างแอร์ โอ๋ อะไหล่ซิ่ง"
    },
    {
        "about": "ซ่อมแอร์รถยนต์ ท่อไอเสีย แบตเตอรี่รถยนต์",
        "id": "118986494925109",
        "location": {
            "city": "Chon Buri",
            "country": "Thailand",
            "zip": "20130"
        },
        "name": "ช่างบอยแอร์"
    },
    {
        "about": "จำหน่ายปั๊มอัดฉีดสำหรับช่างแอร์  ยี่ห้อ IM-TECH ",
        "id": "244478492414988",
        "name": "ปั๊มอัดฉีดสำหรับช่างแอร์"
    },
    {
        "id": "1500527813600461",
        "name": "ช่างแอร์/ไฟ"
    },
    {
        "about": "รับเหมาติดตั้งเดินระบบไฟฟ้า.   รับเหมาะติดตั้งแอร์ ล้างแอร์ เครื่องใช้ไฟฟ้าต่างๆๆ",
        "id": "1523003307972923",
        "location": {
            "city": "เมืองสุโขทัย",
            "street": "บ้านสวน สุโขทัย"
        },
        "name": "ช่าง เป้ ไฟฟ้า \u0026 แอร์   สุโขทัย",
        "phone": "0968945035"
    },
    {
        "id": "1628094174106258",
        "name": "ช่างแอร์ ชิ่ง"
    },
    {
        "id": "1467679436885844",
        "name": "สำราญ ช่างแอร์"
    },
    {
        "about": "สนใจสอบถาม โทร.084-4652191, 081-5882866",
        "description": "จำหน่ายแอร์บ้าน ทุกยี่่ห้อ มีบริการ ติดตั้ง ซ่อม ล้าง ย้าย ในเขตจังหวัดจันทบุรี ตราด สระแก้ว ระยอง กรุงเทพ",
        "id": "185133561622684",
        "name": "แอร์บ้านจันทบุรี-ช่างศักดิ์"
    },
    {
        "id": "904184059669763",
        "name": "สมภพการช่างแอร์"
    },
    {
        "id": "1575628089380120",
        "name": "ช่าง แอร์ไทย ดังไกลไปทั่วโลก"
    },
    {
        "id": "828802397217360",
        "location": {
            "city": "Amphoe Khlong Thom",
            "country": "Thailand",
            "latitude": 7.93333,
            "longitude": 99.15,
            "street": "31/1 ม.1 ต.พรุดินนา อ.คลองท่อม จ.กระบี่",
            "zip": "81120"
        },
        "name": "ช่างนกดาวเทียม \u0026 แอร์",
        "phone": "0872693922"
    },
    {
        "description": "ช่างแอร์พ่อลูกอ่อน ผู้ปิดทองหลังคอมเพรสเซอร์....",
        "id": "460344864134067",
        "location": {
            "latitude": 13.534501455724,
            "longitude": 100.43411040679
        },
        "name": "ร้านช่างแอร์(รถยนต์)ในตำนาน..."
    },
    {
        "id": "878747858865992",
        "location": {
            "city": "ไทยแลน์",
            "street": "201/244 ม.4 ต.บางทราย อ.เมือง จ.ชลบุรี",
            "zip": "20000"
        },
        "name": "ช่างไก่แอร์ ชลบุรี",
        "phone": "0815889387"
    },
    {
        "id": "317728925032452",
        "location": {
            "city": "Thai Chang",
            "country": "Thailand",
            "latitude": 9.09542,
            "longitude": 99.3073,
            "street": "239/240 ม.5 ต.มะขามเตี้ย อ.เมือง จ.สุราษฎร์ธานี",
            "zip": "84000"
        },
        "name": "นราศักดิ์ช่างแอร์ บริการล้างแอร์ ซ่อมแอร์ ราคาเป็นกันเองใน จ.สุราษฎร์ธานี",
        "phone": "0816776446"
    },
    {
        "about": "ช่าง เครื่องทำความเย็น และปรับอากาศ ราชมงคล อีสาน",
        "id": "116376075085881",
        "location": {
            "city": "เมือง นครราชสีมา",
            "street": "744 สุรนารายณ์ ในเมือง",
            "zip": "30000"
        },
        "name": "ช่างแอร์ ราชมงคลนครราชสีมา"
    },
    {
        "about": "ซ่อม เติม น้ำยาแอร์",
        "id": "848844551865944",
        "location": {
            "city": "Rayong",
            "country": "Thailand",
            "latitude": 12.6742,
            "longitude": 101.279,
            "street": "ตรงข้ามปั๊มตราดาว"
        },
        "name": "ร้านแก๋งแอร์ ช่างวัช",
        "phone": "21110"
    },
    {
        "about": "ติดตั้ง ซ่อม ล้างแอร์",
        "id": "450662815099883",
        "location": {
            "city": "Kumphawapi",
            "country": "Thailand",
            "latitude": 17.1336,
            "longitude": 102.967,
            "street": "84 หมู่ 10 ต.ห้วยสามพาด อ.ประจักษ์ศิลปาคม จ.อุดรธานี",
            "zip": "41110"
        },
        "name": "ช่างหนุ่ยแอร์",
        "phone": "0966854191"
    },
    {
        "about": "อบรมช่างแอร์บ้าน",
        "description": "สอนหลักสูตร  การเปิดร้านแอร์และช่างแอร์\n\nศูนย์ฝึกช่างแอร์บ้านสามวา สถาบันฝึกวิชาชีพเปิดสอนวิชาชีพช่างแอร์บ้านให้ผู้เข้ารับการอบรม สามารถนำทักษะ ความรู้ที่ได้รับไปประกอบอาชีพ สร้างรายได้ได้จริง สำหรับ หลักสูตร การเปิดร้านแอร์และช่างแอร์ ใช้ระยะเวลาเรียน 5 วัน เรียนจบ เปิดร้านได้ทันที รับรองผล 100% (การเรียนการสอนเน้นฝึกปฎิบัติ) ค่าอบรม 2000 บาท เราจะสอนตั้งแต่พื้นฐาน ท่านจะสามารถ วิเคราะห์อาการเสียและซ่อมแอร์ได้ +สามารถรับบริการล้างแอร์ได้ +ทำระบบติดตั้งแอร์ได้ รวมทั้งแนะนำเทคนิคต่างๆ ในการเปิดร้านแอร์  สนใจเรียน จองเรียนด่วน รับจำกัดรอบละไม่เกิน 4 คน รับรองผลการเรียน อบรม จบแล้วมีใบวุฒิบัตรรับรอง ขณะเปิดกิจการหรือทำงานปรึกษาวิทยากรได้ตลอด  \nอบรม วันธรรมดาจันทร์-ศุกร์ (เวลาเรียน 10.00-15.00 น.)  สอบถามได้ที่ โท081-572-1372, 094-946-1718                                    Email: junrapak3333@gmail.com\n\nช่าง เครื่องปรับอากาศ มีหลักสูตรดังนี้\nสอนเรื่องการคำนวนพื้นที่จะติดตั้งเครื่องปรับอากาศ\nการติดตั้งเครื่องปรับอากาศ\nการวิเคราะอาการเสียและซ่อม\nการล้างแอร์แบบมืออาชีพ เร็วแต่สะอาด\nฝึกงานในสถานที่จริง ซ่อมจริง ล้างจริง แก้ปัญหาจริง\nเรียนในช็อป 3 วัน ฝึกปฏิบัติบ้านลูกค้าอาสาสมัคร 2 วัน\n",
        "emails": [
            "junrapak3333@gmail.com"
        ],
        "id": "303565789834138",
        "location": {
            "city": "ไทย",
            "street": "152/3ถนนไทรามัญ คลองสามวา กทม",
            "zip": "10510"
        },
        "name": "ศูนย์ฝึกช่างแอร์บ้านสามวา",
        "phone": "0815721372  /  0949461718"
    },
    {
        "about": "รับซ่อมแซมงานช่างทั่วไป ไฟฟ้า แอร์ ประปา ฝ้าเพดาน หลังห้าโมงและวันเสาร์",
        "id": "1620669618189787",
        "location": {
            "city": "Chiang Mai",
            "country": "Thailand",
            "latitude": 18.7622604,
            "longitude": 98.9929581,
            "street": "เชียงใหม่",
            "zip": "50200"
        },
        "name": "ช่างฟรีแลนช์  งานช่างทั่วไป แอร์/ไฟฟ้า/ประปา  0856631857",
        "phone": "0856631857"
    },
    {
        "about": "ช่างสะอาดและทีมงาน\n084-682-4854\n082-463-9008\n\n",
        "id": "922339741126276",
        "location": {
            "city": "Bangkok",
            "country": "Thailand",
            "street": "รับติดตั้งแอร์ ซ่อมแอร์ กรุงเทพฯ และปริมณฑล",
            "zip": "10000"
        },
        "name": "ช่าง ซ่อม ติดตั้ง ล้าง แอร์",
        "phone": "084-682-4854"
    },
    {
        "about": "บริการด้วยช่างมืออาชีพ. บริการมีระดับ.  รับประกันของลูกค้าหาย",
        "id": "874186392661838",
        "location": {
            "city": "Mae Sot",
            "country": "Thailand",
            "latitude": 16.7167,
            "longitude": 98.5667,
            "street": "218 ม 6 ตำบล ท่าสายลวด",
            "zip": "63110"
        },
        "name": "ทีมงานช่างแจ๊คแอร์สาขาแม่สอด.",
        "phone": "0898579007"
    },
    {
        "about": "-ติดตั้ง ล้าง ย้าย และซ่อมแอร์บ้านทุกชนิด(ราคากันเองค่ะ)\nโทร.087-5540232,099-7699940,081-6030747",
        "id": "1482487028671644",
        "name": "ช่างเหน่งแอร์บ้านป่าซาง-ลำพูน"
    },
    {
        "about": "ล้างแอร์ ซ่อม ติดตั้งแอร์เก่าและใหม่ ระบบไฟฟ้าคอนโทรล",
        "id": "557527587656275",
        "name": "แอร์และระบบไฟฟ้า ช่างวร"
    },
    {
        "id": "771976166265188",
        "name": "ช่างซ่อมเครื่องซักผ้า ล้างแอร์"
    }
]