[
    {
        "about": "ผู้ที่ยิ่งใหญ่ ครองใจวัยรุ่นไทยมานับหลายสิบปี",
        "id": "965864186781162",
        "name": "ช่างแอร์ในตำนาน"
    },
    {
        "about": "จำหน่ายเครื่องปรับอากาศทุกรุ่นทุกยี่ห้อ ขายส่งและติดตั้งโดยช่างผู้ชำนาญงาน",
        "id": "438434139662075",
        "location": {
            "city": "Kaeng Khoi",
            "country": "Thailand",
            "latitude": 14.5833,
            "longitude": 101.017,
            "street": "178/24  ม.7 ต.ทับกวาง อ.แก่งคอย จ.สระบุรี",
            "zip": "18110"
        },
        "name": "ร้านบ้านช่างแอร์",
        "phone": "0965895006"
    },
    {
        "about": "ติดต่อ 0868692745,0868655364",
        "id": "635286643170998",
        "location": {
            "city": "Ubon Ratchathani",
            "country": "Thailand",
            "latitude": 14.90175,
            "longitude": 105.0396,
            "street": "บ.โคกชำแระ ต.โคกชำแระ อ.ทุ่งศรีอุดม จ.อุบลราชธานี",
            "zip": "34160"
        },
        "name": "ช่างชัย รับเจาะน้ำบาดาล ด้วยเครื่องมือทันสมัย ด้วยเครื่อง ลม-แอร์",
        "phone": "0868692745"
    },
    {
        "about": "รับแต่งหน้า แต่งหน้าสมัครแอร์ โดยพี่บีช่างแต่งหน้า",
        "id": "1505191733042805",
        "name": "ช่างแต่งหน้า รับแต่งหน้าสมัครแอร์"
    },
    {
        "about": "เพราะเราเข้าใจ ว่าการลบภาพช่างแอร์ออกจากสมองคุณมันเป็นเรื่องยาก !!!",
        "description": "ผมไม่เล็กนะครับ",
        "id": "293496824105408",
        "name": "องค์กร ช่างแอร์ในตำนาน"
    },
    {
        "about": "เครื่องเสียงรถยนต์ by ช่างแอร์",
        "id": "808131855939187",
        "name": "504ทีมงานรับจัดหนัก.by ช่างแอร์"
    },
    {
        "emails": [
            "chidnarong3107@gmail.com"
        ],
        "id": "1555092931427287",
        "location": {
            "city": "Nakhon Sawan",
            "country": "Thailand",
            "latitude": 15.77635,
            "longitude": 100.27623,
            "street": "อ.ชุมแสง จ.นครสวรรค์",
            "zip": "60250"
        },
        "name": "ช่างต้อม แอร์ เอ็นจิเนียริ่ง",
        "phone": "0884339412"
    },
    {
        "id": "1419300171728720",
        "location": {
            "city": "Bangkok",
            "country": "Thailand",
            "latitude": 13.8030796,
            "longitude": 100.8133087,
            "street": "ร"
        },
        "name": "ช่างกล้วยรับติดตั้งซ่อมล้างแอร์บ้านทุกยี่ห่อ",
        "phone": "0846582341"
    },
    {
        "about": "รับแต่งหน้าสมัครแอร์ ทุกสายการบิน",
        "id": "541487265949596",
        "location": {
            "city": "Bangkok",
            "country": "Thailand",
            "latitude": 13.774,
            "longitude": 100.65728,
            "street": "หัวหมาก บางกะปิ",
            "zip": "10240"
        },
        "name": "ช่างแต่งหน้า สมัครแอร์ มืออาชีพ",
        "phone": "0851463446"
    },
    {
        "about": "G.ช่ า ง แ อ ร์ : D",
        "id": "1461064457438352",
        "name": "G.ช่างแอร์"
    },
    {
        "about": "ร้านรวมชางคลีนิคแอร์เวอร์วิส70/1 ถ.นิมิตรเมือง ต.หนองโก อ.กระนวนจ.ขอนแก่น 40170Tel..089-7053284-0843772817",
        "description": "รับติดตั้ง  ย้าย ซ่อม ล้าง แอร์บ้าน แอร์รถยนต์ทุกรุ่น ทุกยี่ห้อ\nโดยช่างชำนาญ ราคาเป็นกันเอง\n...เติมน้ำยาแอร์ บ้าน รถ.....\n",
        "emails": [
            "new-nong@hotmail.com"
        ],
        "id": "276363219136871",
        "location": {
            "street": "70/1  ถ.นิมิตรเมือง ต.หนองโก อ.กระนวน จ.ขอนแก่น",
            "zip": "40170"
        },
        "name": "รวมช่างคลีนิคแอร์เซอร์วิส",
        "phone": "089-7053284 ,084-3772817"
    },
    {
        "id": "501798249987400",
        "location": {
            "city": "Pua",
            "country": "Thailand",
            "latitude": 19.1833,
            "longitude": 100.917,
            "street": "pua nan",
            "zip": "55120"
        },
        "name": "ตำหนักเสด็จพ่อช่างแอร์ในตำนาน"
    },
    {
        "id": "589314331112645",
        "name": "ช่างแอร์ในตำนาน"
    },
    {
        "id": "1635595443324951",
        "name": "ช่างแอร์ลั้นลา"
    },
    {
        "id": "844702108932086",
        "location": {
            "city": "Phangnga",
            "country": "Thailand",
            "street": "ท้ายช้าง",
            "zip": "82000"
        },
        "name": "บอย ช่างแอร์",
        "phone": "0613488493"
    },
    {
        "about": "เบอร์โทร 08-6026-5656",
        "description": "ผมถือหลักการทำงานคือ “ต้องซื่อสัตย์ รับผิดชอบต่องาน ทำงานแบบมืออาชีพ “ ดูแลรถของท่านเหมือนรถของผมเอง และนี่คือเหตุผลที่ทำไมลูกค้าของผมยังคงใช้บริการกันมาตั้งแต่อดีตจนถึงปัจจุบัน  \n\nช่างอู๊ด สายไหม \n",
        "emails": [
            "carcoolsaimai@gmail.com"
        ],
        "general_info": "ศูนย์บริการตั้งอยู่ภายในศูนย์คาร์แคร์ออโต้ สปา สายไหม ติดกับศูนย์โตโยต้าสายไหม\n\nซ่อมแอร์เบนซ์ ซ่อมเบนซ์ รถยุโรป รถญี่ปุ่น \n\nโดยช่างอู๊ด สายไหม",
        "id": "1543043699271375",
        "location": {
            "city": "Bangkok",
            "country": "Thailand",
            "street": "168 ม. 2 ถนนสายไหม แขวงสายไหม เขตสายไหม",
            "zip": "10220"
        },
        "name": "ซ่อมแอร์เบนซ์ ซ่อมเบนซ์ ซ่อมรถ รถยุโรป รถญี่ปุ่น โดยช่างอู๊ด สายไหม",
        "phone": "086-0265656 02-5360838"
    },
    {
        "about": "แอร์ไม่เย็น ไฟฟ้ามีปัญหา โทรมาหาผม 0913523345",
        "id": "850932704981637",
        "location": {
            "city": "ไทย",
            "street": "จ.ร้อยเอ็ด",
            "zip": "45000"
        },
        "name": "ช่างแอร์ ช่างไฟฟ้า จังหวัดร้อยเอ็ด",
        "phone": "0913523345"
    },
    {
        "about": "จำหน่าย ซ่ิอม ติดตั้ง ล้าง แอร์บ้านทุกชนิด ทุกยี่ห้อ",
        "id": "448262335305736",
        "location": {
            "city": "Chiang Mai",
            "country": "Thailand",
            "latitude": 18.98455,
            "longitude": 99.01305,
            "street": "แม่โจ้-สันทราย",
            "zip": "50290"
        },
        "name": "ช่างดอนบริการ แอร์ แอนด์ อีเลคทริค",
        "phone": "087-6619004"
    },
    {
        "id": "444493319086924",
        "name": "ช่างแอร์ นครแอร์"
    },
    {
        "id": "1647504198825607",
        "location": {
            "city": "Krabi",
            "country": "Thailand",
            "latitude": 8.06667,
            "longitude": 98.9167,
            "street": "กรุงเทพ",
            "zip": "556666"
        },
        "name": "สมาคมช่างแอร์มืออาชีพแห่งประเทศไทย",
        "phone": "089999999"
    },
    {
        "id": "979608342062643",
        "location": {
            "city": "Bangkok",
            "country": "Thailand"
        },
        "name": "ช่างแอร"
    },
    {
        "id": "1619884794942811",
        "name": "ช่างแอร์น้ำยา"
    },
    {
        "id": "1645308135718370",
        "name": "ช่างแอร์\u0026ไฟฟ้า"
    },
    {
        "id": "1727176304171867",
        "location": {
            "city": "Bangkok",
            "country": "Thailand"
        },
        "name": "ช่างแอร์ EasyMaid"
    },
    {
        "id": "915443431839523",
        "name": "ช่างแอร์ในตำนาน"
    }
]