[
    {
        "about": "ติดตั้ง ล้าง ซ่อมบำรุงแอร์ทุกประเภท",
        "id": "1608795439364715",
        "name": "VJ Service แอร์มีปัญหาติดต่อ ช่างนคร 086-5064333"
    },
    {
        "id": "460544830769421",
        "location": {
            "city": "Samut Prakan",
            "country": "Thailand",
            "latitude": 13.6003199,
            "longitude": 100.5977936,
            "street": "ถนนสุขุมวิท (สายเก่า)",
            "zip": "10280"
        },
        "name": "ร้านช่างแอร์ ดอทคอม วงแหวย กาญจนา",
        "phone": "+66954657073"
    },
    {
        "id": "190754134293863",
        "name": "ผู้ช่วยช่างแอร์"
    },
    {
        "about": "งานติดตั้ง แก้ปัญหา เครื่องปรับอากาศ",
        "id": "473431066168086",
        "name": "ช่างแอร์ ดอทเน็ต"
    },
    {
        "id": "1548942202034721",
        "location": {
            "city": "Surin",
            "country": "Thailand",
            "latitude": 14.90883,
            "longitude": 103.48616,
            "street": "436 ม.1 ต.สลักได",
            "zip": "32000"
        },
        "name": "ช้างแอนด์แชมป์ จำหน่ายแอร์บ้าน ตู้หยอดเหรียญ เครื่องซักผ้า",
        "phone": "0810757282"
    },
    {
        "id": "844999735620827",
        "name": "ช่างซ่อมล้างและติดตั้งแอร์บ้าน แอร์โรงงาน"
    },
    {
        "id": "1623505557923208",
        "name": "แผนกไฟฟ้า(ช่างแอร์)"
    },
    {
        "id": "665704726865157",
        "location": {
            "city": "Surin",
            "country": "Thailand",
            "latitude": 14.8833,
            "longitude": 103.483,
            "street": "บ้านชายทุ่ง",
            "zip": "32120"
        },
        "name": "บ้านช่างโอ แอร์บัส",
        "phone": "0881129686"
    },
    {
        "id": "874730709275440",
        "name": "ช่างซ่อมล้างและติดตั้งแอร์บ้าน"
    },
    {
        "about": "รับจ้างล้างแอร์บ้านราคาถูก",
        "id": "215847821958994",
        "location": {
            "city": "Bangkok",
            "country": "Thailand",
            "latitude": 13.85247,
            "longitude": 100.73933,
            "street": "95/190 หมู่บ้าน The Connect 22 ถ.สุวินทวงศ์ แขวงมีนบุรี",
            "zip": "10510"
        },
        "name": "รับจ้างล้างแอร์บ้าน เครื่องปรับอากาศบ้าน - ช่างตั้ม",
        "phone": "0868379586"
    },
    {
        "id": "1090685514291611",
        "location": {
            "city": "Amphoe Kamphaeng Saen",
            "country": "Thailand",
            "latitude": 14,
            "longitude": 100,
            "street": "107 ม.6 ต.ห้วยขวาง อ.กำแพงแสน จ.นครปฐม",
            "zip": "73140"
        },
        "name": "ช่างชิต รับติดตั้ง,ซ่อม แอร์,กล้องวงจรปิด,ทีวีดาวเทียมทุกยี่ห้อ",
        "phone": "0851005996"
    },
    {
        "id": "408690326005727",
        "name": "ช่าง ช่วงล่าง แอร์ หม้อน้ำ"
    },
    {
        "id": "963091120420964",
        "name": "ช่างซ้่ละติดตั้งแอร์"
    },
    {
        "id": "1693584967543631",
        "name": "ช่างช่อมและติดตั่งแอร์"
    },
    {
        "id": "142972915896300",
        "name": "ช่างไฟฟ้า ช่างแอร์"
    },
    {
        "about": "บริการซ่อมแอร์รถยนต์ และติดตั้งเครื่องเสียง",
        "id": "840322932717487",
        "location": {
            "city": "Nakhon Si Thammarat",
            "country": "Thailand",
            "latitude": 8.4364,
            "longitude": 99.9631,
            "street": "46 ม.5 ต.บ้านนิคม อ.บางขัน",
            "zip": "80360"
        },
        "name": "ร้านนายช่าง แอร์ แอนด์ ซาวด์",
        "phone": "0612408772"
    },
    {
        "id": "914373875303564",
        "name": "ชา่งไฟฟ้า...ประปา..ทาสี.เชื่อม.แอร์"
    },
    {
        "id": "603566843110617",
        "location": {
            "city": "Chaiya",
            "country": "Thailand",
            "latitude": 9.44677,
            "longitude": 99.06209,
            "street": "เลขที่ 25/2 หมู่ 7 ตำบล เลม็ด",
            "zip": "84110"
        },
        "name": "ร้าน ช่างปาน แอร์",
        "phone": "0897661626"
    },
    {
        "description": "รับซ่อมพร้อมติดตั้ง\n -แอร์ ไดนาโม มอเตอร์\n -สัญญาณกันขโมย กระจกไฟฟ้า\n -โคมดำ มุมส้ม\n -ขัดไฟตาหน้าเหลือง\n ติดตั้งเซ็นทรัลล๊อก เดินสายไฟ ทุกรุ่น\n ติดต่อ...ช่างเก่ง\n 089-8646946\n 081-0612124\n .....................................................................................\n 408 ซ.3 ต.ในเมือง อ.เมือง.จ.นครราชสีมา 30000",
        "id": "512484198769409",
        "location": {
            "city": "Bangkok",
            "country": "Thailand",
            "street": "ถนนสืบศิริ",
            "zip": "30000"
        },
        "name": "แอร์ ไดนาโม โคราช พงษ์ทรัพย์การช่าง",
        "phone": "0898646946"
    },
    {
        "id": "897352733648000",
        "name": "ช่างรับเหมาไฟฟ้าประปาแอร์เครื่องเย็นทุกชนิด"
    },
    {
        "about": "ขายปลีก-ส่ง บริการ ย้าย ซ่อม ล้าง แอร์บ้าน ใหม่เก่า ทุกชนิด ราคามิตรภาพ",
        "description": "ขายปลีก-ส่ง บริการติดตั้ง ย้าย ซ่อม ล้าง แอร์บ้าน อ.ตาคลี จ.ชัยนาท จ.นครสวรรค์ บางบัวทอง รังสิต ดอนเมือง ลาดพร้าว และพื้นที่ใกล้เคียงโทรมาถามนัดคิวจองได้ที่ 0839620466 ",
        "id": "311941452251131",
        "location": {
            "city": "Nakhon Sawan",
            "country": "Thailand",
            "street": "takli อ.ตาคลี",
            "zip": "60140"
        },
        "name": "จำหน่าย ติดตั่ง ซ่อม แอร์บ้าน ทั้งเก่าใหม่ โดยช่างมืออาชีพ",
        "phone": "083 962 0466"
    },
    {
        "about": "จำหน่ายแอร์ ติดแอร์ ล้างแอร์ ซ่อมแอร์ ห้วยขวาง รัชดา ลาดพร้าว จตุจักร สะพานใหม่",
        "id": "1461634950743374",
        "name": "ช่างแอร์ ร้านแอร์บ้าน ห้วยขวาง รัชดา ลาดพร้าว จตุจักร สะพานใหม่"
    },
    {
        "id": "710252775757513",
        "location": {
            "city": "Chon Buri",
            "country": "Thailand",
            "latitude": 13.36899,
            "longitude": 100.9957,
            "street": "12/43 ม.1ต.ห้วยกะปิ  อ.เมือง จ.ชลบุรี",
            "zip": "20000"
        },
        "name": "ธีรภัทร์ แอร์   ช่างเพลิน",
        "phone": "0861468180"
    },
    {
        "about": "บริการ ซ่อม ติดตั้ง เคลื่อนย้าย ล้าง แอร์บ้าน จานดาวเทียม กล้องวงจรปิด ",
        "id": "780057172109996",
        "location": {
            "city": "Udon Thani",
            "country": "Thailand",
            "latitude": 17.4167,
            "longitude": 102.75,
            "street": "191ม.9 ต.เชียงแหว อ.กุมภวาปี จ.อุดรธานี",
            "zip": "41110"
        },
        "name": "แอร์บ้านอุดรธานี - ช่างนนท์ 0912515124",
        "phone": "0912515124"
    },
    {
        "id": "528845333940287",
        "name": "ช่างรับเหมางานระบบไฟฟ้า แอร์บ้าน เครื่องใช้ไฟฟ้าทุกชนิด"
    }
]