[
    {
        "id": "1506093226378585",
        "name": "Fc พี่หยกช่างแอร์ #ผมไม่เล็กนะครับ"
    },
    {
        "about": "บริการติดตั้วแอร์ ล้างแอร์ ซ่อมแอร์",
        "id": "1650059461873397",
        "location": {
            "city": "Amphoe Bang Yai",
            "country": "Thailand",
            "street": "15/8-12 ตำบลบางม่วง อำเภอบาวใหญ่ จังหวัดนนทบุรี",
            "zip": "11140"
        },
        "name": "รับติดตั้ง แอร์ใหม่ เก่า ซ่อมติดต่อได้คับ0875059284 ช่างบอย",
        "phone": "0875059284"
    },
    {
        "about": "ติดตั้ง/ล้าง/ซ่อม. แอร์บ้านและบริษัท \nบริการถึงที่ ราคากันเอง",
        "id": "1563273503904497",
        "name": "ช่างแอร์ หาดใหญ่ เซอร์วิส",
        "phone": "0815413275"
    },
    {
        "id": "166308843709925",
        "location": {
            "city": "Ban Pluak Daeng",
            "country": "Thailand",
            "latitude": 12.9652651,
            "longitude": 101.2024487,
            "street": "105/6 ต.ปลวกแดง อ.ปลวกแดง จ.ระยอง",
            "zip": "21140"
        },
        "name": "แอร์ ใดนาโม ธีระยุทธ การช่าง"
    },
    {
        "about": "รับซ่อมคอมเพรสเซอร์ทุกรุ่น ทุกขนาด และ รับปรึกษาปัญหางานด้านคอมเพรสเซอร์",
        "description": "รับซ่อมคอมเพรสเซอร์แคเรียร์ ทุกรุ่น\nรับซ่อมบคอมCopeland แบบเซมิเฮอร์เมติค\nรับซ่อมคอมลูกสูบใหญ่ ทุกรุ่น ทุกขนาด \nรับซ่อมคอมเพรสเซอร์โรตารี่ ทุกรุ่นทุกขนาด\nรับซ่อมคอมสโครล์ ทุกรุ่นทุกขนาด \nรับซ่อมคอม bitzer ทุกรุ่นทุกขนาด\nรับปรึกษาปัญหางานด้านคอมเพรสเซอร์\n\nติดต่อ 02-926-6860-1,086-779-2326(เพ็ญพิชญา)\nเปิดบริการ จันทร์-เสาร์ 8:00-18:00 น...นะคะพี่น้อง",
        "id": "301317206712940",
        "location": {
            "city": "Nonthaburi",
            "country": "Thailand",
            "latitude": 13.8665152,
            "longitude": 100.4799805,
            "street": "บางใหญ่",
            "zip": "11140"
        },
        "name": "Nathapat Compressor ช่างแอร์ในตำนาน",
        "phone": "02-9266860"
    },
    {
        "about": "จำหน่าย /ติดตั้ง แอร์บ้าน",
        "emails": [
            "changlekair@hotmail.com"
        ],
        "id": "365523120180286",
        "location": {
            "city": "Bangkok",
            "country": "Thailand",
            "latitude": 13.738903,
            "longitude": 100.6555405,
            "street": "4/255 ม.4 (เพิ่มสิน ซ.20)คลองถนน สายไหม กทม.",
            "zip": "10220"
        },
        "name": "ร้านช่างเล็กแอร์เซอร์วิส Changlek air service"
    },
    {
        "id": "835670026528760",
        "location": {
            "city": "Amphoe Muang Chiang Mai",
            "country": "Thailand",
            "latitude": 18.749406929423,
            "longitude": 98.963917883126
        },
        "name": "บริษัทช่างทองแอร์"
    },
    {
        "about": "จ.ขอนแก่น",
        "id": "801765959852554",
        "name": "ช่าง ขอนแก่น รับงาานไฟ ประปา แอร์ งานต่อเติม"
    },
    {
        "about": "บริการ จำหน่าย ติดตั้ง ซ่อม ล้าง  ย้าย  แอร์บ้าน แอร์โรงงาน ล้างแอร์รายครั้ง รายปี ",
        "id": "603224783034444",
        "location": {
            "city": "Bang Kruai",
            "country": "Thailand",
            "latitude": 13.85247,
            "longitude": 100.73933,
            "street": "406/190     คลองสามวา  บางชัน",
            "zip": "10510"
        },
        "name": "ร้านช่างแอร์",
        "phone": "0865455438"
    },
    {
        "about": "งานไฟฟ้า. งานแอร์ งานหม้อแปลงไฟฟ้า ปักเสาไฟฟ้า งานตู้เย็น. เปลียนขอบยางตู้เย็น",
        "description": "รับปรีกษา ระบบแอร์บ้าน ไฟบ้าน ประปา กล้องวงจรปิด",
        "emails": [
            "love.o.a@hotmail.com"
        ],
        "id": "1559306667671012",
        "location": {
            "city": "San Pa Tong",
            "country": "Thailand",
            "latitude": 18.582847580962,
            "longitude": 98.908390402222,
            "street": "267 หมู่ 2 ตำบลมะขามหลาง",
            "zip": "50120"
        },
        "name": "ช่างโอ๋เชียงใหม่บริการแอร์บ้านระบบไฟฟ้าในบ้าน 0869106065",
        "phone": "0869106065"
    },
    {
        "id": "1505489969744299",
        "location": {
            "city": "Amphoe Pranburi",
            "country": "Thailand"
        },
        "name": "ช่างวาศิณีแอร์"
    },
    {
        "about": "ล้างแอร์รถยนต์ไม่ต้องถอดตู้ราคา500บาทมีกล้องส่องก่อนล้างและหลังล้างครับ",
        "emails": [
            "boonchot_kumton@hotmail.com"
        ],
        "id": "639401319510141",
        "location": {
            "city": "Changwat Rayong",
            "country": "Thailand",
            "latitude": 12.692530052857,
            "longitude": 101.22542141143,
            "street": "หลังหมู่บ้านเพลินใจ 2",
            "zip": "21000"
        },
        "name": "แอร์ไดนาโมแบตเตอรี่ถ่ายน้ำมันเครื่องล้างแอร์500บาทช่างโชติระยองครับ",
        "phone": "0813612926"
    },
    {
        "about": "ทำท่อส่งลมแอร์ หน้ากากแอร์ รีเทิร์น หัวจ่าย ปะพุตู้เย็นและตู้ซักผ้า ช่องท่อดูดอากาศ ",
        "id": "1675626056015679",
        "location": {
            "city": "ไทย",
            "zip": "10400"
        },
        "name": "บอย ช่าง ดัก แอร์",
        "phone": "083-068-3595"
    },
    {
        "id": "1599170646991817",
        "location": {
            "city": "Samut Songkhram",
            "country": "Thailand",
            "latitude": 13.41229874,
            "longitude": 99.96918423,
            "street": "อัมพวา",
            "zip": "75000"
        },
        "name": "ออฟฟิตช่างแอร์ชื่อดังย่านอัมพวาที่มีช่างหน้าตาดีที่สุด"
    },
    {
        "about": "ซ่ร์ ไดนาโมแอร์ แบตเตอรี่ ระบบไฟฟ้ารถยนต์",
        "id": "1639005266338894",
        "location": {
            "city": "Min Buri",
            "country": "Thailand",
            "latitude": 13.78228,
            "longitude": 100.7237778,
            "street": "41/5 มฺ.8 ร้านปัญญาไดนาโม ถ.ราษฎร์อุทิศ แขวงแสนแสบ เขตมีนบุรี กรุงเทพฯ",
            "zip": "10510"
        },
        "name": "ปัญญาไดนาโมแอร์ -ช่างหนุ่ม",
        "phone": "0843273142"
    },
    {
        "about": "ดีเจ ช่างแอร์ตัวจริงนะครับ",
        "id": "710642335659298",
        "name": "Club Fri A  ดีเจ ช่างแอร์"
    },
    {
        "id": "1612795515636279",
        "name": "ช่างแอร์ในตำนาน เอิกๆ"
    },
    {
        "id": "1623629831260202",
        "name": "ช่างแอร์  มีไรป่าว"
    },
    {
        "id": "1623968014519138",
        "name": "ช่างแอร์จนๆคนหนึ่ง"
    },
    {
        "about": "ช่างไฟฟา ช่างประปา ซื้อแอร์เก่า นวนคร",
        "description": "ระบบงานไฟฟ้า  เรารับบริการเดินสายไฟ  ติดตั้งเครื่องทำน้ำอุ่น\t \t \n \tสายไฟชำรุด  อื่นๆเกี่ยวกับปัญหาไฟฟ้าครับ\t \t \n-\tระบบงานปะปา  เราบริการเดินท่อปะปา  ก็อกน้ำเสีย ท่อแตก ท่อรั่ว \t \t \n \tและอื่นๆที่เกี่ยวกับงานประปา  ปรึกษาเราได้ครับ\t \t \n-\tงานต่อเติมบ้าน ทำที่จอดรถ ทาสีบ้าน ปูกระเบื้อง  ลูกบิดชำรุด  ประตูชำรุด  ติดกลอนเพิ่มเติม\n \tและอื่นๆ ลองสอบถามเราได้นะครับ\t \t \n-\tรับซื้อแอร์เก่า ย่าน นวนคร  พระอินทร์  อยุทธยา  ลำลูกกา รังสิต ปทุมธานี  \nHOSANNA\n\nร้องว่า โฮซันนา\n\nHosanna Service  : ช่างไฟฟ้า  ช่างประปา  ช่างทาสี  ปูกระเบื้อง  ต่อเติม  เดินสายไฟ\nHosanna Air        : ติดแอร์ แอร์ใหม่  แอร์มือสอง  รับซื้อแอร์มือสอง  ล้างแอร์  ซ่อมแอร์\nHosanna Agent    : ม้วนเหล็ก พับเหล็ก ตัดเหล็ก ดัดเหล็ก ขึ้นรูป  รับทำงานตามแบบ ตัด กลึง มิลลิ่ง\nงานช่าง งานแอร์ นวนคร พระอินทร์ รังสิต ปทุมธานี อยุทธยา   \nงานเหล็ก ปทุมธานี อยุทธยา ระยอง ชลบุรี สมุทรปราการ สมุทรสาคร นนทบุรี\n \n\nยินดีรับใช้ในทุกบริการ  0849429388 ",
        "emails": [
            "hmouyoen@gmail.com"
        ],
        "id": "775386022481127",
        "location": {
            "city": "Pathum Thani",
            "country": "Thailand",
            "latitude": 14.112713934548,
            "longitude": 100.59994934492,
            "zip": "12120"
        },
        "name": "ช่างไฟฟ้า ช่างประปา   ซื้อแอร์เก่า ติดแอร์ นวนคร Hosanna Service",
        "phone": "0837453630"
    },
    {
        "about": "โทร 0824639008 /084 6824854",
        "id": "536404599848956",
        "name": "ช่าง ติดตั่ง ซ่อม ล้าง และ บริการแอร์ บ้าน โรงงาน บริษัท"
    },
    {
        "id": "134841153225668",
        "name": "ช่างซ่อมแอร์"
    },
    {
        "id": "1498833953672686",
        "location": {
            "city": "Maha Sarakham",
            "country": "Thailand",
            "latitude": 16.1852703,
            "longitude": 103.3076477,
            "street": "มหาสารคาม",
            "zip": "44000"
        },
        "name": "รวมเบอร์โทรช่างแอร์ ซ่อมแอร์ ติดตั้งแอร์ ร้านแอร์ทุกจังหวัด ทุกอำเภอ",
        "phone": "043746198"
    },
    {
        "id": "1590121694586512",
        "location": {
            "city": "หาดใหญ่ จังหวัดสงขลา",
            "zip": "90110"
        },
        "name": "แอร์บ้าน จานดาวเทียม ช่างโอมเซอร์วิส",
        "phone": "0855958900"
    },
    {
        "id": "1518600675098299",
        "name": "ช่างแอร์บ้าน แอร์รถยนตร์"
    }
]