[
    {
        "about": "ติดตั้งแอร์บ้าน",
        "id": "480556492119685",
        "location": {
            "city": "Bangkok",
            "country": "Thailand",
            "latitude": 13.7522,
            "longitude": 100.494,
            "street": "129 ซอยจรัญสนิทวงศ์ 3 ถนนจรัญสนิทวงศ์ แขวงท่าพระ เขตบางกอกใหญ่",
            "zip": "10600"
        },
        "name": "ช่างแอร์ ติดตั้งแอร์ ซ่อมแอร์ ตู้เย็น ราคากันเอง",
        "phone": "0890957462"
    },
    {
        "id": "537025079739414",
        "name": "ช่างแอร"
    },
    {
        "about": "ช่างแอร์ ล้างแอร์ ซ่อมแอร์ ติดตั้งแอร์ ย้ายแอร์ constructthai.com ประกาศฟรี",
        "id": "1596604570619063",
        "location": {
            "city": "Bangkok",
            "country": "Thailand",
            "street": "76 ถ.สุขาภิบาล 5 ซ.24 ท่าแร้ง บางเขน",
            "zip": "10220"
        },
        "name": "ช่างแอร์ ล้างแอร์ ซ่อมแอร์ ติดตั้งแอร์ ย้ายแอร์",
        "phone": "0847653000"
    },
    {
        "id": "261134663952672",
        "name": "ช่างซ่อมแอร์ในตำนาน"
    },
    {
        "about": "แอร์รถยนต์",
        "description": "ท่ารู้ว่าระบบแอร์มันเป็นยังไง  จะกลัวทำไมกับงานแก้  ทำงานช้าไม่ได้หมายความว่าทำงานไม่เป็น แค่ใจเย็นกับงานที่ทำ  ของดีราคาถูกหาที่ใหน ของดีกำไรมันน้อย ของถูกกำไรมันเยอะอยุที่เลือกใช้   อยุที่ตัดสินใจกันเอาเอง",
        "emails": [
            "www.whanchai11@gmail.com"
        ],
        "id": "805420269483255",
        "location": {
            "city": "Bangkok",
            "country": "Thailand",
            "latitude": 13.70426,
            "longitude": 100.40088,
            "street": "รับซ่อมแอร์รถยนต์",
            "zip": "10160"
        },
        "name": "สายช่างแอร์รถยนต์โดยเฉพาะ",
        "phone": "0813129286"
    },
    {
        "about": "บริการรับติดตั้งแอร์ จานดาวเทียม และซ่อมเครื่องใช้ไฟฟ้าทุกชนิด ในราคามิตรภาพ ",
        "id": "1462623454044499",
        "location": {
            "city": "Lamphun",
            "country": "Thailand",
            "latitude": 18.6068192,
            "longitude": 98.9834824,
            "street": "ศรีบังวัน",
            "zip": "51000"
        },
        "name": "ช่างเอก ลำพูนสยามแอร์",
        "phone": "0899981222"
    },
    {
        "about": "บุคคลในตำนาน กลับมาเขย่าวงการ",
        "id": "118163311721938",
        "name": "ช่างแอร์ ในตำนาน"
    },
    {
        "about": "รับซ่อม : แอร์รถยนต์ทุกชนิด\n              ไดชาร์ท\n              ไดสตาร์ท\n              ไฟรถยนต์",
        "id": "1591263614483473",
        "name": "ช่างเล็ก ไดนาโมแอร์เซอร์วิส",
        "phone": "0931826460"
    },
    {
        "id": "721873444591709",
        "name": "ชุมชนช่างแอร์",
        "phone": "0999789361"
    },
    {
        "emails": [
            "pca_auto_air@yahoo.com"
        ],
        "general_info": "พัฒนาการช่างออโต้แอร์\n     สุริยะกมล  วิสีปัต (อ๊อฟ)\n     Phone : 0892080888\n  จำหน่าย : อะไหล่แอร์รถยนต์ทั้งปลีกและส่ง\n  ศูนย์บริการซ่อม-ติดตั้้ง แอร์รถยนต์ทุกรุ่น ทุกยี่ห้อ\n                                         โดยช่างชำนาญงาน\n  โทร.0-2319-3818 , 0-2319-3833 แฟกซ์ : 0-2318-2568\n1731 ถ.พัฒนาการ ซ.35 แขวงสวนหลวง เขตสวนหลวง กรุงเทพฯ 10250",
        "id": "393406550692292",
        "location": {
            "city": "Bangkok",
            "country": "Thailand",
            "latitude": 13.7297725,
            "longitude": 100.6535145,
            "street": "1731 ถนนพัฒนาการ ซอย 35 แขวงสวนหลวง เขตสวนหลวง",
            "zip": "10520"
        },
        "name": "พัฒนาการช่างออโต้แอร์",
        "phone": "023193818"
    },
    {
        "id": "656098574401769",
        "location": {
            "city": "Song Phi Nong",
            "country": "Thailand",
            "latitude": 14.207235211268,
            "longitude": 100.02783241466,
            "street": "บางลี่-สองพี่น้อง",
            "zip": "72110"
        },
        "name": "อู่ช่างแอร์",
        "phone": "088-5444120"
    },
    {
        "about": "ID LINE : omami7788\nรับติดตั้งแอร์ สนใจติดต่อ 097-1927690\n(ช่างบิ๊ก)ครับ ยินดีให้บริการนะครับ:)",
        "id": "1555259358028222",
        "name": "ช่างบิ๊ก แอร์โคราช"
    },
    {
        "about": "บริการให้คำปรึกษา,จำหน่าย,รับติดตั้ง,ซ่อม แอร์และไฟฟ้าทุกประเภท",
        "id": "1586756351568575",
        "location": {
            "street": "จันทุรี"
        },
        "name": "ช่างชาญ แอร์\u0026ไฟฟ้า - จันทบุรี",
        "phone": "0890596434"
    },
    {
        "about": "ผมไม่เล็กนะครับ",
        "id": "120023434738425",
        "name": "ช่างซ่อมแอร์ในตำนาน"
    },
    {
        "about": "ผมไม่เล็กนะครับ",
        "id": "1463527570559564",
        "name": "ช่างแอร์ในตำนาน"
    },
    {
        "id": "1625487241072312",
        "location": {
            "city": "จ หนองบัวลำภู",
            "street": "19 ม2 ต นากลาง อ นากลาง",
            "zip": "39170"
        },
        "name": "เพจช่างแอร์ กกค้อ อ. นากลาง .",
        "phone": "0611042891"
    },
    {
        "about": "รับติดตั้งแอร์ล้าง  สุทินช่างแอร์ 0925151299",
        "id": "604058056313207",
        "location": {
            "city": "Bangkok",
            "country": "Thailand",
            "latitude": 13.89633,
            "longitude": 100.63934,
            "street": "หมู่บ้านพฤกษาวิลย์ 37 ถ.เพิ่มสิน-ออเงิน",
            "zip": "10220"
        },
        "name": "สุทินช่างแอร์",
        "phone": "092-515-1299"
    },
    {
        "id": "935264643151576",
        "location": {
            "city": "Chiang Mai",
            "country": "Thailand",
            "latitude": 18.7608929,
            "longitude": 98.9925537,
            "street": "223/100",
            "zip": "50230"
        },
        "name": "วิวสวยแอร์ - ช่างป่อง",
        "phone": "0836554204"
    },
    {
        "about": "ช่างแต่งหน้า ช่างทำผม by meple_makeup \nรับทั้งในและนอกสถานที่นะค่ะ",
        "description": "ช่างแต่งหน้า ช่างทำผม by meple_makeup เป็นช่างแต่งหน้ามืออาชีพ มั่นใจได้ในฝีมือ ความสามารถและคุณภาพ การันตีได้ในผลงาน\nซื่อสัตย์และตรงเวลา ใส่ใจทุกรายละเอียด เต็มที่กับทุกบริการ เพื่อมอบสิ่งที่ดีที่สุดให้กับลูกค้าทุกท่าน\n\nแต่งหน้าทำผมเจ้าสาว,\nแต่งหน้าทำผมรับปริญญา,\nแต่งหน้าไปงานทั่วไป,\nแต่งหน้าสมัครแอร์,\nแต่งหน้าทำผมรายการต่างๆ,\nแต่งหน้าแฟชั่น,\nแต่งหน้าไปงานบายเนียร์,\nแต่งหน้าถ่ายแบบ,\nแต่งหน้าพริตตี้,\nแต่งหน้าทำผมเป็นกลุ่มหรือบริษัทหรือองค์กรต่างๆ,\nแต่งหน้าในโอกาสต่างๆ ตามความต้องการของลูกค้า\n\nเราให้บริการอย่างเป็นกันเองในราคามิตรภาพ อยากให้แต่งหน้าในแบบไหนสไตล์ไหน สามารถแจ้งได้เลยนะค่ะ\n\nรับรองไม่ทำให้ท่านผิดหวังแน่นอน หน้าสวย ผมเลิศ คอนเฟิร์ม.... เป๊ะเว่อๆ แน่นอนค๊า....\n\n\"เอาใจใส่ทุกรายละเอียด ดูแลเหมือนญาติสนิท ในราคามิตรภาพจริงๆค่ะ\"\n\nโดยช่างแต่งหน้าทำผมมืออาชีพ ด้วยเครื่องสำอางค์แบรนด์เนมชั้นนำจากเคาน์เตอร์ทุกชิ้นเลยค่ะ\n\n\nเรียนแต่งหน้าตัวเอง เปิ้ลเปิดคอร์สสอนแต่งหน้าตัวเอง สำหรับท่านใดต้องการเรียนแต่งหน้าสวยๆง่ายๆด้วยตัวเอง เราสอนทั้งทฤษฏีและเน้นการปฏิบัติ การแก้ไขรูปหน้า การใช้แสงเงา การเลือกโทนสีให้เหมาะกับตัวเองให้สาวๆสวยดูดีมีความมั่นใจ เน้นการแต่งหน้าในชีวิตประจำวัน ไปทำงาน ไปงานเลี้ยง ไปออกงานต่างๆ\nการเรียนเปิ้ลจะสอน 2 ลุคใน 1 วันค่ะ \n\nรับทั้งในสถานที่และบริการแต่งหน้านอกสถานที่ นะค่ะ จึงทำให้สะดวกสบายสำหรับลูกค้าทุกท่านเลยค่ะ\n\n++กรณีในสถานที่เป็นที่รัชดา19 หรือ วิภาวดี16 หรือ MRT สถานีรัชดาภิเษก",
        "id": "881974311838861",
        "location": {
            "city": "Bangkok",
            "country": "Thailand",
            "latitude": 13.82676,
            "longitude": 100.56398,
            "street": "Regent Home5 Condo",
            "zip": "10900"
        },
        "name": "ช่างแต่งหน้ารับปริญญา แต่งหน้าสมัครแอร์ แต่งหน้าไปงาน by meple_makeup",
        "phone": "083-922-1141"
    },
    {
        "about": "@ร้านแอร์ภูเก็ต ช่างแอร์ภูเก็ต\nจำหน่ายแอร์ ซ่อมแอร์ ล้างแอร์ภูเก็ต ติดตั้งแอร์ภูเก็ต 081-6771049",
        "description": "ร้านมานะแอร์ รับออกแบบระบบ ติดตั้ง ซ่อมบำรุง เครื่องปรับอากาศ เครื่องทำความเย็น งานระบายอากาศทุกชนิด มีปัญหาเรื่องความเย็น \"มานะแอร์\"ช่วยได้ครับ 0816771049",
        "general_info": "ร้านมานะแอร์ภูเก็ต ร้านแอร์ภูเก็ต ช่างแอร์ภูเก็ต ล้างแอร์ภูเก็ต ติดตั้งแอร์ภูเก็ต ซ่อมแอร์ภูเก็ต เครื่องปรับอากาศภูเก็ต 081-6771049 / 085-8886880",
        "id": "650619111696099",
        "location": {
            "city": "Amphoe Muang Phuket",
            "country": "Thailand",
            "street": "44, Soi Surin2, Road Surin,",
            "zip": "83000"
        },
        "name": "ร้านแอร์ภูเก็ต ช่างแอร์ภูเก็ต มานะแอร์ จำหน่าย ติดตั้ง ซ่อมแอร์ ล้างแอร์"
    },
    {
        "about": "PanAir - ช่างแอร์ในตำนาน\nรับติดตั้งแอร์ ล้างแอร์\n081-746-1768",
        "id": "423818964494845",
        "name": "PanAir - ช่างแอร์ในตำนาน"
    },
    {
        "about": "รับสมัครช่างแอร์  ผู้ช่วยช่างแอร์  ",
        "id": "195664067232129",
        "location": {
            "city": "เมืองสมุทรปราการ",
            "street": "ถนนเทพารักษ์",
            "zip": "10270"
        },
        "name": "รับสมัครช่างแอร์มืออาชีพ ผู้ช่วยช่างฯ"
    },
    {
        "id": "186762374682861",
        "name": "ช่างแอร์รถยนต์"
    },
    {
        "about": "บริการรับซ่อมไดนาโม\nรับเติมน้ำยาแอร์,\nแอร์บ้าน,แอร์รถยนต์",
        "id": "612588622183283",
        "location": {
            "city": "Amphoe Lom Kao",
            "country": "Thailand",
            "latitude": 17.0032501,
            "longitude": 101.3162003,
            "street": "51/1ม.13",
            "zip": "67120"
        },
        "name": "ช่างเขยไดนาโม,แอร์",
        "phone": "0983743022"
    },
    {
        "id": "828906107195640",
        "location": {
            "city": "Bangkok",
            "country": "Thailand",
            "latitude": 13.7522,
            "longitude": 100.494,
            "street": "บางซื่อ,บางโพ,เตาปูน",
            "zip": "10800"
        },
        "name": "ช่างเบียร์ แอร์บ้าน 0883735538  ล้าง,ซ่อม,ติดตั้ง และรับให้คำปรึกษาแอร์บ้าน",
        "phone": "0883735538"
    }
]