[
    {
        "about": "อินเตอร์เน็ต เกมส์ออนไลน์ และเครื่องดื่มอาหารว่าง ",
        "description": "ร้านบ้านสวนอินเตอร์ให้บริการ อินเตอร์เน็ต เกมส์ออนไลน์ playstasion      รับทำรายงาน ส่งแฟ็กซ์ รับแฟ็กซ์ ถ่ายเอกสาร และให้บริการเช่าห้องซ้อมดนตรี Friendly Sound  ",
        "id": "156797634467108",
        "location": {
            "city": "Long",
            "country": "Thailand",
            "latitude": 18.082789146747,
            "longitude": 99.845383136575,
            "street": "บ้านแม่ลานพัฒนา",
            "zip": "54150"
        },
        "name": "บ้านสวนอินเตอร์เน็ต \u0026 Friendly Sound -ห้องซ้อมดนตรี",
        "phone": "บ้านแม่ลานพัฒนา ติดโรงงานชูรสพืชผล"
    },
    {
        "id": "247149561986527",
        "location": {
            "city": "Si Racha",
            "country": "Thailand",
            "latitude": 13.358087289724,
            "longitude": 101.00704346881,
            "zip": "20000"
        },
        "name": "ศูนย์ซ่อมตัวถังและสี@โตโยต้า อินเตอร์ยนต์"
    },
    {
        "about": "รับปรึกษาปัญหาระบบยูวี",
        "description": "รับสร้างเครื่องยูวีตามลักษณะงานของลูกค้าหรือตามความต้องการของลูกค้า",
        "emails": [
            "richinter_salebk@hotmail.com"
        ],
        "id": "1606386826305817",
        "location": {
            "city": "Samut Prakan",
            "country": "Thailand",
            "latitude": 13.6,
            "longitude": 100.6,
            "street": "140/39 ซ.กิ่งแก้ว9/1ราชาเทวะบางพลี",
            "zip": "10540"
        },
        "name": "เครื่องยูวี,หลอดยูวี,ซ่อมเครื่องยูวี,ริชอินเตอร์ โปรดักส์",
        "phone": "086-341-5325สมคิด ,091-886-0639สิริมัณฑ์"
    },
    {
        "id": "1464521150453651",
        "location": {
            "city": "Chonburi",
            "country": "Thailand",
            "latitude": 13.35395,
            "longitude": 101.0078
        },
        "name": "อู่ซ่อมตัวถังและสี toyota อินเตอร์ยนต์ชลบุรี"
    },
    {
        "id": "1429852873912883",
        "location": {
            "city": "ดุซงญอ",
            "latitude": 6.1697007,
            "longitude": 101.7083834,
            "street": "ชุมชนเกาะกุเวะห์ใหม่"
        },
        "name": "ร้านอินเตอร์เน็ต,จำหน่ายคอมพิวเตอร์,ซ่อมคอมพิวเตอร์",
        "phone": "073672624"
    },
    {
        "id": "1410337649183952",
        "location": {
            "city": "Bangkok",
            "country": "Thailand",
            "latitude": 13.8749035,
            "longitude": 100.4279801,
            "zip": "11110"
        },
        "name": "บริษัท เอ็นซี อินเตอร์เนชั่นแนล จำกัด ศูนย์ซ่อมนครชัย"
    },
    {
        "id": "1377353962536000",
        "location": {
            "city": "Si Racha",
            "country": "Thailand",
            "latitude": 13.130375409409,
            "longitude": 100.91652384913
        },
        "name": "อู่ซ่อมตัวถังและสี บริษัทโตโยต้า อินเตอร์ยนต์ ชลบุรี1999จำกัด สาขาอ่าวอุดม"
    },
    {
        "id": "837082903039795",
        "location": {
            "city": "Ban Rangsit",
            "country": "Thailand",
            "latitude": 13.975787110531,
            "longitude": 100.57896654826
        },
        "name": "บริษัท สแกนอินเตอร์ จำกัด - มหาชน สาขาซ่อมสร้าง"
    },
    {
        "id": "578723415504825",
        "location": {
            "city": "Bangkok",
            "country": "Thailand",
            "latitude": 13.6899367,
            "longitude": 100.8514082
        },
        "name": "อู่ซ่อมรถ บริษัทสปีด อินเตอร์ ทรานสปอร์ต จำกัด"
    },
    {
        "id": "415347801857566",
        "location": {
            "latitude": 16.350005,
            "longitude": 103.116957
        },
        "name": "อู่ซ่อมรถอินเตอร์ ^_^\""
    },
    {
        "id": "401327036721081",
        "location": {
            "city": "Bangkok",
            "country": "Thailand",
            "latitude": 13.97543481372,
            "longitude": 100.5792760849
        },
        "name": "มิตซบิซิ สแกนอินเตอร์ ซ่อมสร้าง"
    },
    {
        "id": "393535310840090",
        "location": {
            "city": "Amphoe Muang Chon Buri",
            "country": "Thailand",
            "latitude": 13.357173631241,
            "longitude": 101.00994360894
        },
        "name": "ศูนย์ซ่อมตัวถัง-สี บ.โตโยต้าอินเตอร์ยนต์ ชลบุรี - 1999 จก."
    },
    {
        "id": "391893287558191",
        "location": {
            "city": "Bangkok",
            "country": "Thailand",
            "latitude": 14.076068541048,
            "longitude": 100.59849159801
        },
        "name": "ร้านซ่อมจักรยานอินเตอร์โซน"
    },
    {
        "id": "390971821009716",
        "location": {
            "city": "Ratchaburi",
            "country": "Thailand",
            "latitude": 13.530265950058,
            "longitude": 99.822105884002,
            "zip": "70000"
        },
        "name": "The Three : อินเตอร์เน็ต \u0026 ห้องซ้อมดนตรี"
    },
    {
        "id": "386216881580308",
        "location": {
            "city": "Samut Sakhon",
            "country": "Thailand",
            "latitude": 13.5333,
            "longitude": 100.283
        },
        "name": "ห้องห้องช่างซ่อมบำรุงเลี่ยงฮะเฮงอินเตอร์เนชั่นแนลรับเบอร์ จำกัด"
    },
    {
        "id": "385311244883335",
        "location": {
            "city": "Chonburi",
            "country": "Thailand",
            "latitude": 13.352600871598,
            "longitude": 101.00640999162,
            "zip": "20000"
        },
        "name": "ร้านอินเตอร์เซอวิส ศูนย์บริการซ่อม บี เอ็ม"
    },
    {
        "id": "356871937699614",
        "location": {
            "city": "Bangkok",
            "country": "Thailand",
            "latitude": 13.669852302152,
            "longitude": 100.59873650469
        },
        "name": "ศูนย์ซ่อมวิริยะ เจเอส อินเตอร์"
    },
    {
        "id": "343376739039735",
        "location": {
            "city": "Bangkok",
            "country": "Thailand",
            "latitude": 13.834171818182,
            "longitude": 100.54781363636
        },
        "name": "อู่ซ่อมรถ ฟาล์คอน อินเตอร์ \"ประชานิเวศน์"
    },
    {
        "id": "342533882549696",
        "location": {
            "city": "Bangkok",
            "country": "Thailand",
            "latitude": 13.781466251989,
            "longitude": 100.58906347301
        },
        "name": "ร้านอินเตอร์ ซ่อมระบบไฟฟ้า"
    },
    {
        "id": "339312622849401",
        "location": {
            "latitude": 8.233851,
            "longitude": 99.888409
        },
        "name": "ห้องซ้อมดนตรี โกอินเตอร์"
    },
    {
        "id": "300689693329940",
        "location": {
            "city": "Bangkok",
            "country": "Thailand",
            "latitude": 13.8895105,
            "longitude": 100.5187481
        },
        "name": "อู่ซ่อมรฤ เอส เอส อินเตอร์"
    },
    {
        "id": "274799545962109",
        "location": {
            "city": "Bangkok",
            "country": "Thailand",
            "latitude": 13.73778010487,
            "longitude": 100.44655191722
        },
        "name": "ศูนย์ซ่อม นที อินเตอร์เซอร์วิส"
    },
    {
        "id": "249335688486435",
        "location": {
            "city": "Si Racha",
            "country": "Thailand",
            "latitude": 13.100120534667,
            "longitude": 100.95198692298,
            "zip": "20230"
        },
        "name": "พลอย ซ้อมดนตรี \u0026 อินเตอร์เน็ต"
    },
    {
        "id": "176595012492776",
        "location": {
            "latitude": 13.345362113493,
            "longitude": 101.10123472818
        },
        "name": "ศูนย์ซ่อมตัวถังและสีโตโยต้าอินเตอร์ยนต์"
    },
    {
        "id": "249541365145778",
        "location": {
            "city": "Si Racha",
            "country": "Thailand",
            "latitude": 13.1428445636,
            "longitude": 100.936913764,
            "zip": "20110"
        },
        "name": "อู่ซ่อมรถมาตรฐาน ศรีราชา อินเตอร์การาจ"
    }
]